     2.10           OBSERVATION DATA    GPS(GPS)            RINEX VERSION / TYPE
cnvtToRINEX 3.07.0  convertToRINEX OPR  19-May-20 12:31 UTC PGM / RUN BY / DATE 
----------------------------------------------------------- COMMENT             
GBA0                                                        MARKER NAME         
GBA0                                                        MARKER NUMBER       
GNSS Observer       Trimble                                 OBSERVER / AGENCY   
0220324777          5700                2.32                REC # / TYPE / VERS 
                    TRM39105.00                             ANT # / TYPE        
 -3050437.1836  4927957.2499  2653973.6697                  APPROX POSITION XYZ 
       -0.0460        0.0000        0.0000                  ANTENNA: DELTA H/E/N
     1     1     0                                          WAVELENGTH FACT L1/2
     4    C1    L1    L2    P2                              # / TYPES OF OBSERV 
  2020     5    16     0     4   25.0000000     GPS         TIME OF FIRST OBS   
  2020     5    16     1    34    0.0000000     GPS         TIME OF LAST OBS    
     0                                                      RCV CLOCK OFFS APPL 
    18                                                      LEAP SECONDS        
    11                                                      # OF SATELLITES     
   G03   163   145   163   163                              PRN / # OF OBS      
   G04  4850  4805  4627  4627                              PRN / # OF OBS      
   G08  5349  5348  5348  5348                              PRN / # OF OBS      
   G11  1817  1817  1817  1817                              PRN / # OF OBS      
   G14  3088  3074  3032  3032                              PRN / # OF OBS      
   G16  5376  5375  5376  5376                              PRN / # OF OBS      
   G21  4337  4331  4319  4319                              PRN / # OF OBS      
   G26  5376  5375  5376  5376                              PRN / # OF OBS      
   G27  5376  5376  5376  5376                              PRN / # OF OBS      
   G31  5376  5375  5371  5371                              PRN / # OF OBS      
   G32   175   161    36    36                              PRN / # OF OBS      
CARRIER PHASE MEASUREMENTS: PHASE SHIFTS REMOVED            COMMENT             
                                                            END OF HEADER       
 20  5 16  0  4 25.0000000  0  4G16G26G27G31                        -0.000368387
  20526901.34417    -16573.78517     -9723.18858  20526897.59058
  20970402.24217     41933.46917     27518.89559  20970401.53959
  21343184.18816   -106535.93816    -55155.23459  21343183.07059
  21629987.93016     23442.35516     12343.61759  21629984.12559
 20  5 16  0  4 26.0000000  0  4G16G26G27G31                        -0.000368654
  20526827.500 6    -16962.609 6    -10026.16448  20526823.24248
  20970599.461 7     42971.430 7     28327.69949  20970598.90249
  21342552.672 6   -109854.434 6    -57741.07849  21342551.30149
  21630071.930 6     23882.902 6     12686.89849  21630068.41049
 20  5 16  0  4 27.0000000  0  4G16G26G27G31                        -0.000368923
  20526753.219 6    -17352.047 6    -10329.62148  20526748.77348
  20970796.836 7     44008.574 7     29135.86349  20970796.34449
  21341921.156 6   -113173.430 6    -60327.30949  21341919.86749
  21630155.672 6     24322.707 6     13029.60249  21630151.59449
 20  5 16  0  4 28.0000000  0  4G16G26G27G31                        -0.000369192
  20526679.383 6    -17742.063 6    -10633.53148  20526674.65648
  20970994.242 7     45044.867 7     29943.36349  20970993.55949
  21341289.734 6   -116492.980 6    -62913.97749  21341288.03949
  21630239.047 6     24761.715 6     13371.68049  21630235.29749
 20  5 16  0  4 29.0000000  0  4G16G26G27G31                        -0.000369461
  20526604.953 6    -18132.805 6    -10938.01248  20526600.68048
  20971191.484 7     46080.258 7     30750.15649  20971190.45749
  21340657.953 6   -119813.160 6    -65501.13349  21340656.50049
  21630322.813 6     25199.879 6     13713.10549  21630318.93049
 20  5 16  0  4 30.0000000  0  4G16G26G27G31                        -0.000369732
  20526530.508 6    -18524.082 6    -11242.90248  20526526.07848
  20971388.039 7     47114.887 7     31556.35949  20971387.18849
  21340025.570 6   -123133.820 6    -68088.66049  21340024.85549
  21630405.813 6     25637.340 6     14053.98449  21630402.05149
 20  5 16  0  4 31.0000000  0  4G16G26G27G31                        -0.000370003
  20526455.641 6    -18916.199 6    -11548.45348  20526451.99248
  20971584.805 7     48148.426 7     32361.71549  20971584.24649
  21339393.453 6   -126455.242 6    -70676.77749  21339392.33649
  21630488.781 6     26073.797 6     14394.08249  21630485.23049
 20  5 16  0  4 32.0000000  0  4G16G26G27G31                        -0.000370274
  20526380.867 6    -19308.938 6    -11854.48048  20526376.97748
  20971781.172 6     49181.164 6     33166.44549  20971780.56349
  21338761.406 6   -129777.211 6    -73265.33249  21338760.51649
  21630571.977 7     26509.484 7     14733.57449  21630567.96549
 20  5 16  0  4 33.0000000  0  4G16G26G27G31                        -0.000370546
  20526306.477 6    -19702.277 6    -12160.98448  20526301.93448
  20971977.953 6     50213.047 6     33970.50449  20971976.75849
  21338129.047 6   -133099.711 6    -75854.30149  21338127.88749
  21630654.539 6     26944.391 6     15072.45749  21630650.87949
 20  5 16  0  4 34.0000000  0  4G16G26G27G31                        -0.000370817
  20526230.859 6    -20096.094 6    -12467.85548  20526227.04748
  20972173.945 6     51244.242 6     34774.03149  20972173.02749
  21337497.016 6   -136422.617 6    -78443.57849  21337495.53149
  21630737.008 6     27378.672 6     15410.85549  21630733.66049
 20  5 16  0  4 35.0000000  0  4G16G26G27G31                        -0.000371092
  20526156.047 6    -20490.508 6    -12775.19148  20526151.66848
  20972370.172 6     52274.598 6     35576.90649  20972369.22349
  21336864.844 6   -139746.055 6    -81033.27349  21336863.38349
  21630819.781 6     27812.211 6     15748.68049  21630815.94149
 20  5 16  0  4 36.0000000  0  4G16G26G27G31                        -0.000371365
  20526081.219 6    -20885.344 6    -13082.85948  20526077.24648
  20972565.711 6     53304.355 6     36379.31649  20972565.11349
  21336232.195 6   -143069.820 6    -83623.22349  21336231.08249
  21630901.930 6     28245.188 6     16086.06349  21630898.35549
 20  5 16  0  4 37.0000000  0  4G16G26G27G31                        -0.000371639
  20526005.930 6    -21280.758 6    -13390.97348  20526001.43448
  20972761.805 6     54333.293 6     37181.09049  20972761.13749
  21335599.320 6   -146394.113 6    -86213.57449  21335598.29749
  21630984.211 6     28677.375 6     16422.83249  21630980.61749
 20  5 16  0  4 38.0000000  0  4G16G26G27G31                        -0.000371914
  20525930.789 7    -21676.641 7    -13699.44948  20525926.52748
  20972957.555 7     55361.504 7     37982.29349  20972956.99649
  21334966.367 6   -149718.793 6    -88804.23049  21334965.58249
  21631066.000 6     29108.934 6     16759.10549  21631062.30149
 20  5 16  0  4 39.0000000  0  4G16G26G27G31                        -0.000372189
  20525855.172 7    -22073.004 7    -14008.30948  20525851.02048
  20973153.164 7     56389.047 7     38782.97749  20973152.39849
  21334333.883 6   -153043.898 6    -91395.22349  21334332.83249
  21631148.188 6     29539.863 6     17094.90249  21631144.69949
 20  5 16  0  4 40.0000000  0  4G16G26G27G31                        -0.000372465
  20525779.156 6    -22470.234 6    -14317.84448  20525775.16448
  20973348.906 7     57415.500 7     39582.80549  20973347.60249
  21333701.516 6   -156369.801 6    -93986.84849  21333700.26249
  21631229.633 6     29969.797 6     17429.92649  21631226.44949
 20  5 16  0  4 41.0000000  0  4G16G26G27G31                        -0.000372742
  20525703.680 6    -22868.074 6    -14627.84848  20525699.89848
  20973543.547 7     58441.117 7     40381.98049  20973542.66849
  21333068.719 6   -159696.188 6    -96578.84449  21333067.13749
  21631311.734 6     30398.938 6     17764.31649  21631308.25849
 20  5 16  0  4 42.0000000  0  4G16G26G27G31                        -0.000373018
  20525628.289 6    -23266.391 6    -14938.21948  20525624.03948
  20973739.148 7     59466.023 7     41180.61349  20973737.81349
  21332435.375 6   -163023.043 6    -99171.20349  21332434.30949
  21631393.664 6     30827.426 6     18098.19949  21631390.05149
 20  5 16  0  4 43.0000000  0  4G16G26G27G31                        -0.000373297
  20525552.086 6    -23665.180 6    -15248.96948  20525547.64848
  20973933.539 7     60490.238 7     41978.70749  20973932.65649
  21331801.906 6   -166350.281 6   -101763.85549  21331800.85249
  21631475.320 6     31255.313 6     18431.61349  21631471.16449
 20  5 16  0  4 44.0000000  0  4G16G26G27G31                        -0.000373575
  20525476.047 6    -24064.242 6    -15559.93048  20525472.12548
  20974128.328 7     61513.977 7     42776.41449  20974127.29349
  21331168.703 6   -169677.691 6   -104356.64549  21331167.78949
  21631556.016 6     31682.754 6     18764.68449  21631552.46949
 20  5 16  0  4 45.0000000  0  4G16G26G27G31                        -0.000373854
  20525400.078 6    -24463.848 6    -15871.31348  20525396.05148
  20974323.031 7     62536.941 7     43573.53149  20974322.59449
  21330534.875 6   -173005.574 6   -106949.79749  21330534.39549
  21631637.430 6     32109.508 6     19097.21949  21631633.78949
 20  5 16  0  4 46.0000000  0  4G16G26G27G31                        -0.000374134
  20525324.008 6    -24863.918 6    -16183.05548  20525320.03548
  20974517.289 7     63559.184 7     44370.08649  20974516.89149
  21329902.422 6   -176333.863 6   -109543.27049  21329900.65649
  21631718.813 7     32535.609 7     19429.24649  21631714.44949
 20  5 16  0  4 47.0000000  0  4G16G26G27G31                        -0.000374414
  20525247.641 6    -25264.625 6    -16495.29348  20525243.92648
  20974711.797 6     64580.598 6     45165.98449  20974711.60249
  21329269.031 6   -179662.715 6   -112137.18449  21329267.82849
  21631799.555 6     32960.941 6     19760.67249  21631795.68449
 20  5 16  0  4 48.0000000  0  4G16G26G27G31                        -0.000374693
  20525171.273 6    -25665.781 6    -16807.87948  20525167.68848
  20974906.156 6     65601.355 6     45961.38749  20974905.62949
  21328635.656 6   -182991.984 6   -114731.42249  21328634.05549
  21631880.352 7     33385.688 7     20091.64149  21631875.98449
 20  5 16  0  4 49.0000000  0  5G16G26G27G31G32                     -0.000374975
  20525094.891 6    -26067.313 6    -17120.76248  20525091.35948
  20975100.273 6     66621.496 6     46756.29749  20975099.81349
  21328002.219 6   -186321.492 6   -117325.85249  21328000.42649
  21631961.203 6     33809.859 6     20422.16449  21631956.70749
  23827400.36712     76808.62912                
 20  5 16  0  4 50.0000000  0  7G08G14G16G26G27G31G32               -0.000375307
  23672825.50815   -116592.03915    -62266.98857  23672826.55557
  21776333.25016     67750.30116     45985.46157  21776329.69557
  20525018.422 6    -26469.359 6    -17434.05148  20525014.43048
  20975294.156 6     67640.883 6     47550.62149  20975293.55549
  21327368.313 6   -189651.496 6   -119920.65249  21327366.99649
  21632041.961 7     34233.363 7     20752.16449  21632037.68449
  23828012.148 2     80025.641 2                
 20  5 16  0  4 51.0000000  0  7G08G14G16G26G27G31G32               -0.000375589
  23672032.430 4   -120761.449 4    -65515.86347  23672033.11747
  21776792.617 6     70162.805 6     47865.34046  21776788.87146
  20524941.609 6    -26871.883 6    -17747.69948  20524938.00448
  20975488.250 7     68659.613 7     48344.43849  20975487.58649
  21326734.180 6   -192981.859 6   -122515.75049  21326733.09849
  21632122.031 6     34656.254 6     21081.68449  21632117.99649
  23828624.805 2     83241.938 2                
 20  5 16  0  4 52.0000000  0  7G08G14G16G26G27G31G32               -0.000375872
  23671239.664 4   -124931.836 4    -68765.50447  23671239.78147
  21777251.578 6     72574.609 6     49744.67246  21777247.84446
  20524865.023 6    -27275.094 6    -18061.89548  20524861.31648
  20975681.883 7     69677.414 7     49137.52049  20975680.76649
  21326100.555 6   -196312.859 6   -125111.33249  21326099.33249
  21632202.891 6     35078.293 6     21410.54349  21632198.57449
  23829236.438 1     86457.234 1                
 20  5 16  0  4 53.0000000  0  7G08G14G16G26G27G31G32               -0.000376156
  23670444.781 4   -129102.797 4    -72015.59447  23670446.12547
  21777710.469 6     74986.102 6     51623.75047  21777706.47747
  20524788.164 6    -27678.664 6    -18376.35948  20524784.25448
  20975875.398 7     70694.617 7     49930.14849  20975874.97749
  21325466.313 6   -199644.125 6   -127707.12149  21325465.28549
  21632282.469 7     35499.816 7     21738.99249  21632278.28949
  23829847.711 2     89671.965 2                
 20  5 16  0  4 54.0000000  0  7G08G14G16G26G27G31G32               -0.000376438
  23669651.289 4   -133274.617 4    -75266.36347  23669652.46147
  21778168.922 6     77396.980 6     53502.35947  21778165.46947
  20524711.484 6    -28082.867 6    -18691.32848  20524707.63348
  20976068.688 7     71710.988 7     50722.12549  20976068.05149
  21324832.344 6   -202975.969 6   -130303.36749  21324831.23449
  21632363.148 7     35920.551 7     22066.84049  21632358.69549
  23830459.984 2     92885.793 2                
 20  5 16  0  4 55.0000000  0  7G08G14G16G26G27G31G32               -0.000376724
  23668857.266 3   -137447.246 3    -78517.77347  23668857.93847
  21778627.156 6     79807.344 6     55380.55547  21778623.63347
  20524634.523 6    -28487.613 6    -19006.71948  20524630.32848
  20976261.578 6     72726.566 6     51513.48449  20976261.73049
  21324197.938 6   -206308.254 6   -132899.95349  21324197.28149
  21632442.695 6     36340.578 6     22394.13349  21632438.41449
  23831070.883 2     96098.777 2                
 20  5 16  0  4 56.0000000  0  7G08G14G16G26G27G31G32               -0.000377008
  23668063.508 4   -141620.504 4    -81769.67647  23668063.90247
  21779086.273 6     82217.398 6     57258.52347  21779082.73447
  20524557.539 6    -28892.684 6    -19322.35248  20524553.30148
  20976455.484 6     73741.590 6     52304.41449  20976454.59449
  21323564.320 6   -209640.863 6   -135496.79349  21323562.96949
  21632522.695 7     36760.090 7     22721.02749  21632518.41049
  23831682.609 2     99311.184 2                
 20  5 16  0  4 57.0000000  0  7G08G14G16G26G27G31G32               -0.000377295
  23667268.398 4   -145794.387 4    -85022.05547  23667269.01647
  21779545.375 6     84627.055 6     59136.17247  21779541.17247
  20524480.344 6    -29298.227 6    -19638.36348  20524476.31648
  20976648.234 6     74755.969 6     53094.84049  20976647.57849
  21322929.977 6   -212973.777 6   -138093.86749  21322929.41849
  21632601.992 7     37179.031 7     23047.46549  21632597.61749
  23832294.086 2    102522.910 2                
 20  5 16  0  4 58.0000000  0  7G08G14G16G26G27G31G32               -0.000377581
  23666474.117 4   -149969.211 4    -88275.16447  23666474.85547
  21780003.813 6     87036.023 6     61013.28147  21779999.41447
  20524402.875 6    -29704.426 6    -19954.87948  20524398.74648
  20976841.313 6     75769.434 6     53884.54749  20976840.34849
  21322295.594 6   -216307.320 6   -140691.43849  21322294.78949
  21632681.797 7     37597.133 7     23373.26249  21632677.57049
  23832904.992 2    105733.691 2                
 20  5 16  0  4 59.0000000  0  7G08G14G16G26G27G31G32               -0.000377867
  23665680.430 4   -154144.652 4    -91528.75047  23665680.48847
  21780461.680 6     89444.602 6     62890.09047  21780457.81347
  20524325.602 6    -30111.059 6    -20271.73848  20524321.76248
  20977033.586 6     76782.242 6     54673.75049  20977033.00449
  21321661.133 6   -219641.227 6   -143289.28549  21321660.17649
  21632760.695 7     38014.613 7     23698.57049  21632756.79349
  23833515.281 1    108943.836 1                
 20  5 16  0  5  0.0000000  0  7G08G14G16G26G27G31G32               -0.000378153
  23664885.977 4   -158320.891 4    -94782.95747  23664885.83247
  21780919.961 6     91852.680 6     64766.52747  21780915.85247
  20524248.133 6    -30518.176 6    -20588.97348  20524244.52748
  20977225.977 6     77794.336 6     55462.38749  20977225.55549
  21321026.711 6   -222975.543 6   -145887.45349  21321025.97349
  21632840.742 6     38431.480 6     24023.40249  21632836.27749
  23834124.516 1    112153.113 1                
 20  5 16  0  5  1.0000000  0  7G08G14G16G26G27G31G32               -0.000378443
  23664090.406 4   -162497.730 4    -98037.63747  23664090.57447
  21781378.320 6     94260.406 6     66642.68047  21781374.03947
  20524170.352 6    -30925.688 6    -20906.51648  20524166.67248
  20977418.969 7     78805.801 7     56250.54349  20977418.11749
  21320391.805 6   -226310.172 6   -148485.85949  21320391.41049
  21632919.359 6     38847.773 6     24347.78549  21632915.17249
  23834736.281 1    115361.781 1                
 20  5 16  0  5  2.0000000  0  7G08G14G16G26G27G31G32               -0.000378731
  23663295.477 4   -166675.176 4   -101292.78147  23663296.15247
  21781836.305 6     96667.770 6     68518.53947  21781832.13347
  20524092.539 6    -31333.578 6    -21224.35948  20524088.86748
  20977611.430 7     79816.711 7     57038.27049  20977610.61349
  21319756.906 6   -229645.105 6   -151084.50849  21319756.30549
  21632998.492 6     39263.551 6     24671.76649  21632994.50849
  23835347.070 2    118569.828 2                
 20  5 16  0  5  3.0000000  0  7G08G14G16G26G27G31G32               -0.000379019
  23662500.266 4   -170853.355 4   -104548.50047  23662500.53947
  21782294.055 6     99074.652 6     70394.03547  21782290.30147
  20524015.211 6    -31741.961 6    -21542.59048  20524011.19148
  20977803.148 6     80826.852 6     57825.39549  20977802.61749
  21319122.648 6   -232980.469 6   -153683.49649  21319121.67649
  21633077.492 6     39678.668 6     24995.22749  21633073.25849
  23835957.813 2    121777.086 2                
 20  5 16  0  5  4.0000000  0  7G08G14G16G26G27G31G32               -0.000379309
  23661704.992 4   -175032.164 4   -107804.73047  23661705.93447
  21782752.211 6    101481.191 6     72269.26247  21782748.43847
  20523937.594 6    -32150.734 6    -21861.11348  20523933.41848
  20977995.281 7     81836.414 7     58612.06349  20977994.89849
  21318487.516 6   -236316.141 6   -156282.72349  21318487.37149
  21633156.641 6     40093.234 6     25318.26249  21633152.33249
  23836566.805 1    124983.727 1                
 20  5 16  0  5  5.0000000  0  7G08G14G16G26G27G31G32               -0.000379599
  23660909.945 4   -179211.643 4   -111061.47747  23660910.20347
  21783209.906 6    103887.313 6     74144.15247  21783206.30147
  20523859.414 6    -32559.949 6    -22179.99248  20523855.43448
  20978187.398 7     82845.324 7     59398.23049  20978186.74249
  21317852.633 6   -239652.148 6   -158882.20349  21317852.35949
  21633235.086 6     40507.234 6     25640.85549  21633231.15649
  23837177.945 1    128189.613 1                
 20  5 16  0  5  6.0000000  0  7G08G14G16G26G27G31G32               -0.000379889
  23660114.672 4   -183391.789 4   -114318.72747  23660114.68847
  21783667.641 6    106293.074 6     76018.78547  21783664.27047
  20523781.906 6    -32969.555 6    -22499.16048  20523777.63748
  20978379.352 7     83853.602 7     60183.89549  20978378.77049
  21317217.789 6   -242988.488 6   -161481.94949  21317217.17649
  21633314.023 6     40920.664 6     25963.01249  21633309.82449
  23837788.164 1    131394.930 1                
 20  5 16  0  5  7.0000000  0  7G08G14G16G26G27G31G32               -0.000380178
  23659318.609 4   -187572.516 4   -117576.43047  23659319.28147
  21784125.219 6    108698.434 6     77893.08647  21784122.19947
  20523703.844 6    -33379.563 6    -22818.65248  20523699.54748
  20978570.914 7     84861.254 7     60969.07849  20978570.52049
  21316583.000 6   -246325.164 6   -164081.95349  21316582.56349
  21633392.820 6     41333.539 6     26284.73449  21633388.17249
  23838395.711 1    134599.453 1      1498.91856  23838399.60956
 20  5 16  0  5  8.0000000  0  7G08G14G16G26G27G31G32               -0.000380470
  23658523.250 4   -191753.867 4   -120834.62147  23658523.09047
  21784584.047 6    111103.453 6     79767.12147  21784579.76647
  20523625.336 6    -33789.930 6    -23138.41848  20523621.19548
  20978762.680 7     85868.328 7     61753.81349  20978761.88749
  21315947.750 6   -249662.129 6   -166682.19149  21315947.55549
  21633470.578 6     41745.871 6     26606.03549  21633467.22349
  23839005.781 1    137803.598 1      3995.58646  23839009.23446
 20  5 16  0  5  9.0000000  0  7G08G14G16G26G27G31G32               -0.000380770
  23657727.750 4   -195935.770 4   -124093.25047  23657727.36747
  21785040.352 6    113508.133 6     81640.88747  21785036.79347
  20523547.094 6    -34200.645 6    -23458.44948  20523543.18848
  20978953.734 7     86874.793 7     62538.07449  20978953.46149
  21315312.984 6   -252999.359 6   -169282.62549  21315312.77349
  21633549.570 6     42157.738 6     26926.96949  21633545.02349
  23839617.27312                      6491.59856  23839618.94156
 20  5 16  0  5 10.0000000  0  7G08G14G16G26G27G31G32               -0.000381060
  23656931.602 4   -200118.461 4   -127352.48047  23656931.69147
  21785498.156 6    115912.398 6     83514.35247  21785494.89847
  20523469.164 6    -34611.867 6    -23778.88748  20523464.80548
  20979145.375 6     87880.570 6     63321.79349  20979145.00049
  21314677.609 6   -256337.004 6   -171883.38749  21314677.34449
  21633627.445 6     42568.906 6     27247.35549  21633623.56349
  23840226.703 1    144209.523 1      8987.19945  23840228.25845
 20  5 16  0  5 11.0000000  0  7G08G14G16G26G27G31G32               -0.000381346
  23656134.969 4   -204301.859 4   -130612.27047  23656135.58647
  21785955.430 6    118316.109 6     85387.36747  21785951.71947
  20523390.664 6    -35023.570 6    -24099.69548  20523387.03148
  20979336.586 6     88885.621 6     64104.94549  20979335.87149
  21314041.891 6   -259675.090 6   -174484.48849  21314042.17649
  21633705.648 6     42979.434 6     27567.25049  21633701.99649
  23840836.125 1    147411.336 1     11482.11345  23840837.96145
 20  5 16  0  5 12.0000000  0  7G08G14G16G26G27G31G32               -0.000381639
  23655339.438 4   -208486.047 4   -133872.68447  23655338.87547
  21786413.031 6    120719.379 6     87260.04347  21786409.30947
  20523312.188 6    -35435.785 6    -24420.89848  20523308.16048
  20979527.969 6     89889.961 6     64887.54349  20979527.14849
  21313407.016 6   -263013.590 6   -177085.91849  21313406.96149
  21633783.828 6     43389.297 6     27886.61749  21633780.02749
  23841443.859 1    150612.441 1     13976.50045  23841447.40245
 20  5 16  0  5 13.0000000  0  8G03G08G14G16G26G27G31G32            -0.000381933
  24249395.35211     44359.79711     23093.49656  24249396.95356
  23654542.953 4   -212670.863 4   -137133.57847  23654542.78547
  21786869.875 6    123122.250 6     89132.40647  21786866.13747
  20523234.164 6    -35848.406 6    -24742.43048  20523229.84448
  20979718.625 6     90893.664 6     65669.64549  20979718.59849
  21312771.711 6   -266352.418 6   -179687.60249  21312771.76649
  21633861.633 6     43798.594 6     28205.55549  21633857.49649
  23842052.594 1    153812.855 1     16470.39845  23842055.88345
 20  5 16  0  5 14.0000000  0  8G03G08G14G16G26G27G31G32            -0.000382221
  24249599.477 1     45433.766 1     23930.36746  24249601.32046
  23653746.117 4   -216856.184 4   -140394.86747  23653746.20347
  21787327.430 6    125524.906 6     91004.60547  21787323.65247
  20523155.375 6    -36261.270 6    -25064.14148  20523151.52048
  20979910.055 6     91896.898 6     66451.39149  20979909.54349
  21312136.078 6   -269691.430 6   -182289.43849  21312136.16449
  21633938.945 6     44207.516 6     28524.19549  21633935.27049
  23842662.500 1    157012.758 1     18963.78945  23842665.59045
 20  5 16  0  5 15.0000000  0  8G03G08G14G16G26G27G31G32            -0.000382515
  24249804.414 1     46507.109 1     24766.73046  24249805.54346
  23652949.656 4   -221042.293 4   -143656.77747  23652949.77047
  21787784.414 6    127927.063 6     92876.42247  21787780.82047
  20523076.406 7    -36674.668 7    -25386.27048  20523072.40648
  20980100.586 6     92899.359 6     67232.52349  20980100.17649
  21311500.625 6   -273030.875 6   -184891.60549  21311500.77049
  21634017.211 6     44615.723 6     28842.27349  21634013.44949
  23843271.227 1    160211.934 1     21456.67245  23843274.01645
 20  5 16  0  5 16.0000000  0  8G03G08G14G16G26G27G31G32            -0.000382811
  24250008.219 1     47579.863 1     25602.66046  24250009.86346
  23652152.961 4   -225228.949 4   -146919.11347  23652153.20347
  21788241.570 6    130328.891 6     94747.96947  21788237.28147
  20522997.719 6    -37088.406 6    -25708.66448  20522993.63748
  20980291.430 6     93901.281 6     68013.23849  20980290.93449
  21310865.289 6   -276370.566 6   -187493.96949  21310865.41849
  21634094.633 6     45023.449 6     29159.98049  21634090.67249
  23843879.555 1    163410.457 1     23948.98845  23843882.39145
 20  5 16  0  5 17.0000000  0  8G03G08G14G16G26G27G31G32            -0.000383106
  24250211.781 1     48652.113 1     26438.20746  24250213.59446
  23651356.930 4   -229416.176 4   -150181.88347  23651356.73847
  21788698.828 6    132730.375 6     96619.24647  21788694.70347
  20522918.852 6    -37502.520 6    -26031.35248  20522915.14148
  20980481.727 6     94902.594 6     68793.48449  20980481.02049
  21310230.000 6   -279710.602 6   -190096.59049  21310229.84049
  21634172.125 6     45430.629 6     29477.27049  21634168.45749
  23844488.219 1    166608.301 1     26440.76245  23844491.14145
 20  5 16  0  5 18.0000000  0  8G03G08G14G16G26G27G31G32            -0.000383402
  24250415.438 1     49723.746 1     27273.23846  24250417.47746
  23650559.148 4   -233604.207 4   -153445.28547  23650559.71947
  21789155.766 6    135131.301 6     98490.09847  21789151.70747
  20522839.805 6    -37917.176 6    -26354.45348  20522836.07048
  20980671.805 7     95903.137 7     69573.12549  20980672.14149
  21309593.516 6   -283051.070 6   -192699.55549  21309594.13749
  21634249.234 6     45837.117 6     29794.00849  21634245.42249
  23845097.836 1    169805.340 1     28931.94945  23845099.72745
 20  5 16  0  5 19.0000000  0  8G03G08G14G16G26G27G31G32            -0.000383699
  24250618.953 1     50794.840 1     28107.82446  24250621.34046
  23649761.828 4   -237792.949 4   -156709.23447  23649762.57847
  21789612.695 6    137531.797 6    100360.61347  21789608.06347
  20522760.484 7    -38332.293 7    -26677.93048  20522756.94948
  20980862.344 6     96902.973 6     70352.21949  20980861.68449
  21308957.992 6   -286391.961 6   -195302.84849  21308958.61749
  21634326.617 6     46242.973 6     30110.25849  21634322.74249
  23845705.109 1    173001.664 1     31422.57445  23845707.53945
 20  5 16  0  5 20.0000000  0  8G03G08G14G16G26G27G31G32            -0.000383997
  24250823.008 1     51865.340 1     28941.98046  24250825.03146
  23648965.008 4   -241982.238 4   -159973.60547  23648965.21547
  21790069.641 6    139931.965 6    102230.87147  21790065.19947
  20522681.641 7    -38747.762 7    -27001.67648  20522677.73048
  20981052.539 6     97902.273 6     71130.89849  20981052.09049
  21308322.391 6   -289733.078 6   -197906.31349  21308322.63749
  21634403.789 6     46648.348 6     30426.13349  21634400.33249
  23846313.523 1    176197.449 1     33912.79345  23846316.35245
 20  5 16  0  5 21.0000000  0  8G03G08G14G16G26G27G31G32            -0.000384295
  24251027.01611                     29775.78556  24251028.93856
  23648167.641 4   -246171.973 4   -163238.32847  23648167.86747
  21790526.086 6    142331.984 6    104101.01647  21790521.72347
  20522602.359 7    -39163.426 7    -27325.56648  20522598.73448
  20981242.320 7     98901.156 7     71909.24649  20981242.19949
  21307686.500 6   -293074.324 6   -200509.88349  21307686.69149
  21634480.680 6     47053.371 6     30741.73849  21634476.84449
  23846921.078 1    179392.707 1     36402.65645  23846924.12945
 20  5 16  0  5 22.0000000  0  8G03G08G14G16G26G27G31G32            -0.000384600
  24251229.13311                     30609.25856  24251232.32456
  23647370.203 4   -250362.469 4   -166503.64147  23647370.61747
  21790983.039 6    144731.512 6    105970.77747  21790978.41047
  20522523.367 6    -39579.578 6    -27649.84848  20522519.61748
  20981432.766 6     99899.305 6     72687.02349  20981432.06649
  21307051.148 6   -296416.008 6   -203113.78949  21307050.76249
  21634557.875 6     47457.727 6     31056.81649  21634553.97349
  23847529.617 1    182587.258 1     38891.95345  23847531.55145
 20  5 16  0  5 23.0000000  0  8G03G08G14G16G26G27G31G32            -0.000384897
  24251433.719 1                     31442.26646  24251435.78146
  23646573.133 4   -254553.516 4   -169769.39547  23646572.98047
  21791439.461 6    147130.664 6    107840.24647  21791434.97347
  20522444.070 6    -39996.137 6    -27974.43448  20522440.38748
  20981622.328 6    100896.832 6     73464.31349  20981621.74249
  21306414.867 6   -299757.996 6   -205717.93849  21306415.07849
  21634634.695 6     47861.539 6     31371.47749  21634631.22749
  23848136.789 1    185781.148 1     41380.70745  23848139.92645
 20  5 16  0  5 24.0000000  0  8G03G08G14G16G26G27G31G32            -0.000385197
  24251636.234 1                     32274.82046  24251638.87146
  23645775.852 4   -258745.289 4   -173035.70747  23645775.69947
  21791895.836 6    149529.406 6    109709.39547  21791891.33647
  20522364.906 6    -40413.102 6    -28299.34048  20522360.69148
  20981811.953 6    101893.719 6     74241.10949  20981811.19549
  21305779.086 6   -303100.313 6   -208322.34449  21305779.03149
  21634711.555 6     48264.809 6     31685.71149  21634707.50849
  23848744.656 1    188974.270 1     43868.84845  23848747.35945
 20  5 16  0  5 25.0000000  0  8G03G08G14G16G26G27G31G32            -0.000385496
  24251840.250 1     57210.289 1     33106.94146  24251841.59046
  23644977.766 4   -262937.645 4   -176302.48847  23644977.83247
  21792352.359 6    151927.785 6    111578.27047  21792347.87947
  20522285.531 6    -40830.473 6    -28624.57048  20522281.61348
  20982001.766 6    102889.992 6     75017.42249  20982001.08649
  21305142.680 6   -306442.957 6   -210927.00849  21305143.19549
  21634787.984 6     48667.469 6     31999.46949  21634784.34849
  23849352.336 1    192166.832 1     46356.59045  23849355.35545
 20  5 16  0  5 26.0000000  0  8G03G08G14G16G26G27G31G32            -0.000385790
  24252043.445 1     58277.770 1     33938.75846  24252045.54346
  23644180.031 4   -267130.555 4   -179569.69147  23644179.86347
  21792808.578 6    154325.887 6    113446.91047  21792804.42247
  20522205.820 7    -41248.121 7    -28950.02048  20522201.65248
  20982191.430 6    103885.746 6     75793.34049  20982190.00849
  21304506.328 6   -309785.832 6   -213531.84049  21304506.75849
  21634864.672 6     49069.723 6     32312.91449  21634860.72749
  23849959.438 1    195358.766 1     48843.82045  23849962.64545
 20  5 16  0  5 27.0000000  0  8G03G08G14G16G26G27G31G32            -0.000386089
  24252246.531 1     59344.898 1     34770.28546  24252248.21546
  23643381.695 4   -271324.043 4   -182837.35247  23643382.31347
  21793264.695 6    156723.699 6    115315.34447  21793260.66447
  20522126.461 7    -41666.094 7    -29275.71548  20522122.41848
  20982380.297 6    104880.973 6     76568.83249  20982379.90249
  21303870.352 6   -313128.926 6   -216136.85249  21303871.03949
  21634940.758 6     49471.488 6     32625.98049  21634937.20749
  23850566.852 1    198550.141 1     51330.62945  23850569.74645
 20  5 16  0  5 28.0000000  0  8G03G08G14G16G26G27G31G32            -0.000386391
  24252449.258 1     60411.469 1     35601.37946  24252451.29346
  23642583.414 4   -275517.977 4   -186105.34848  23642584.00048
  21793720.828 6    159121.285 6    117183.59847  21793717.22747
  20522047.258 6    -42084.313 6    -29601.59848  20522042.89548
  20982569.570 6    105875.727 6     77343.96549  20982569.27049
  21303234.430 6   -316472.156 6   -218741.96949  21303234.30149
  21635017.609 6     49872.867 6     32938.74249  21635013.71549
  23851174.133 2    201741.066 2     53816.98845  23851176.75445
 20  5 16  0  5 29.0000000  0  8G03G08G14G16G26G27G31G32            -0.000386692
  24252652.383 1     61477.723 1     36432.21946  24252654.53146
  23641785.555 4   -279712.453 4   -189373.76247  23641786.05947
  21794177.422 6    161518.617 6    119051.64847  21794173.48047
  20521967.422 6    -42502.820 6    -29927.71148  20521963.05148
  20982759.125 6    106869.992 6     78118.72349  20982758.39149
  21302598.242 6   -319815.637 6   -221347.28149  21302598.29349
  21635093.320 6     50273.805 6     33251.16049  21635089.71549
  23851781.625 1    204931.344 1     56302.91445  23851784.17245
 20  5 16  0  5 30.0000000  0  8G03G08G14G16G26G27G31G32            -0.000386993
  24252854.180 1     62543.309 1     37262.54746  24252856.73846
  23640987.219 5   -283907.621 5   -192642.73048  23640987.80148
  21794633.086 6    163915.484 6    120919.33647  21794629.57047
  20521887.570 6    -42921.801 6    -30254.19148  20521883.76648
  20982948.539 6    107863.531 6     78892.91049  20982947.53549
  21301961.945 6   -323159.496 6   -223952.88349  21301961.62949
  21635169.859 6     50674.102 6     33563.08249  21635166.25049
  23852388.242 1    208120.969 1     58788.33644  23852391.21944
 20  5 16  0  5 31.0000000  0  8G03G08G14G16G26G27G31G32            -0.000387297
  24253057.063 1     63608.270 1     38092.38746  24253059.50446
  23640189.641 4   -288103.496 4   -195912.22748  23640189.36348
  21795089.180 6    166311.883 6    122786.65247  21795085.96947
  20521807.813 6    -43341.262 6    -30581.04748  20521803.45348
  20983136.930 6    108856.367 6     79666.54749  20983136.50849
  21301325.688 6   -326503.742 6   -226558.79349  21301325.25849
  21635245.461 6     51073.758 6     33874.50449  21635242.12549
  23852994.813 1    211309.809 1     61273.16044  23852998.27744
 20  5 16  0  5 32.0000000  0  8G03G08G14G16G26G27G31G32            -0.000387600
  24253259.539 1     64672.871 1     38921.94946  24253262.39146
  23639391.258 4   -292299.871 4   -199182.11748  23639390.83248
  21795545.117 6    168708.023 6    124653.77347  21795541.71547
  20521728.258 7    -43760.984 7    -30908.10248  20521723.70348
  20983325.867 6    109848.715 6     80439.79749  20983324.75849
  21300688.984 6   -329848.184 6   -229164.85249  21300689.26249
  21635321.680 6     51473.027 6     34185.61749  21635318.12949
  23853601.641 1    214498.145 1     63757.55145  23853604.74245
 20  5 16  0  5 33.0000000  0  8G03G08G14G16G26G27G31G32            -0.000387903
  24253462.828 1     65736.918 1     39751.07446  24253464.56646
  23638592.602 4   -296496.902 4   -202452.53948  23638592.15248
  21796000.398 6    171103.824 6    126520.63347  21795997.34047
  20521648.297 6    -44181.117 6    -31235.48048  20521643.96548
  20983514.523 6    110840.453 6     81212.58649  20983513.97349
  21300052.328 6   -333192.930 6   -231771.15249  21300052.70749
  21635397.758 6     51871.723 6     34496.29349  21635393.98849
  23854208.875 1    217685.844 1     66241.41445  23854211.30145
 20  5 16  0  5 34.0000000  0  8G03G08G14G16G26G27G31G32            -0.000388206
  24253665.797 1     66800.488 1     40579.82046  24253666.89146
  23637793.586 4   -300694.441 4   -205723.33248  23637793.38748
  21796457.109 6    173499.348 6    128387.27347  21796453.46547
  20521568.281 6    -44601.547 6    -31563.09448  20521563.80548
  20983703.461 6    111831.676 6     81984.96549  20983702.16449
  21299416.344 6   -336537.918 6   -234377.63749  21299416.08649
  21635473.656 6     52269.984 6     34806.61749  21635469.86749
  23854814.422 1    220872.965 1     68724.79745  23854817.78145
 20  5 16  0  5 35.0000000  0  8G03G08G14G16G26G27G31G32            -0.000388510
  24253868.922 1     67863.867 1     41408.42246  24253869.07446
  23636994.898 4   -304892.336 4   -208994.41848  23636994.70748
  21796912.805 6    175894.754 6    130253.81647  21796909.85947
  20521488.094 6    -45022.090 6    -31890.79348  20521483.57448
  20983892.141 7    112822.543 7     82757.06649  20983891.23849
  21298779.648 6   -339882.949 6   -236984.15649  21298779.77049
  21635549.195 6     52667.949 6     35116.71549  21635545.27749
  23855421.586 1    224059.652 1     71207.90245  23855424.44545
 20  5 16  0  5 36.0000000  0  8G03G08G14G16G26G27G31G32            -0.000388815
  24254070.883 1     68926.527 1     42236.46546  24254071.16446
  23636195.469 5   -309091.000 5   -212266.11348  23636195.66048
  21797368.359 6    178289.684 6    132119.99247  21797365.21547
  20521407.844 6    -45443.168 6    -32218.90248  20521403.80548
  20984080.047 7    113812.672 7     83528.59849  20984079.64149
  21298143.227 6   -343228.410 6   -239591.00449  21298142.94949
  21635624.727 6     53065.230 6     35426.28549  21635620.96149
  23856027.859 1    227245.574 1     73690.47345  23856031.13745
 20  5 16  0  5 37.0000000  0  8G03G08G14G16G26G27G31G32            -0.000389120
  24254271.688 1     69988.582 1     43064.03546  24254273.35946
  23635396.328 5   -313290.324 5   -215538.32848  23635396.45348
  21797823.992 6    180684.180 6    133985.83247  21797820.81647
  20521327.773 6    -45864.672 6    -32547.34848  20521323.20348
  20984268.508 7    114802.137 7     84299.60549  20984267.36349
  21297505.875 6   -346574.207 6   -242198.11749  21297506.32049
  21635700.203 6     53461.945 6     35735.41849  21635696.59849
  23856635.305 1    230430.840 1     76172.61745  23856636.91845
 20  5 16  0  5 38.0000000  0  8G03G08G14G16G26G27G31G32            -0.000389425
  24254474.805 1     71050.090 1     43891.17646  24254475.16046
  23634597.148 5   -317490.438 5   -218811.15248  23634596.89148
  21798279.703 6    183078.141 6    135851.25847  21798276.11347
  20521247.344 6    -46286.691 6    -32876.19548  20521243.12148
  20984456.500 7    115790.867 7     85070.04749  20984455.90649
  21296869.773 6   -349920.484 6   -244805.61349  21296869.62149
  21635775.547 6     53857.980 6     36044.01649  21635771.96149
  23857240.594 1    233615.297 1     78654.03945  23857243.32445
 20  5 16  0  5 39.0000000  0  8G03G08G14G16G26G27G31G32            -0.000389732
  24254675.820 1     72111.055 1     44717.88746  24254676.98846
  23633797.016 5   -321691.066 5   -222084.36748  23633797.82048
  21798735.352 6    185471.828 6    137716.47347  21798731.87147
  20521166.922 6    -46709.059 6    -33205.31348  20521162.59848
  20984644.492 6    116779.035 6     85840.03949  20984643.99649
  21296232.727 6   -353267.012 6   -247413.29749  21296232.65649
  21635850.578 6     54253.508 6     36352.22349  21635847.31649
  23857846.055 1    236799.180 1     81134.92645  23857848.98445
 20  5 16  0  5 40.0000000  0  8G03G08G14G16G26G27G31G32            -0.000390038
  24254878.313 1     73171.652 1     45544.33646  24254878.14146
  23632998.164 5   -325892.168 5   -225357.93848  23632998.64848
  21799191.156 6    187865.328 6    139581.53547  21799186.96547
  20521086.063 6    -47131.645 6    -33534.59448  20521082.31648
  20984832.352 6    117766.750 6     86609.69149  20984832.00449
  21295595.367 6   -356613.652 6   -250021.06649  21295596.16449
  21635926.016 6     54648.684 6     36660.15249  21635922.55149
  23858451.102 1    239982.531 1     83615.50444  23858454.75044
 20  5 16  0  5 41.0000000  0  8G03G08G14G16G26G27G31G32            -0.000390345
  24255080.844 1     74231.824 1     46370.45746  24255080.37546
  23632198.563 5   -330093.836 5   -228631.96548  23632198.93048
  21799646.531 6    190258.531 6    141446.36347  21799642.60547
  20521006.063 6    -47554.504 6    -33864.09848  20521001.47748
  20985020.102 6    118753.965 6     87378.94549  20985019.83649
  21294959.000 6   -359960.488 6   -252628.99649  21294959.26249
  21636001.469 6     55043.402 6     36967.72349  21635997.61749
  23859058.078 1    243165.320 1     86095.56645  23859059.95345
 20  5 16  0  5 42.0000000  0  8G03G08G14G16G26G27G31G32            -0.000390652
  24255282.141 1     75291.633 1     47196.25846  24255281.78146
  23631399.250 5   -334295.938 5   -231906.31348  23631399.56348
  21800101.875 6    192651.527 6    143311.03147  21800097.80147
  20520925.813 6    -47977.625 6    -34193.80148  20520921.24248
  20985208.141 6    119740.695 6     88147.83249  20985207.57049
  21294321.984 6   -363307.512 6   -255237.06649  21294322.12149
  21636076.070 6     55437.723 6     37274.98449  21636072.43449
  23859663.938 1    246347.676 1     88575.27745  23859665.98445
 20  5 16  0  5 43.0000000  0  8G03G08G14G16G26G27G31G32            -0.000390959
  24255483.531 1     76350.961 1     48021.69946  24255483.61746
  23630599.977 5   -338498.578 5   -235181.09848  23630599.63748
  21800556.586 6    195044.238 6    145175.47747  21800553.03147
  20520845.031 6    -48401.051 6    -34523.74648  20520840.89848
  20985395.820 6    120726.930 6     88916.32049  20985395.52049
  21293685.000 6   -366654.766 6   -257845.31349  21293685.12549
  21636150.711 6     55831.578 6     37581.87149  21636147.11749
  23860267.883 1    249529.410 1                
 20  5 16  0  5 44.0000000  0  8G03G08G14G16G26G27G31G32            -0.000391268
  24255684.453 1     77409.754 1     48846.73846  24255684.83646
  23629800.211 5   -342701.891 5   -238456.41448  23629800.11348
  21801012.539 6    197436.523 6    147039.59447  21801008.32447
  20520764.648 6    -48824.883 6    -34854.01648  20520759.85948
  20985583.453 6    121712.496 6     89684.29349  20985583.14849
  21293047.984 6   -370002.332 6   -260453.80949  21293047.82049
  21636225.719 6     56224.895 6     37888.34449  21636222.18049
  23860873.117 1    252710.438 1                
 20  5 16  0  5 45.0000000  0  8G03G08G14G16G26G27G31G32            -0.000391577
  24255886.023 1     78468.082 1     49671.43046  24255886.25446
  23629000.063 5   -346905.813 5   -241732.19948  23629000.06648
  21801467.461 6    199828.492 6    148903.46547  21801463.22347
  20520683.906 6    -49249.102 6    -35184.57848  20520679.37548
  20985770.484 6    122697.477 6     90451.81649  20985770.54749
  21292410.875 6   -373350.203 6   -263062.53149  21292411.13749
  21636300.570 6     56617.652 6     38194.39149  21636296.76249
  23861480.086 1    255890.867 1                
 20  5 16  0  5 46.0000000  0  8G03G08G14G16G26G27G31G32            -0.000391884
  24256087.078 1     79525.891 1     50495.68846  24256087.45746
  23628199.352 5   -351110.211 5   -245008.35548  23628199.70748
  21801921.820 6    202220.164 6    150767.10947  21801918.43447
  20520602.898 6    -49673.598 6    -35515.35548  20520598.71148
  20985957.867 6    123681.945 6     91218.92649  20985957.48049
  21291773.531 6   -376698.293 6   -265671.43049  21291773.93849
  21636375.742 6     57009.965 6     38500.09049  21636371.47349
  23862084.766 1    259070.750 1                
 20  5 16  0  5 47.0000000  0  8G03G08G14G16G26G27G31G32            -0.000392195
  24256289.125 1     80583.262 1     51319.61746  24256288.31646
  23627399.547 5   -355315.176 5   -248284.94948  23627399.41848
  21802377.086 6    204611.547 6    152630.52747  21802373.78947
  20520521.977 6    -50098.449 6    -35846.40648  20520517.49648
  20986145.063 6    124665.844 6     91985.60549  20986145.16049
  21291136.117 6   -380046.637 6   -268280.53549  21291136.77049
  21636450.117 6     57401.777 6     38805.39849  21636445.60549
  23862689.289 1    262250.016 1                
 20  5 16  0  5 48.0000000  0  8G03G08G14G16G26G27G31G32            -0.000392504
  24256490.023 1     81640.266 1     52143.23046  24256489.32046
  23626599.023 5   -359520.570 5   -251561.87948  23626599.18448
  21802832.328 6    207002.766 6    154493.80947  21802828.54747
  20520441.563 6    -50523.461 6    -36177.58648  20520436.66848
  20986332.438 6    125649.379 6     92751.99249  20986332.02349
  21290498.859 6   -383395.063 6   -270889.69149  21290499.48049
  21636524.922 6     57793.313 6     39110.49249  21636520.15249
  23863294.492 1    265428.895 1                
 20  5 16  0  5 49.0000000  0  8G03G08G14G16G26G27G31G32            -0.000392815
  24256690.766 1     82696.859 1     52966.55146  24256689.99646
  23625798.938 5   -363726.523 5   -254839.24248  23625799.00048
  21803286.953 6    209393.641 6    156356.83247  21803283.66847
  20520359.961 6    -50948.809 6    -36509.02748  20520355.73448
  20986519.453 6    126632.324 6     93517.91849  20986518.98049
  21289861.477 6   -386743.746 6   -273499.05149  21289862.03149
  21636599.008 6     58184.332 6     39415.18449  21636594.56349
  23863898.828 1    268607.105 1                
 20  5 16  0  5 50.0000000  0  8G03G08G14G16G26G27G31G32            -0.000393126
  24256893.414 1     83753.117 1     53789.60946  24256891.00046
  23624998.711 5   -367932.883 5   -258116.91848  23624998.51248
  21803742.438 6    211784.418 6    158219.76647  21803738.76647
  20520279.531 6    -51374.313 6    -36840.58648  20520275.04348
  20986706.898 6    127614.891 6     94283.55549  20986706.18449
  21289224.781 6   -390092.469 6   -276108.44549  21289225.16849
  21636672.953 6     58575.020 6     39719.62149  21636668.85949
  23864503.992 1    271784.902 1                
 20  5 16  0  5 51.0000000  0  8G03G08G14G16G26G27G31G32            -0.000393436
  24257094.359 1     84808.938 1     54612.29746  24257092.29346
  23624198.094 5   -372139.777 5   -261395.01648  23624197.68448
  21804196.445 6    214174.914 6    160082.49247  21804193.20747
  20520198.492 6    -51800.129 6    -37172.39548  20520194.11748
  20986893.328 7    128596.930 7     95048.78149  20986892.72749
  21288587.063 6   -393441.469 6   -278718.05949  21288587.58249
  21636747.352 6     58965.266 6     40023.70749  21636743.30949
  23865108.461 1    274962.129 1                
 20  5 16  0  5 52.0000000  0  8G03G08G14G16G26G27G31G32            -0.000393747
  24257294.375 1     85864.215 1     55434.58246  24257292.94946
  23623397.602 5   -376347.305 5   -264673.60948  23623397.51648
  21804651.742 6    216564.996 6    161944.89547  21804648.41847
  20520117.695 6    -52226.336 6    -37504.50448  20520113.25848
  20987080.141 7    129578.355 7     95813.52749  20987079.82449
  21287949.570 6   -396790.750 6   -281327.88349  21287950.06349
  21636821.742 6     59354.953 6     40327.36349  21636817.28149
  23865713.055 1    278138.781 1                
 20  5 16  0  5 53.0000000  0  8G03G08G14G16G26G27G31G32            -0.000394060
  24257495.281 1     86919.043 1     56256.53946  24257493.50446
  23622596.031 5   -380555.375 5   -267952.62548  23622596.06648
  21805106.563 6    218954.797 6    163807.07447  21805103.44547
  20520036.078 6    -52652.891 6    -37836.88348  20520031.95348
  20987266.867 7    130559.223 7     96577.83649  20987266.59049
  21287312.461 6   -400140.285 6   -283937.91449  21287313.02749
  21636895.773 6     59744.164 6     40630.64149  21636891.60949
  23866317.164 1    281314.777 1                
 20  5 16  0  5 54.0000000  0  8G03G08G14G16G26G27G31G32            -0.000394371
  24257696.664 1     87973.422 1     57078.15246  24257694.35946
  23621795.258 5   -384764.043 5   -271232.10248  23621795.53948
  21805561.516 6    221344.289 6    165669.01247  21805557.92647
  20519954.789 6    -53079.766 6    -38169.51648  20519950.56648
  20987453.039 6    131539.539 6     97341.72349  20987452.53949
  21286675.078 6   -403490.070 6   -286548.13749  21286675.57849
  21636969.461 6     60132.875 6     40933.52749  21636965.32849
  23866921.492 1    284490.129 1                
 20  5 16  0  5 55.0000000  0  8G03G08G14G16G26G27G31G32            -0.000394686
  24257897.648 1     89027.211 1     57899.29346  24257894.87146
  23620995.359 5   -388973.258 5   -274512.00848  23620994.66048
  21806016.375 6    223733.426 6    167530.67247  21806012.37147
  20519873.336 6    -53506.977 6    -38502.41048  20519869.12948
  20987639.781 6    132519.297 6     98105.16849  20987639.30149
  21286037.391 6   -406840.105 6   -289158.55549  21286037.68849
  21637042.711 6     60521.117 6     41236.04749  21637039.04749
  23867526.688 1    287664.949 1                
 20  5 16  0  5 56.0000000  0  8G03G08G14G16G26G27G31G32            -0.000394999
  24258097.430 1     90080.824 1     58720.31346  24258095.18046
  23620193.430 5   -393182.930 5   -277792.27048  23620193.69148
  21806470.828 6    226122.402 6    169392.20747  21806467.27047
  20519792.055 6    -53934.418 6    -38835.48448  20519787.84448
  20987826.016 6    133498.602 6     98868.26249  20987825.77749
  21285400.469 6   -410190.281 6   -291769.08249  21285400.26249
  21637116.953 6     60908.965 6     41538.26649  21637112.61749
  23868130.250 1    290839.258 1                
 20  5 16  0  5 57.0000000  0  8G03G08G14G16G26G27G31G32            -0.000395311
  24258296.742 1     91133.992 1     59540.94946  24258295.43046
  23619392.453 5   -397392.984 5   -281072.83248  23619392.87548
  21806925.070 6    228511.227 6    171253.63347  21806921.60947
  20519710.852 6    -54362.004 6    -39168.66848  20519706.69548
  20988012.547 7    134477.539 7     99631.06649  20988012.04349
  21284762.641 6   -413540.527 6   -294379.66049  21284762.89849
  21637190.750 6     61296.527 6     41840.27049  21637186.82849
  23868734.992 1    294013.109 1                
 20  5 16  0  5 58.0000000  0  8G03G08G14G16G26G27G31G32            -0.000395624
  24258496.26611                     60361.20356  24258496.00856
  23618590.789 5   -401603.512 5   -284353.76248  23618591.39148
  21807379.797 6    230899.809 6    173114.86747  21807376.68047
  20519629.234 6    -54789.875 6    -39502.07448  20519625.16848
  20988198.617 7    135455.949 7    100393.46949  20988197.73849
  21284124.828 6   -416890.973 6   -296990.39849  21284125.17649
  21637264.969 6     61683.637 6     42141.90249  21637260.56349
  23869337.688 1    297186.500 1                
 20  5 16  0  5 59.0000000  0  8G03G08G14G16G26G27G31G32            -0.000395945
  24258698.09411                     61181.35556  24258696.54756
  23617789.633 5   -405814.523 5   -287635.07448  23617789.84448
  21807834.164 6    233288.168 6    174975.92247  21807831.14847
  20519548.078 6    -55217.980 6    -39835.66048  20519543.87148
  20988384.656 6    136433.953 6    101155.54349  20988383.95749
  21283487.469 6   -420241.570 6   -299601.24649  21283487.25849
  21637338.391 6     62070.367 6     42443.25049  21637333.87549
  23869941.234 1    300359.324 1                
 20  5 16  0  6  0.0000000  0  8G03G08G14G16G26G27G31G32            -0.000396259
  24258898.578 1                     62000.94946  24258896.56346
  23616988.211 5   -410026.168 5   -290916.87548  23616987.94948
  21808289.188 6    235676.199 6    176836.71547  21808285.38347
  20519466.039 6    -55646.445 6    -40169.52348  20519462.08248
  20988570.695 7    137411.313 7    101917.11749  20988570.16449
  21282849.461 6   -423592.469 6   -302212.34049  21282849.98849
  21637411.633 6     62456.570 6     42744.19549  21637407.58649
  23870545.148 1    303531.586 1                
 20  5 16  0  6  1.0000000  0  8G03G08G14G16G26G27G31G32            -0.000396570
  24259097.875 1     95342.488 1     62820.25046  24259096.68046
  23616186.766 5   -414238.383 5   -294199.12148  23616187.29748
  21808742.898 6    238063.809 6    178697.18047  21808739.67647
  20519384.695 6    -56075.316 6    -40503.71548  20519380.51248
  20988756.320 7    138388.082 7    102678.23849  20988756.23849
  21282211.797 6   -426943.645 6   -304823.64549  21282212.13749
  21637485.031 6     62842.238 6     43044.71549  21637481.22749
  23871149.664 1    306703.113 1                
 20  5 16  0  6  2.0000000  0  8G03G08G14G16G26G27G31G32            -0.000396885
  24259297.742 1     96393.605 1     63639.27746  24259296.78146
  23615384.414 5   -418450.969 5   -297481.65248  23615385.00848
  21809197.297 6    240451.383 6    180557.63347  21809193.80547
  20519302.891 6    -56504.246 6    -40837.94148  20519299.00048
  20988942.602 6    139364.555 6    103439.12549  20988941.98049
  21281574.156 6   -430294.820 6   -307434.94949  21281574.34849
  21637558.313 6     63227.672 6     43345.04749  21637554.03949
  23871752.945 1    309874.336 1                
 20  5 16  0  6  3.0000000  0  8G03G08G14G16G26G27G31G32            -0.000397202
  24259498.031 1     97444.332 1     64458.02346  24259497.12946
  23614583.484 5   -422663.969 5   -300764.51248  23614583.44148
  21809651.680 6    242838.719 6    182417.88747  21809648.30947
  20519221.242 6    -56933.453 6    -41172.39148  20519217.40248
  20989128.125 6    140340.527 6    104199.62149  20989127.64849
  21280936.727 6   -433646.168 6   -310046.38749  21280936.69149
  21637631.672 6     63612.699 6     43645.06349  21637627.64849
  23872354.422 1    313044.988 1                
 20  5 16  0  6  4.0000000  0  8G03G08G14G16G26G27G31G32            -0.000397518
  24259698.867 1     98494.469 1     65276.32046  24259696.73446
  23613781.578 5   -426877.797 5   -304048.00448  23613781.92648
  21810106.250 6    245225.586 6    184277.79747  21810102.79347
  20519139.289 6    -57363.168 6    -41507.23848  20519135.61348
  20989313.813 6    141315.785 6    104959.55949  20989313.40649
  21280298.648 6   -436997.953 6   -312658.17249  21280298.69949
  21637704.750 6     63997.047 6     43944.55549  21637700.14849
  23872957.719 1    316214.914 1                
 20  5 16  0  6  5.0000000  0  8G03G08G14G16G26G27G31G32            -0.000397835
  24259898.445 1     99544.043 1     66094.16846  24259896.43046
  23612979.500 5   -431092.125 5   -307331.89148  23612979.73848
  21810560.109 6    247612.121 6    186137.43447  21810556.45747
  20519057.492 6    -57793.195 6    -41842.32048  20519053.70748
  20989499.383 6    142290.496 6    105719.07849  20989498.97749
  21279660.609 6   -440349.941 6   -315270.11749  21279661.33649
  21637778.047 6     64380.953 6     44243.70349  21637774.07049
  23873561.58611                                
 20  5 16  0  6  6.0000000  0  8G03G08G14G16G26G27G31G32            -0.000398155
  24260097.961 1    100593.227 1     66911.68846  24260096.53146
  23612177.211 5   -435307.008 5   -310616.21148  23612177.46948
  21811013.828 6    249998.387 6    187996.85947  21811010.47347
  20518975.633 6    -58223.566 6    -42177.67248  20518971.85548
  20989685.047 7    143264.645 7    106478.15649  20989683.80149
  21279022.789 6   -443702.230 6   -317882.28949  21279023.17249
  21637850.813 6     64764.367 6     44542.46549  21637847.00049
  23874164.094 1                                
 20  5 16  0  6  7.0000000  0  8G03G08G14G16G26G27G31G32            -0.000398470
  24260297.219 1    101642.039 1     67728.92646  24260296.08246
  23611375.406 5   -439522.336 5   -313900.88748  23611375.49648
  21811468.047 6    252384.434 6    189856.11347  21811464.91447
  20518894.039 6    -58654.117 6    -42513.17648  20518889.62948
  20989869.883 7    144238.367 7    107236.89149  20989869.58649
  21278385.164 6   -447054.609 6   -320494.52349  21278384.97749
  21637923.578 6     65147.406 6     44840.94149  21637919.51649
  23874766.727 1    325721.207 1                
 20  5 16  0  6  8.0000000  0  8G03G08G14G16G26G27G31G32            -0.000398792
  24260496.516 1    102690.270 1     68545.71946  24260495.43846
  23610572.883 5   -443738.352 5   -317186.09848  23610572.80548
  21811922.266 6    254770.086 6    191715.06347  21811918.59847
  20518811.758 6    -59085.117 6    -42849.02048  20518807.81648
  20990055.344 7    145211.441 7    107995.12949  20990054.77749
  21277746.438 6   -450407.313 6   -323107.02049  21277747.17649
  21637996.352 6     65529.891 6     45138.97749  21637992.72349
  23875369.24211                                
 20  5 16  0  6  9.0000000  0  8G03G08G14G16G26G27G31G32            -0.000399111
  24260696.719 1    103738.332 1     69362.39146  24260694.64546
  23609770.898 5   -447954.633 5   -320471.50448  23609770.96948
  21812376.164 6    257155.699 6    193573.98447  21812372.68447
  20518730.047 6    -59516.160 6    -43184.89848  20518726.04348
  20990240.211 7    146184.246 7    108753.15649  20990239.83249
  21277109.148 6   -453760.000 6   -325719.50849  21277109.41849
  21638068.797 6     65912.164 6     45436.84449  21638065.10949
  23875971.08611                                
 20  5 16  0  6 10.0000000  0  8G03G08G14G16G26G27G31G32            -0.000399429
  24260896.750 1    104786.023 1     70178.77046  24260894.85246
  23608967.969 5   -452171.352 5   -323757.26248  23608968.20348
  21812829.594 6    259541.160 6    195432.79347  21812826.58647
  20518647.875 6    -59947.406 6    -43520.93848  20518643.66848
  20990425.266 7    147156.621 7    109510.85249  20990424.69149
  21276470.766 6   -457112.785 6   -328332.06349  21276471.21149
  21638141.711 6     66294.082 6     45734.44149  21638137.71549
  23876575.41411    335222.91411                
 20  5 16  0  6 11.0000000  0  8G03G08G14G16G26G27G31G32            -0.000399750
  24261095.609 1    105833.332 1     70994.84046  24261093.82846
  23608165.977 5   -456388.563 5   -327043.39548  23608165.77048
  21813284.328 6    261926.332 6    197291.36347  21813280.62547
  20518565.938 6    -60378.910 6    -43857.17648  20518562.20348
  20990610.102 7    148128.512 7    110268.17249  20990609.67249
  21275832.719 6   -460465.785 6   -330944.78949  21275832.86749
  21638214.570 6     66675.559 6     46031.69949  21638210.54349
  23877178.32811    338389.13711                
 20  5 16  0  6 12.0000000  0  8G03G08G14G16G26G27G31G32            -0.000400068
  24261294.656 1    106880.336 1     71810.70346  24261293.04746
  23607363.055 5   -460606.270 5   -330329.92248  23607363.21548
  21813737.719 6    264311.301 6    199149.77747  21813734.26647
  20518483.930 6    -60810.672 6    -44193.61748  20518479.69148
  20990794.859 7    149099.945 7    111025.13349  20990794.98449
  21275195.203 6   -463818.895 6   -333557.60549  21275195.09849
  21638287.195 6     67056.676 6     46328.67249  21638283.36349
  23877779.46111    341554.99211                
 20  5 16  0  6 13.0000000  0  7G03G08G14G16G26G27G31               -0.000400389
  24261492.641 1    107926.746 1     72626.05946  24261492.59446
  23606560.336 5   -464824.516 5   -333616.87548  23606560.50848
  21814191.570 6    266695.977 6    201007.96547  21814187.59447
  20518401.500 6    -61242.750 6    -44530.28948  20518397.14548
  20990979.820 7    150070.809 7    111781.64849  20990979.78549
  21274556.992 6   -467172.305 6   -336170.64849  21274556.80149
  21638359.016 6     67437.305 6     46625.26649  21638355.93849
 20  5 16  0  6 14.0000000  0  7G03G08G14G16G26G27G31               -0.000400709
  24261693.156 1    108972.621 1     73441.01646  24261691.24646
  23605758.219 5   -469043.332 5   -336904.25848  23605757.99648
  21814645.813 6    269080.270 6    202865.85247  21814641.85247
  20518319.133 6    -61675.227 6    -44867.28548  20518314.46148
  20991164.477 7    151041.074 7    112537.69549  20991164.27749
  21273919.016 6   -470525.980 6   -338783.90249  21273919.02049
  21638432.148 6     67817.426 6     46921.46949  21638428.28949
 20  5 16  0  6 15.0000000  0  7G03G08G14G16G26G27G31               -0.000401031
  24261890.711 1    110018.285 1     74255.80946  24261890.77046
  23604953.969 5   -473262.516 5   -340191.93048  23604954.56348
  21815098.969 6    271464.520 6    204723.71147  21815095.43047
