     2.10           OBSERVATION DATA    GPS(GPS)            RINEX VERSION / TYPE
cnvtToRINEX 3.07.0  convertToRINEX OPR  19-May-20 12:30 UTC PGM / RUN BY / DATE 
----------------------------------------------------------- COMMENT             
GG06                                                        MARKER NAME         
GG06                                                        MARKER NUMBER       
GNSS Observer       Trimble                                 OBSERVER / AGENCY   
0440101800          5700                2.32                REC # / TYPE / VERS 
                    TRM39105.00                             ANT # / TYPE        
 -3050162.5395  4928362.2112  2653597.7337                  APPROX POSITION XYZ 
        0.1030        0.0000        0.0000                  ANTENNA: DELTA H/E/N
     1     1     0                                          WAVELENGTH FACT L1/2
     4    C1    L1    L2    P2                              # / TYPES OF OBSERV 
  2020     5    16     5    19   28.0000000     GPS         TIME OF FIRST OBS   
  2020     5    16     6    21   13.0000000     GPS         TIME OF LAST OBS    
     0                                                      RCV CLOCK OFFS APPL 
    18                                                      LEAP SECONDS        
    10                                                      # OF SATELLITES     
   G01  3685  3685  3685  3685                              PRN / # OF OBS      
   G03  3706  3706  3706  3706                              PRN / # OF OBS      
   G07  3706  3706  3706  3706                              PRN / # OF OBS      
   G08  3685  3685  3685  3685                              PRN / # OF OBS      
   G11  3685  3685  3685  3685                              PRN / # OF OBS      
   G17  3684  3684  3684  3684                              PRN / # OF OBS      
   G19   565   562   565   565                              PRN / # OF OBS      
   G22  3706  3706  3706  3706                              PRN / # OF OBS      
   G28  3685  3685  3685  3685                              PRN / # OF OBS      
   G30  3685  3685  3685  3685                              PRN / # OF OBS      
CARRIER PHASE MEASUREMENTS: PHASE SHIFTS REMOVED            COMMENT             
                                                            END OF HEADER       
 20  5 16  5 19 28.0000000  0  3G03G07G22                            0.000381071
  23320471.18015   -233247.42215   -132061.23059  23320474.85559
  21092493.43016    -60789.28116    -41007.65259  21092492.27759
  22665966.38316   -174184.80516   -119657.42658  22665963.75858
 20  5 16  5 19 29.0000000  0  3G03G07G22                            0.000379318
  23319432.617 5   -238705.887 5   -136314.57449  23319436.14549
  21092214.023 6    -62258.730 6    -42152.67649  21092212.64149
  22665175.672 6   -178338.105 6   -122893.76648  22665173.26248
 20  5 16  5 19 30.0000000  0  3G03G07G22                            0.000377563
  23318394.219 5   -244165.637 5   -140568.92649  23318397.09849
  21091934.016 6    -63729.012 6    -43298.35249  21091932.75449
  22664385.664 6   -182492.395 6   -126130.87148  22664383.12548
 20  5 16  5 19 31.0000000  0  3G03G07G22                            0.000375807
  23317354.266 5   -249626.727 5   -144824.32049  23317358.00049
  21091653.883 6    -65200.070 6    -44444.62949  21091652.68449
  22663594.734 6   -186647.672 6   -129368.75048  22663592.25848
 20  5 16  5 19 32.0000000  0  3G03G07G22                            0.000374052
  23316314.992 5   -255089.027 5   -149080.66049  23316318.53149
  21091373.719 6    -66671.895 6    -45591.51649  21091372.65649
  22662804.258 6   -190803.910 6   -132607.38348  22662801.23848
 20  5 16  5 19 33.0000000  0  3G03G07G22                            0.000372293
  23315275.719 5   -260552.594 5   -153337.97749  23315278.97349
  21091093.656 6    -68144.535 6    -46739.02349  21091092.84049
  22662012.789 6   -194961.148 6   -135846.79348  22662010.07848
 20  5 16  5 19 34.0000000  0  3G03G07G22                            0.000370535
  23314235.938 5   -266017.402 5   -157596.26649  23314239.15249
  21090813.258 6    -69617.930 6    -47887.12949  21090812.14849
  22661221.563 6   -199119.309 6   -139086.91048  22661218.84848
 20  5 16  5 19 35.0000000  0  3G03G07G22                            0.000368776
  23313195.813 5   -271483.398 5   -161855.48049  23313198.76249
  21090532.695 6    -71092.016 6    -49035.77049  21090531.50849
  22660430.008 6   -203278.398 6   -142327.75848  22660427.42248
 20  5 16  5 19 36.0000000  0  3G03G07G22                            0.000367016
  23312155.313 5   -276950.602 5   -166115.63749  23312158.45749
  21090252.438 6    -72566.805 6    -50184.95749  21090251.18849
  22659638.477 6   -207438.355 6   -145569.28548  22659635.71148
 20  5 16  5 19 37.0000000  0  3G03G07G22                            0.000365255
  23311114.891 5   -282419.066 5   -170376.77349  23311118.29349
  21089971.453 6    -74042.387 6    -51334.75849  21089970.45749
  22658846.586 6   -211599.277 6   -148811.55948  22658843.58248
 20  5 16  5 19 38.0000000  0  3G03G07G22                            0.000363495
  23310074.320 5   -287888.707 5   -174638.83249  23310077.16049
  21089690.383 6    -75518.688 6    -52485.12949  21089689.34449
  22658054.750 6   -215761.102 6   -152054.54348  22658052.12548
 20  5 16  5 19 39.0000000  0  3G03G07G22                            0.000361732
  23309032.766 5   -293359.438 5   -178901.73449  23309036.08649
  21089409.414 6    -76995.605 6    -53635.96949  21089408.42249
  22657262.086 6   -219923.766 6   -155298.17248  22657259.61748
 20  5 16  5 19 40.0000000  0  3G03G07G22                            0.000359970
  23307991.977 5   -298831.383 5   -183165.58249  23307994.92649
  21089128.203 6    -78473.227 6    -54787.36749  21089127.11749
  22656470.555 6   -224087.289 6   -158542.47748  22656467.50848
 20  5 16  5 19 41.0000000  0  3G03G07G22                            0.000358206
  23306949.984 5   -304304.355 5   -187430.23049  23306953.42649
  21088846.680 7    -79951.395 7    -55939.18449  21088845.71149
  22655677.953 6   -228251.574 6   -161787.37548  22655675.06348
 20  5 16  5 19 42.0000000  0  3G03G07G22                            0.000356441
  23305908.906 6   -309778.473 6   -191695.78149  23305911.63349
  21088565.430 6    -81430.230 6    -57091.53149  21088564.53149
  22654885.383 6   -232416.699 6   -165032.92248  22654882.75048
 20  5 16  5 19 43.0000000  0  3G03G07G22                            0.000354675
  23304866.852 6   -315253.777 6   -195962.25249  23304870.00449
  21088283.648 6    -82909.789 6    -58244.43449  21088283.09449
  22654092.500 6   -236582.719 6   -168279.17248  22654090.25048
 20  5 16  5 19 44.0000000  0  3G03G07G22                            0.000352909
  23303824.297 6   -320730.160 6   -200229.57049  23303827.84449
  21088002.211 6    -84389.969 6    -59397.82049  21088000.98449
  22653299.320 6   -240749.578 6   -171526.07448  22653297.31648
 20  5 16  5 19 45.0000000  0  3G03G07G22                            0.000351143
  23302782.180 5   -326207.730 5   -204497.80549  23302785.28549
  21087720.547 6    -85870.809 6    -60551.72349  21087719.43049
  22652506.234 6   -244917.254 6   -174773.61348  22652503.98448
 20  5 16  5 19 46.0000000  0  3G03G07G22                            0.000349375
  23301739.016 5   -331686.367 5   -208766.87549  23301742.91449
  21087438.758 6    -87352.262 6    -61706.10249  21087437.50849
  22651713.047 6   -249085.754 6   -178021.79348  22651710.47748
 20  5 16  5 19 47.0000000  0  3G03G07G22                            0.000347607
  23300696.055 6   -337166.199 6   -213036.86749  23300699.83649
  21087156.719 6    -88834.434 6    -62861.04749  21087155.12549
  22650919.641 6   -253255.137 6   -181270.66848  22650916.73448
 20  5 16  5 19 48.0000000  0  3G03G07G22                            0.000345837
  23299653.063 6   -342647.082 6   -217307.68049  23299656.83649
  21086874.578 6    -90317.168 6    -64016.42649  21086873.49249
  22650126.156 6   -257425.297 6   -184520.13748  22650123.51248
 20  5 16  5 19 49.0000000  0  8G01G03G07G08G11G22G28G30             0.000344067
  20267571.35217    -54645.49617    -36660.88359  20267573.57459
  23298610.203 5   -348129.078 5   -221579.35549  23298613.77049
  21086592.266 6    -91800.574 6    -65172.32449  21086591.18849
  23279371.01615    -31677.09815    -13419.85257  23279372.25057
  21372399.17216    -26579.42216    -13004.26258  21372397.25458
  22649332.164 6   -261596.262 6   -187770.24248  22649329.91448
  23648340.90615   -149431.41815    -98677.73457  23648338.20757
  21706050.40616   -100187.68016    -64021.91459  21706051.45359
 20  5 16  5 19 50.0000000  0  9G01G03G07G08G11G17G22G28G30          0.000342287
  20267191.313 7    -56642.758 7    -38217.19149  20267193.19149
  23297566.844 5   -353612.172 5   -225851.89549  23297570.25449
  21086309.383 6    -93284.527 6    -66328.65649  21086308.87549
  23279192.930 5    -32611.230 5    -14147.75447  23279194.50847
  21372262.844 6    -27294.563 6    -13561.51648  21372261.17648
  24081966.53115   -127934.11715    -61170.62558  24081967.42658
  22648538.031 6   -265767.988 6   -191020.93848  22648536.30548
  23647325.531 5   -154764.031 5   -102833.01647  23647323.60547
  21705391.992 6   -103647.793 6    -66718.10249  21705393.43849
 20  5 16  5 19 51.0000000  0  9G01G03G07G08G11G17G22G28G30          0.000340513
  20266811.031 7    -58640.598 7    -39773.94949  20266812.65649
  23296523.172 5   -359096.379 5   -230125.30149  23296527.03949
  21086026.859 6    -94769.148 6    -67485.50049  21086026.25449
  23279015.180 5    -33546.586 5    -14876.60247  23279016.23447
  21372126.750 6    -28010.680 6    -14119.53148  21372124.89148
  24081169.141 5   -132124.480 5    -64435.84048  24081169.78948
  22647744.266 6   -269940.574 6   -194272.29748  22647741.93048
  23646310.625 5   -160097.957 5   -106989.32847  23646308.68447
  21704733.336 6   -107108.461 6    -69414.72749  21704734.93849
 20  5 16  5 19 52.0000000  0  9G01G03G07G08G11G17G22G28G30          0.000338741
  20266431.047 7    -60639.004 7    -41331.15249  20266432.37949
  23295479.438 5   -364581.664 5   -234399.55149  23295483.01649
  21085744.742 6    -96254.375 6    -68642.82849  21085743.37549
  23278837.078 5    -34483.254 5    -15606.47347  23278837.98047
  21371990.586 6    -28727.777 6    -14678.30548  21371988.03948
  24080371.445 5   -136315.961 5    -67701.92248  24080371.93848
  22646950.320 6   -274113.949 6   -197524.28148  22646948.05548
  23645295.867 5   -165433.191 5   -111146.65247  23645293.22747
  21704074.648 6   -110569.770 6    -72111.85249  21704076.10949
 20  5 16  5 19 53.0000000  0  9G01G03G07G08G11G17G22G28G30          0.000336967
  20266050.602 7    -62637.969 7    -42888.78949  20266052.32449
  23294435.922 5   -370068.023 5   -238674.63749  23294439.10949
  21085461.703 6    -97740.211 6    -69800.62149  21085460.77349
  23278658.547 5    -35421.133 5    -16337.28547  23278660.10547
  21371853.820 6    -29445.793 6    -15237.80548  21371852.00048
  24079573.602 5   -140508.492 5    -70968.82848  24079574.25448
  22646156.227 6   -278288.113 6   -200776.87948  22646153.42248
  23644280.289 5   -170769.652 5   -115304.93447  23644277.78147
  21703416.180 6   -114031.613 6    -74809.39149  21703417.27049
 20  5 16  5 19 54.0000000  0  9G01G03G07G08G11G17G22G28G30          0.000335196
  20265669.977 7    -64637.480 7    -44446.84849  20265671.46149
  23293391.625 5   -375555.418 5   -242950.52749  23293394.82049
  21085179.063 6    -99226.633 6    -70958.87549  21085177.36749
  23278479.695 5    -36360.211 5    -17069.03547  23278480.98847
  21371717.250 6    -30164.754 6    -15798.03148  21371714.94548
  24078775.734 5   -144702.078 5    -74236.55948  24078776.43048
  22645361.641 6   -282463.039 6   -204030.06648  22645359.37548
  23643264.352 5   -176107.340 5   -119464.17247  23643262.03947
  21702757.500 6   -117494.008 6    -77507.36749  21702758.77049
 20  5 16  5 19 55.0000000  0  9G01G03G07G08G11G17G22G28G30          0.000333420
  20265289.305 7    -66637.496 7    -46005.29349  20265291.28549
  23292347.078 5   -381043.906 5   -247227.26649  23292350.41849
  21084896.227 6   -100713.613 6    -72117.56649  21084895.04749
  23278300.828 5    -37300.461 5    -17801.69947  23278302.17647
  21371579.867 6    -30884.613 6    -16358.96148  21371577.87548
  24077977.516 5   -148896.727 5    -77505.12148  24077977.91848
  22644566.898 6   -286638.750 6   -207283.86748  22644564.23448
  23642248.203 5   -181446.281 5   -123624.37947  23642246.03947
  21702098.641 6   -120956.941 6    -80205.75849  21702099.93049
 20  5 16  5 19 56.0000000  0  9G01G03G07G08G11G17G22G28G30          0.000331644
  20264908.695 7    -68638.070 7    -47564.18449  20264910.37549
  23291302.266 5   -386533.457 5   -251504.84049  23291305.82049
  21084612.547 6   -102201.195 6    -73276.71949  21084611.77749
  23278121.383 5    -38241.957 5    -18535.33247  23278123.01647
  21371442.758 6    -31605.406 6    -16920.61748  21371440.66048
  24077179.500 5   -153092.449 5    -80774.51248  24077179.39148
  22643772.664 6   -290815.223 6   -210538.26248  22643769.59448
  23641232.188 6   -186786.469 6   -127785.56647  23641229.55147
  21701439.039 6   -124420.426 6    -82904.57849  21701440.43849
 20  5 16  5 19 57.0000000  0  9G01G03G07G08G11G17G22G28G30          0.000329868
  20264527.813 7    -70639.281 7    -49123.56649  20264529.69149
  23290257.188 5   -392024.129 5   -255783.27749  23290260.61349
  21084329.844 6   -103689.441 6    -74436.39849  21084328.44949
  23277941.992 5    -39184.785 5    -19270.00047  23277943.57047
  21371305.656 6    -32327.223 6    -17483.07448  21371303.45748
  24076380.797 5   -157289.305 5    -84044.78948  24076380.83248
  22642977.523 6   -294992.547 6   -213793.32048  22642974.78548
  23640215.594 5   -192127.965 5   -131947.76647  23640213.30147
  21700779.688 6   -127884.594 6    -85603.92649  21700781.16849
 20  5 16  5 19 58.0000000  0  9G01G03G07G08G11G17G22G28G30          0.000328093
  20264146.867 7    -72640.957 7    -50683.32049  20264148.70349
  23289212.266 5   -397515.863 5   -260062.55149  23289215.99649
  21084046.438 6   -105178.242 6    -75596.50049  21084045.45749
  23277762.797 5    -40128.750 5    -20005.56647  23277763.62147
  21371167.844 6    -33049.906 6    -18046.21148  21371165.71548
  24075582.195 5   -161487.156 5    -87315.84048  24075581.82048
  22642182.313 6   -299170.590 6   -217048.93848  22642179.66048
  23639198.617 5   -197470.645 5   -136110.89147  23639196.96947
  21700120.359 6   -131349.211 6    -88303.62949  21700121.94949
 20  5 16  5 19 59.0000000  0  9G01G03G07G08G11G17G22G28G30          0.000326313
  20263765.883 7    -74643.059 7    -52243.39849  20263767.83249
  23288167.070 5   -403008.488 5   -264342.51649  23288170.84449
  21083762.852 6   -106667.473 6    -76756.94149  21083761.88349
  23277582.906 5    -41073.809 5    -20741.97347  23277583.85947
  21371030.445 6    -33773.367 6    -18609.94548  21371028.23848
  24074783.195 5   -165685.953 5    -90587.62948  24074783.26248
  22641387.258 6   -303349.266 6   -220305.04348  22641384.33248
  23638182.398 5   -202814.445 5   -140274.89147  23638180.41047
  21699460.977 6   -134814.262 6    -91003.66849  21699462.45349
 20  5 16  5 20  0.0000000  0  9G01G03G07G08G11G17G22G28G30          0.000324535
  20263384.836 7    -76645.633 7    -53803.85249  20263386.75449
  23287121.664 6   -408502.145 6   -268623.28549  23287125.27049
  21083479.484 6   -108157.254 6    -77917.81349  21083478.19149
  23277402.109 5    -42019.969 5    -21479.23847  23277404.19147
  21370892.469 6    -34497.711 6    -19174.37148  21370890.39148
  24073983.547 5   -169885.762 5    -93860.20748  24073984.08248
  22640592.125 6   -307528.668 6   -223561.72748  22640589.07048
  23637165.453 5   -208159.414 5   -144439.80147  23637163.47347
  21698801.750 6   -138279.824 6    -93704.10949  21698803.11349
 20  5 16  5 20  1.0000000  0  9G01G03G07G08G11G17G22G28G30          0.000322756
  20263003.477 7    -78648.883 7    -55364.82449  20263005.34049
  23286075.773 5   -413996.980 5   -272904.97749  23286079.59849
  21083195.578 6   -109647.719 6    -79079.21549  21083195.19149
  23277222.063 5    -42967.543 5    -22217.60947  23277223.69947
  21370754.297 6    -35223.105 6    -19739.61748  21370752.23848
  24073184.656 5   -174086.730 5    -97133.69548  24073184.46548
  22639796.211 6   -311708.973 6   -226819.10248  22639793.45748
  23636148.039 5   -213505.758 5   -148605.78547  23636146.05547
  21698142.039 6   -141746.059 6    -96405.07049  21698143.42649
 20  5 16  5 20  2.0000000  0  9G01G03G07G08G11G17G22G28G30          0.000320976
  20262622.445 7    -80652.688 7    -56926.23049  20262624.18049
  23285030.484 5   -419492.898 5   -277187.50849  23285033.54749
  21082912.273 6   -111138.828 6    -80241.12149  21082910.98049
  23277041.320 5    -43916.297 5    -22956.90647  23277043.24247
  21370616.281 6    -35949.449 6    -20305.60248  21370614.20348
  24072385.188 5   -178288.813 5   -100408.04348  24072385.04348
  22639000.867 6   -315890.063 6   -230077.09848  22638998.24248
  23635130.219 5   -218853.371 5   -152772.75847  23635128.53547
  21697482.711 6   -145212.859 6    -99106.47749  21697483.81349
 20  5 16  5 20  3.0000000  0  9G01G03G07G08G11G17G22G28G30          0.000319197
  20262240.867 7    -82656.934 7    -58487.98449  20262242.83649
  23283984.586 5   -424989.828 5   -281470.82449  23283988.33649
  21082628.469 6   -112630.406 6    -81403.39149  21082627.28949
  23276860.891 5    -44866.203 5    -23697.09447  23276862.37947
  21370477.570 6    -36676.633 6    -20872.23048  21370475.88748
  24071584.180 5   -182491.859 5   -103683.14548  24071585.22348
  22638205.250 6   -320071.828 6   -233335.60948  22638201.98048
  23634112.141 5   -224202.117 5   -156940.60947  23634110.78547
  21696822.719 6   -148680.129 6   -101808.25049  21696823.96149
 20  5 16  5 20  4.0000000  0  9G01G03G07G08G11G17G22G28G30          0.000317415
  20261859.633 7    -84661.695 7    -60050.13349  20261861.03149
  23282938.109 5   -430487.715 5   -285754.89149  23282941.42249
  21082344.492 6   -114122.535 6    -82566.09049  21082343.34449
  23276679.695 5    -45817.285 5    -24438.19547  23276681.50447
  21370339.375 6    -37404.695 6    -21439.55548  21370336.93448
  24070784.836 5   -186695.941 5   -106959.05148  24070785.16048
  22637409.266 6   -324254.340 6   -236594.71148  22637406.15648
  23633093.867 5   -229552.063 5   -161109.39547  23633092.52747
  21696162.992 6   -152147.898 6   -104510.40249  21696163.90249
 20  5 16  5 20  5.0000000  0  9G01G03G07G08G11G17G22G28G30          0.000315632
  20261477.813 7    -86667.000 7    -61612.71149  20261479.58249
  23281891.633 5   -435986.699 5   -290039.81349  23281895.01249
  21082060.602 6   -115615.273 6    -83729.27049  21082059.35949
  23276498.656 5    -46769.590 5    -25180.25447  23276500.14547
  21370200.516 6    -38133.703 6    -22007.61748  21370198.28548
  24069984.984 5   -190901.055 5   -110235.75848  24069984.80548
  22636613.406 6   -328437.617 6   -239854.41048  22636610.50448
  23632075.758 5   -234903.270 5   -165279.16047  23632074.40247
  21695502.820 6   -155616.250 6   -107213.02049  21695503.96549
 20  5 16  5 20  6.0000000  0  9G01G03G07G08G11G17G22G28G30          0.000313850
  20261096.281 7    -88672.758 7    -63175.63349  20261098.11749
  23280844.633 5   -441486.648 5   -294325.48049  23280848.37949
  21081776.289 6   -117108.516 6    -84892.83249  21081775.31349
  23276317.430 5    -47723.043 5    -25923.20747  23276318.73047
  21370061.484 6    -38863.555 6    -22576.33648  21370059.62948
  24069184.555 5   -195107.172 5   -113513.25448  24069184.46548
  22635816.633 6   -332621.605 6   -243114.66048  22635814.27048
  23631057.656 5   -240255.605 5   -169449.81647  23631056.00847
  21694842.750 6   -159085.043 6   -109915.97349  21694844.20749
 20  5 16  5 20  7.0000000  0  9G01G03G07G08G11G17G22G28G30          0.000312067
  20260714.531 7    -90678.895 7    -64738.85949  20260716.18849
  23279798.313 5   -446987.508 5   -298611.85549  23279801.66849
  21081492.227 6   -118602.156 6    -86056.70349  21081490.96149
  23276135.398 5    -48677.527 5    -26666.96547  23276137.07047
  21369922.305 6    -39594.152 6    -23145.62548  21369920.98448
  24068384.164 5   -199314.188 5   -116791.44948  24068384.13748
  22635020.703 6   -336806.168 6   -246375.35548  22635017.83648
  23630038.969 5   -245609.043 5   -173621.32047  23630037.37547
  21694182.313 6   -162554.242 6   -112619.24249  21694183.53549
 20  5 16  5 20  8.0000000  0  9G01G03G07G08G11G17G22G28G30          0.000310282
  20260332.719 7    -92685.578 7    -66302.50849  20260334.26649
  23278751.125 5   -452489.449 5   -302899.07849  23278754.63749
  21081207.930 6   -120096.402 6    -87221.05149  21081206.62949
  23275953.742 5    -49633.258 5    -27411.68847  23275954.94947
  21369783.273 6    -40325.672 6    -23715.64148  21369781.68048
  24067583.227 5   -203522.262 5   -120070.46148  24067583.10248
  22634224.313 6   -340991.523 6   -249636.67248  22634221.21548
  23629020.516 5   -250963.688 5   -177793.77047  23629018.48047
  21693522.094 6   -166024.000 6   -115322.95349  21693523.93049
 20  5 16  5 20  9.0000000  0  9G01G03G07G08G11G17G22G28G30          0.000308498
  20259950.688 7    -94692.773 7    -67866.55549  20259952.17249
  23277704.164 5   -457992.418 5   -307187.10249  23277707.14549
  21080923.164 6   -121591.234 6    -88385.86349  21080921.85549
  23275771.680 5    -50590.160 5    -28157.33247  23275773.55147
  21369644.211 6    -41058.125 6    -24286.38748  21369642.21548
  24066781.492 5   -207731.391 5   -123350.30148  24066781.99248
  22633427.359 6   -345177.621 6   -252898.56348  22633424.50848
  23628000.820 5   -256319.574 5   -181967.19147  23627998.92247
  21692862.078 6   -169494.301 6   -118027.09049  21692863.18049
 20  5 16  5 20 10.0000000  0  9G01G03G07G08G11G17G22G28G30          0.000306713
  20259568.344 7    -96700.500 7    -69431.01649  20259570.07449
  23276656.484 5   -463496.441 5   -311475.94149  23276659.97749
  21080639.102 6   -123086.617 6    -89551.09849  21080637.56349
  23275589.805 5    -51548.289 5    -28903.93047  23275590.88347
  21369503.984 6    -41791.484 6    -24857.83648  21369502.46148
  24065980.891 5   -211941.582 5   -126630.96948  24065980.77748
  22632630.727 6   -349364.484 6   -256161.04748  22632627.84048
  23626980.773 5   -261676.695 5   -186141.57047  23626979.94547
  21692201.422 6   -172965.145 6   -120731.64549  21692203.18449
 20  5 16  5 20 11.0000000  0  9G01G03G07G08G11G17G22G28G30          0.000304926
  20259186.414 7    -98708.754 7    -70995.89549  20259188.14849
  23275608.969 5   -469001.520 5   -315765.61749  23275612.20349
  21080353.945 6   -124582.594 6    -90716.78549  21080353.12949
  23275407.148 5    -52507.633 5    -29651.46547  23275407.82447
  21369364.508 6    -42525.762 6    -25430.00448  21369362.60248
  24065179.828 5   -216152.805 5   -129912.44148  24065179.73048
  22631833.914 6   -353552.105 6   -259424.13748  22631831.26648
  23625961.508 5   -267035.031 5   -190316.90247  23625960.16847
  21691540.992 6   -176436.500 6   -123436.59449  21691542.54749
 20  5 16  5 20 12.0000000  0  9G01G03G07G08G11G17G22G28G30          0.000303139
  20258804.305 7   -100717.441 7    -72561.10549  20258805.88749
  23274561.000 5   -474507.520 5   -320056.00849  23274564.44149
  21080069.117 6   -126079.051 6    -91882.86349  21080068.21549
  23275224.578 5    -53468.066 5    -30399.85547  23275225.34047
  21369224.758 6    -43260.828 6    -26002.78948  21369222.94548
  24064377.875 5   -220364.977 5   -133194.64848  24064377.63748
  22631037.047 6   -357740.371 6   -262687.71948  22631033.78548
  23624941.742 5   -272394.500 5   -194493.10947  23624940.40247
  21690880.281 6   -179908.320 6   -126141.90649  21690881.39149
 20  5 16  5 20 13.0000000  0  9G01G03G07G08G11G17G22G28G30          0.000301352
  20258421.922 7   -102726.574 7    -74126.66049  20258423.52049
  23273513.313 5   -480014.511 5   -324347.17049  23273517.11749
  21079784.250 6   -127576.004 6    -93049.32449  21079782.87949
  23275040.883 5    -54429.629 5    -31149.12547  23275042.67647
  21369084.641 6    -43996.773 6    -26576.25448  21369082.68848
  24063576.367 5   -224578.141 5   -136477.62948  24063576.20748
  22630239.734 6   -361929.348 6   -265951.85248  22630236.64548
  23623921.531 6   -277755.121 6   -198670.21547  23623920.28947
  21690219.547 6   -183380.605 6   -128847.58649  21690221.02049
 20  5 16  5 20 14.0000000  0  9G01G03G07G08G11G17G22G28G30          0.000299562
  20258039.375 7   -104736.191 7    -75692.59849  20258041.02049
  23272465.313 5   -485522.469 5   -328639.09049  23272468.14849
  21079499.656 6   -129073.469 6    -94216.17649  21079498.61749
  23274857.984 5    -55392.336 5    -31899.28147  23274859.52047
  21368945.023 6    -44733.531 6    -27150.35948  21368942.44948
  24062774.750 5   -228792.250 5   -139761.35248  24062774.15648
  22629442.375 6   -366119.008 6   -269216.52348  22629439.43048
  23622901.102 6   -283116.910 6   -202848.22747  23622900.40247
  21689558.805 6   -186853.359 6   -131553.62949  21689559.69549
 20  5 16  5 20 15.0000000  0  9G01G03G07G08G11G17G22G28G30          0.000297773
  20257656.742 7   -106746.242 7    -77258.87549  20257658.75449
  23271417.172 5   -491031.395 5   -332931.75849  23271420.19949
  21079214.188 6   -130571.402 6    -95383.40249  21079213.17649
  23274674.641 5    -56356.168 5    -32650.31647  23274675.79747
  21368804.242 6    -45471.152 6    -27725.12548  21368802.05548
  24061972.984 5   -233007.344 5   -143045.83648  24061972.18848
  22628645.000 6   -370309.328 6   -272481.70748  22628642.28148
  23621881.344 6   -288479.824 6   -207027.11747  23621880.00047
  21688897.945 6   -190326.586 6   -134260.04349  21688898.84849
 20  5 16  5 20 16.0000000  0  9G01G03G07G08G11G17G22G28G30          0.000295984
  20257274.484 7   -108756.707 7    -78825.47349  20257276.18849
  23270368.648 5   -496541.273 5   -337225.16449  23270371.75449
  21078929.609 6   -132069.820 6    -96551.00449  21078927.88349
  23274491.039 5    -57321.078 5    -33402.20347  23274492.62947
  21368663.742 6    -46209.559 6    -28300.50448  21368661.69548
  24061170.391 5   -237223.402 5   -146331.07848  24061169.98048
  22627847.422 6   -374500.309 6   -275747.40248  22627844.61748
  23620859.961 6   -293843.852 6   -211206.87947  23620859.14147
  21688236.688 6   -193800.219 6   -136966.76649  21688237.82849
 20  5 16  5 20 17.0000000  0  9G01G03G07G08G11G17G22G28G30          0.000294193
  20256891.867 7   -110767.684 7    -80392.46549  20256893.66449
  23269319.875 5   -502052.191 5   -341519.38349  23269323.14149
  21078643.906 6   -133568.797 6    -97719.03149  21078642.73449
  23274306.813 5    -58287.168 5    -34155.00047  23274308.44547
  21368523.539 6    -46948.852 6    -28876.57448  21368520.89548
  24060367.750 5   -241440.438 5   -149617.07848  24060367.41048
  22627049.750 6   -378692.000 6   -279013.65248  22627046.96548
  23619838.844 5   -299209.066 5   -215387.56647  23619838.20347
  21687576.039 6   -197274.363 6   -139673.89849  21687576.85949
 20  5 16  5 20 18.0000000  0  9G01G03G07G08G11G17G22G28G30          0.000292402
  20256508.984 7   -112779.148 7    -81959.84049  20256510.62149
  23268271.102 5   -507564.105 5   -345814.37949  23268274.23449
  21078358.414 6   -135068.301 6    -98887.48049  21078357.54349
  23274122.711 5    -59254.434 5    -34908.71547  23274124.64547
  21368382.086 6    -47689.059 6    -29453.36348  21368379.94948
  24059565.617 5   -245658.551 5   -152903.91848  24059564.60248
  22626252.094 6   -382884.441 6   -282280.48848  22626249.44948
  23618817.711 6   -304575.531 6   -219569.22747  23618816.73847
  21686914.633 6   -200749.039 6   -142381.43849  21686915.66049
 20  5 16  5 20 19.0000000  0  9G01G03G07G08G11G17G22G28G30          0.000290609
  20256126.359 7   -114791.082 7    -83527.57849  20256127.92249
  23267221.758 5   -513077.012 5   -350110.14849  23267224.99249
  21078073.117 6   -136568.313 6   -100056.32849  21078072.08649
  23273938.305 5    -60222.824 5    -35663.31347  23273940.37147
  21368241.086 6    -48430.086 6    -30030.78148  21368239.20348
  24058762.680 6   -249877.590 6   -156191.48049  24058761.82449
  22625454.055 6   -387077.555 6   -285547.85248  22625451.14548
  23617796.563 6   -309943.137 6   -223751.77047  23617795.74647
  21686253.195 6   -204224.184 6   -145089.33649  21686254.18849
 20  5 16  5 20 20.0000000  0  9G01G03G07G08G11G17G22G28G30          0.000288818
  20255743.008 7   -116803.391 7    -85095.61349  20255744.80949
  23266172.969 5   -518590.809 5   -354406.61349  23266175.79749
  21077787.570 6   -138068.762 6   -101225.51249  21077786.84849
  23273754.398 5    -61192.277 5    -36418.73847  23273755.80547
  21368100.008 6    -49171.910 6    -30608.82848  21368098.18048
  24057959.555 6   -254097.566 6   -159479.77049  24057958.98049
  22624655.789 6   -391271.270 6   -288815.68048  22624653.25048
  23616774.914 5   -315311.816 5   -227935.15247  23616774.05547
  21685591.555 6   -207699.734 6   -147797.55949  21685592.80949
 20  5 16  5 20 21.0000000  0  9G01G03G07G08G11G17G22G28G30          0.000287024
  20255360.211 7   -118816.176 7    -86664.02349  20255361.82849
  23265122.641 5   -524105.590 5   -358703.84449  23265126.74649
  21077502.008 6   -139569.727 6   -102395.09449  21077500.78549
  23273569.500 5    -62162.844 5    -37175.02347  23273571.37947
  21367958.805 6    -49914.566 6    -31187.52048  21367956.86748
  24057155.969 5   -258318.543 5   -162768.84448  24057155.63748
  22623857.531 6   -395465.707 6   -292084.07048  22623854.96948
  23615753.297 5   -320681.633 5   -232119.42647  23615751.93047
  21684929.633 6   -211175.742 6   -150506.14149  21684931.65649
 20  5 16  5 20 22.0000000  0  9G01G03G07G08G11G17G22G28G30          0.000285231
  20254977.008 7   -120829.547 7    -88232.88749  20254978.63349
  23264073.117 5   -529621.488 5   -363001.94149  23264077.07049
  21077216.680 6   -141071.305 6   -103565.16049  21077215.33649
  23273384.781 5    -63134.719 5    -37932.32447  23273386.25047
  21367817.039 6    -50658.188 6    -31766.96948  21367815.06648
  24056351.969 5   -262540.605 5   -166058.76648  24056352.27348
  22623059.008 6   -399660.926 6   -295353.07048  22623056.77348
  23614731.023 6   -326052.781 6   -236304.73047  23614729.87147
  21684268.852 6   -214652.355 6   -153215.18849  21684270.19949
 20  5 16  5 20 23.0000000  0  9G01G03G07G08G11G17G22G28G30          0.000283436
  20254593.883 7   -122843.336 7    -89802.07049  20254595.25049
  23263023.469 5   -535138.285 5   -367300.74649  23263027.49649
  21076930.617 6   -142573.371 6   -104735.60249  21076929.08249
  23273199.523 5    -64107.645 5    -38690.44147  23273201.12547
  21367675.422 6    -51402.641 6    -32347.05548  21367673.32448
  24055548.875 5   -266763.598 5   -169349.40648  24055548.67248
  22622261.016 6   -403856.828 6   -298622.60548  22622258.25848
  23613708.539 5   -331425.012 5   -240490.88747  23613707.68047
  21683606.813 6   -218129.395 6   -155924.57049  21683607.97349
 20  5 16  5 20 24.0000000  0  9G01G03G07G08G11G17G22G28G30          0.000281641
  20254210.555 7   -124857.441 7    -91371.50049  20254212.52349
  23261973.813 5   -540655.969 5   -371600.23849  23261977.31349
  21076644.781 6   -144075.797 6   -105906.32049  21076643.62949
  23273013.969 5    -65081.605 5    -39449.37147  23273015.54747
  21367533.547 6    -52147.797 6    -32927.70348  21367531.93048
  24054745.086 5   -270987.484 5   -172640.74649  24054744.95349
  22621462.547 6   -408053.250 6   -301892.54748  22621459.64548
  23612685.734 5   -336798.285 5   -244677.85247  23612685.18447
  21682945.523 6   -221606.797 6   -158634.23449  21682946.29749
 20  5 16  5 20 25.0000000  0  9G01G03G07G08G11G17G22G28G30          0.000279844
  20253827.273 7   -126871.996 7    -92941.27749  20253828.96549
  23260923.195 5   -546174.598 5   -375900.46549  23260927.21549
  21076358.742 6   -145578.730 6   -107077.44149  21076357.17249
  23272828.602 5    -66056.652 5    -40209.14847  23272830.39847
  21367391.664 6    -52893.766 6    -33508.97348  21367389.94948
  24053940.938 5   -275212.301 5   -175932.81648  24053940.96948
  22620664.156 6   -412250.363 6   -305163.02748  22620661.00848
  23611663.500 5   -342172.691 5   -248865.70347  23611662.21147
  21682283.633 6   -225084.605 6   -161344.21949  21682284.59449
 20  5 16  5 20 26.0000000  0  9G01G03G07G08G11G17G22G28G30          0.000278048
  20253443.813 7   -128886.965 7    -94511.38749  20253445.55149
  23259872.766 5   -551694.188 5   -380201.44149  23259876.88749
  21076072.641 6   -147082.109 6   -108248.90249  21076071.35549
  23272642.461 5    -67032.805 5    -40969.78147  23272644.32047
  21367249.953 6    -53640.535 6    -34090.87948  21367247.64148
  24053136.867 5   -279438.055 5   -179225.62148  24053136.64548
  22619865.070 6   -416448.117 6   -308434.00048  22619862.09448
  23610640.250 6   -347548.203 6   -253054.41047  23610639.02347
  21681621.547 6   -228562.867 6   -164054.54749  21681622.82449
 20  5 16  5 20 27.0000000  0  9G01G03G07G08G11G17G22G28G30          0.000276251
  20253060.156 7   -130902.395 7    -96081.85249  20253061.86749
  23258822.727 5   -557214.719 5   -384503.15249  23258826.27749
  21075786.328 6   -148585.988 6   -109420.75449  21075785.08649
  23272456.234 5    -68010.094 5    -41731.30947  23272458.54347
  21367107.633 6    -54388.172 6    -34673.44948  21367105.47748
  24052332.875 5   -283664.777 5   -182519.17248  24052332.37148
  22619066.398 6   -420646.547 6   -311705.50848  22619063.40648
  23609617.289 5   -352924.855 5   -257244.00447  23609616.10547
  21680959.305 6   -232041.578 6   -166765.23849  21680960.76649
 20  5 16  5 20 28.0000000  0  9G01G03G07G08G11G17G22G28G30          0.000274452
  20252676.555 7   -132918.285 7    -97652.67649  20252678.10949
  23257772.320 5   -562736.230 5   -388805.62949  23257775.64549
  21075500.141 6   -150090.383 6   -110593.01649  21075498.87549
  23272270.219 5    -68988.465 5    -42493.68447  23272272.09447
  21366965.000 6    -55136.656 6    -35256.68848  21366963.06348
  24051528.055 5   -287892.504 5   -185813.50449  24051527.70349
  22618267.258 6   -424845.672 6   -314977.55948  22618264.13348
  23608593.852 5   -358302.707 5   -261434.53547  23608592.71547
  21680296.914 6   -235520.785 6   -169476.30549  21680298.60549
 20  5 16  5 20 29.0000000  0  9G01G03G07G08G11G17G22G28G30          0.000272654
  20252292.883 7   -134934.547 7    -99223.79349  20252294.76649
  23256720.969 5   -568258.680 5   -393108.83249  23256724.36749
  21075213.586 6   -151595.207 6   -111765.60949  21075212.44149
  23272084.078 5    -69967.965 5    -43256.94547  23272085.85947
  21366822.297 6    -55885.902 6    -35840.51648  21366820.48848
  24050723.734 5   -292121.117 5   -189108.52748  24050723.17248
  22617468.078 6   -429045.410 6   -318250.07848  22617465.09448
  23607569.867 5   -363681.633 5   -265625.90647  23607569.03947
  21679635.281 6   -239000.379 6   -172187.67649  21679636.72349
 20  5 16  5 20 30.0000000  0  9G01G03G07G08G11G17G22G28G30          0.000270855
  20251909.195 7   -136951.238 7   -100795.23849  20251910.68849
  23255670.008 5   -573782.004 5   -397412.72349  23255673.29349
  21074927.063 6   -153100.484 6   -112938.55549  21074926.20749
  23271897.227 5    -70948.535 5    -44021.02747  23271899.37947
  21366679.555 6    -56635.938 6    -36424.96148  21366677.67248
  24049918.914 5   -296350.656 5   -192404.26648  24049918.23048
  22616668.398 6   -433245.770 6   -321523.08648  22616665.64548
  23606546.430 5   -369061.625 5   -269818.10947  23606544.94947
  21678973.070 6   -242480.371 6   -174899.36749  21678974.59449
 20  5 16  5 20 31.0000000  0  9G01G03G07G08G11G17G22G28G30          0.000269054
  20251525.570 7   -138968.359 7   -102367.02049  20251527.27349
  23254618.898 5   -579306.328 5   -401717.38749  23254622.22749
  21074640.984 6   -154606.258 6   -114111.89149  21074639.85549
  23271710.539 5    -71930.215 5    -44785.96947  23271712.35547
  21366536.836 6    -57386.820 6    -37010.06348  21366534.69548
  24049114.383 5   -300581.227 5   -195700.81348  24049113.13348
  22615869.031 6   -437446.824 6   -324796.64148  22615866.05948
  23605522.781 5   -374442.781 5   -274011.22347  23605521.18047
  21678311.328 6   -245960.852 6   -177611.43049  21678311.81649
 20  5 16  5 20 32.0000000  0  9G01G03G07G08G11G17G22G28G30          0.000267254
  20251141.492 7   -140985.836 7   -103939.07849  20251143.18049
  23253567.695 5   -584831.523 5   -406022.73049  23253570.68049
  21074353.828 6   -156112.422 6   -115285.52049  21074353.06649
  23271523.820 5    -72912.895 5    -45551.70347  23271526.01247
  21366393.406 6    -58138.445 6    -37595.74648  21366391.65648
  24048309.086 5   -304812.617 5   -198997.99648  24048308.06348
  22615069.602 6   -441648.449 6   -328070.62548  22615066.63348
  23604498.648 5   -379824.980 5   -278205.14147  23604496.86747
  21677648.766 6   -249441.711 6   -180323.78549  21677649.76249
 20  5 16  5 20 33.0000000  0  9G01G03G07G08G11G17G22G28G30          0.000265451
  20250757.406 7   -143003.715 7   -105511.45349  20250758.93049
  23252516.188 5   -590357.641 5   -410328.80149  23252518.94149
  21074066.961 6   -157619.051 6   -116459.51649  21074066.38349
  23271337.008 5    -73896.672 5    -46318.28547  23271338.36347
  21366250.469 6    -58890.832 6    -38182.02348  21366248.48048
  24047503.648 5   -309044.910 5   -202295.89148  24047502.84848
  22614270.000 6   -445850.695 6   -331345.10548  22614267.27048
  23603473.391 5   -385208.293 5   -282399.93047  23603471.96547
  21676986.305 6   -252922.922 6   -183036.41849  21676987.35949
 20  5 16  5 20 34.0000000  0  9G01G03G07G08G11G17G22G28G30          0.000263651
  20250372.984 7   -145022.125 7   -107084.24249  20250374.89849
  23251463.672 5   -595884.797 5   -414635.67249  23251467.09049
  21073780.570 6   -159126.242 6   -117633.96149  21073779.26649
  23271149.094 5    -74881.695 5    -47085.83647  23271150.68047
  21366107.016 6    -59644.156 6    -38769.02748  21366105.47748
  24046697.570 5   -313278.270 5   -205594.61748  24046696.85548
  22613470.055 6   -450053.719 6   -334620.18448  22613467.39848
  23602449.250 5   -390592.813 5   -286595.66047  23602447.64847
  21676323.695 6   -256404.719 6   -185749.50849  21676325.15249
 20  5 16  5 20 35.0000000  0  9G01G03G07G08G11G17G22G28G30          0.000261847
  20249988.836 7   -147040.898 7   -108657.31649  20249990.65649
  23250411.891 5   -601412.832 5   -418943.23449  23250415.09449
  21073493.477 6   -160633.832 6   -118808.70349  21073492.50449
  23270961.781 5    -75867.703 5    -47854.14847  23270963.13347
  21365963.547 6    -60398.219 6    -39356.61748  21365961.69548
  24045891.844 5   -317512.559 5   -208894.06648  24045891.70748
  22612670.266 6   -454257.328 6   -337895.72348  22612667.84848
  23601424.406 5   -395978.402 5   -290792.22747  23601422.57447
  21675660.859 6   -259886.867 6   -188462.87149  21675662.19549
 20  5 16  5 20 36.0000000  0  9G01G03G07G08G11G17G22G28G30          0.000260044
  20249604.984 7   -149060.016 7   -110230.64849  20249606.83649
  23249359.844 5   -606941.711 5   -423251.44549  23249363.19549
  21073207.180 6   -162141.824 6   -119983.76649  21073205.63349
  23270773.781 5    -76854.730 5    -48623.25847  23270775.35247
  21365820.070 6    -61153.008 6    -39944.76248  21365818.12148
  24045085.570 5   -321747.672 5   -212194.15248  24045085.53948
  22611870.156 6   -458461.461 6   -341171.68048  22611867.45748
  23600399.156 5   -401364.988 5   -294989.57047  23600397.46147
  21674998.211 6   -263369.402 6   -191176.53949  21674999.11749
 20  5 16  5 20 37.0000000  0  9G01G03G07G08G11G17G22G28G30          0.000258240
  20249220.523 7   -151079.516 7   -111804.28949  20249222.44949
  23248307.648 5   -612471.523 5   -427560.39149  23248310.70749
  21072919.953 6   -163650.270 6   -121159.17649  21072918.50449
  23270586.094 5    -77842.863 5    -49393.22747  23270587.49647
  21365676.445 6    -61908.602 6    -40533.53948  21365674.36748
  24044280.133 5   -325983.695 5   -215494.94548  24044279.55148
  22611069.969 6   -462666.266 6   -344448.14848  22611067.35248
  23599374.148 5   -406752.723 5   -299187.79747  23599372.33247
  21674335.602 6   -266852.305 6   -193890.49249  21674336.69549
 20  5 16  5 20 38.0000000  0  9G01G03G07G08G11G17G22G28G30          0.000256435
  20248836.023 7   -153099.359 7   -113378.19549  20248837.86349
  23247255.367 5   -618002.137 5   -431869.95349  23247258.26649
  21072632.867 6   -165159.074 6   -122334.87149  21072631.33649
  23270397.289 5    -78831.930 5    -50163.93047  23270399.28147
  21365532.242 6    -62664.887 6    -41122.85248  21365530.42648
  24043473.789 5   -330220.598 5   -218796.42248  24043473.68848
  22610269.953 6   -466871.586 6   -347725.01648  22610267.30948
  23598349.391 5   -412141.430 5   -303386.78947  23598347.13347
  21673672.852 6   -270335.551 6   -196604.70749  21673673.87949
 20  5 16  5 20 39.0000000  0  9G01G03G07G08G11G17G22G28G30          0.000254629
  20248452.070 7   -155119.582 7   -114952.39149  20248453.85549
  23246202.289 5   -623533.703 5   -436180.26249  23246205.99649
  21072345.672 6   -166668.316 6   -123510.91049  21072344.15649
  23270209.625 5    -79822.140 5    -50935.52947  23270210.93447
  21365388.148 6    -63421.934 6    -41712.75848  21365386.29748
  24042667.281 5   -334458.359 5   -222098.57448  24042667.18848
  22609469.500 6   -471077.523 6   -351002.37548  22609466.57848
  23597322.969 5   -417531.234 5   -307586.64547  23597320.88747
  21673009.680 6   -273819.199 6   -199319.24649  21673010.89849
 20  5 16  5 20 40.0000000  0  9G01G03G07G08G11G17G22G28G30          0.000252825
  20248067.508 7   -157140.188 7   -116526.89549  20248069.30949
  23245149.508 5   -629066.176 5   -440491.27749  23245152.96949
  21072058.359 6   -168177.984 6   -124687.27349  21072057.10949
  23270020.461 5    -80813.348 5    -51707.90247  23270022.16047
  21365244.063 6    -64179.770 6    -42303.27748  21365242.30548
  24041861.070 5   -338697.063 5   -225401.45348  24041860.45348
  22608668.773 6   -475284.074 6   -354280.19948  22608665.99648
  23596296.953 5   -422922.117 5   -311787.33647  23596295.05947
  21672347.031 6   -277303.250 6   -202034.09049  21672348.09449
 20  5 16  5 20 41.0000000  0  9G01G03G07G08G11G17G22G28G30          0.000251017
  20247682.836 7   -159161.070 7   -118101.60949  20247684.46149
  23244096.313 5   -634599.398 5   -444802.87949  23244099.63749
  21071770.656 6   -169688.004 6   -125863.91049  21071769.46149
  23269831.336 5    -81805.535 5    -52481.03147  23269833.75047
  21365099.953 6    -64938.293 6    -42894.33248  21365097.72348
  24041053.953 5   -342936.555 5   -228704.95749  24041053.46949
  22607868.602 6   -479491.148 6   -357558.44148  22607866.01648
  23595270.648 5   -428313.973 5   -315988.78147  23595268.88347
  21671683.992 6   -280787.598 6   -204749.17249  21671684.79749
 20  5 16  5 20 42.0000000  0  9G01G03G07G08G11G17G22G28G30          0.000249210
  20247298.188 7   -161182.305 7   -119676.59449  20247299.76649
  23243043.578 5   -640133.477 5   -449115.14549  23243046.82049
  21071483.234 6   -171198.414 6   -127040.85549  21071482.15249
  23269642.102 5    -82798.773 5    -53254.97747  23269644.51647
  21364955.352 6    -65697.535 6    -43485.94948  21364953.12148
  24040247.109 5   -347176.934 5   -232009.14548  24040246.84848
  22607067.703 6   -483698.785 6   -360837.12148  22607065.06348
  23594244.609 5   -433706.895 5   -320191.05547  23594243.03947
  21671020.367 6   -284272.285 6   -207464.50449  21671021.72349
 20  5 16  5 20 43.0000000  0  9G01G03G07G08G11G17G22G28G30          0.000247402
  20246913.508 7   -163204.008 7   -121251.94949  20246915.03149
  23241990.086 5   -645668.609 5   -453428.23349  23241993.97349
  21071196.070 6   -172709.355 6   -128218.21149  21071194.62949
  23269453.203 5    -83793.082 5    -54029.77047  23269455.05147
  21364810.367 6    -66457.637 6    -44078.24248  21364808.84048
  24039439.523 5   -351418.266 5   -235314.07848  24039439.66848
  22606266.977 6   -487907.133 6   -364116.34448  22606264.30148
  23593218.008 5   -439100.969 5   -324394.23047  23593215.98447
  21670357.109 6   -287757.469 6   -210180.23049  21670358.89849
 20  5 16  5 20 44.0000000  0  9G01G03G07G08G11G17G22G28G30          0.000245594
  20246528.469 7   -165226.023 7   -122827.53949  20246530.44949
  23240936.438 5   -651204.531 5   -457741.93849  23240940.14149
  21070908.023 6   -174220.656 6   -129395.84849  21070907.30549
  23269263.938 5    -84788.441 5    -54805.37547  23269265.95747
  21364665.758 6    -67218.445 6    -44671.07848  21364663.57048
  24038632.172 5   -355660.484 5   -238619.70348  24038632.56648
  22605466.031 6   -492116.023 6   -367396.00048  22605463.44148
  23592191.281 5   -444496.066 5   -328598.20347  23592189.52047
  21669694.383 6   -291242.977 6   -212896.21149  21669695.12949
 20  5 16  5 20 45.0000000  0  9G01G03G07G08G11G17G22G28G30          0.000243786
  20246143.688 7   -167248.484 7   -124403.48849  20246145.29749
  23239883.336 5   -656741.383 5   -462056.36349  23239886.74649
  21070620.492 6   -175732.410 6   -130573.83649  21070619.38349
  23269074.000 5    -85784.895 5    -55581.83247  23269076.03947
  21364520.914 6    -67980.043 6    -45264.53148  21364518.85248
  24037824.508 5   -359903.613 5   -241926.02748  24037824.79348
  22604665.109 6   -496325.547 6   -370676.14548  22604662.34848
  23591165.023 5   -449892.254 5   -332803.01247  23591162.84047
  21669030.586 6   -294728.895 6   -215612.51649  21669031.60549
 20  5 16  5 20 46.0000000  0  9G01G03G07G08G11G17G22G28G30          0.000241976
  20245758.727 7   -169271.371 7   -125979.76649  20245760.80149
  23238829.258 5   -662279.223 5   -466371.55549  23238832.89549
  21070333.031 6   -177244.672 6   -131752.21949  21070331.80149
  23268884.609 5    -86782.438 5    -56359.13747  23268886.37147
  21364375.898 6    -68742.496 6    -45858.65648  21364373.84848
  24037016.977 5   -364147.730 5   -245233.12948  24037017.08648
  22603864.000 6   -500535.742 6   -373956.81348  22603861.27348
  23590137.836 5   -455289.609 5   -337008.75047  23590135.83647
  21668367.508 6   -298215.305 6   -218329.19549  21668368.52049
 20  5 16  5 20 47.0000000  0  9G01G03G07G08G11G17G22G28G30          0.000240164
  20245373.836 7   -171294.586 7   -127556.28549  20245375.66849
  23237775.484 5   -667817.871 5   -470687.37949  23237778.56349
  21070044.695 6   -178757.289 6   -132930.88749  21070043.88349
  23268694.813 5    -87781.008 5    -57137.24647  23268695.96947
  21364230.578 6    -69505.648 6    -46453.31648  21364228.66848
  24036209.656 5   -368392.672 5   -248540.87148  24036209.59048
  22603062.367 6   -504746.488 6   -377237.91448  22603059.93848
  23589110.320 5   -460687.945 5   -341215.23847  23589108.34847
  21667703.984 6   -301702.020 6   -221046.12149  21667705.20749
 20  5 16  5 20 48.0000000  0  9G01G03G07G08G11G17G22G28G30          0.000238354
  20244988.719 7   -173318.160 7   -129133.10249  20244990.37149
  23236721.531 5   -673357.418 5   -475003.91049  23236724.57449
  21069756.719 6   -180270.324 6   -134109.88349  21069756.09049
  23268504.383 5    -88780.590 5    -57916.14547  23268505.80547
  21364085.445 6    -70269.523 6    -47048.55148  21364083.32448
  24035401.195 5   -372638.457 5   -251849.27048  24035401.63748
  22602260.680 6   -508957.809 6   -380519.46148  22602258.26648
  23588082.625 5   -466087.355 5   -345422.58247  23588080.73847
  21667040.344 6   -305189.109 6   -223763.33249  21667041.46149
 20  5 16  5 20 49.0000000  0  9G01G03G07G08G11G17G22G28G30          0.000236542
  20244603.758 7   -175342.023 7   -130710.13749  20244605.34449
  23235667.484 5   -678897.758 5   -479321.05549  23235670.25449
  21069469.047 6   -181783.680 6   -135289.11749  21069467.91049
  23268313.664 5    -89781.141 5    -58695.78947  23268315.91447
  21363939.969 6    -71034.117 6    -47644.34048  21363937.49248
  24034594.008 5   -376885.109 5   -255158.34848  24034593.63748
  22601459.313 6   -513169.660 6   -383801.41848  22601456.83648
  23587055.297 5   -471487.770 5   -349630.69547  23587053.07847
  21666376.234 6   -308676.512 6   -226480.78949  21666377.77349
 20  5 16  5 20 50.0000000  0  9G01G03G07G08G11G17G22G28G30          0.000234730
  20244218.563 7   -177366.301 7   -132287.50049  20244220.16449
  23234612.367 5   -684439.055 5   -483638.94549  23234615.86749
  21069180.953 6   -183297.496 6   -136468.71949  21069179.87949
  23268123.016 5    -90782.773 5    -59476.28947  23268124.78547
  21363794.430 6    -71799.500 6    -48240.74248  21363792.23848
  24033785.578 5   -381132.641 5   -258468.11748  24033785.15248
  22600658.039 6   -517382.113 6   -387083.85548  22600655.37548
  23586027.328 5   -476889.262 5   -353839.66047  23586025.19947
  21665712.797 6   -312164.313 6   -229198.55549  21665713.80949
 20  5 16  5 20 51.0000000  0  9G01G03G07G08G11G17G22G28G30          0.000232918
  20243833.305 7   -179390.910 7   -133865.11749  20243834.97749
  23233558.156 5   -689981.164 5   -487957.46949  23233561.31649
  21068892.367 6   -184811.711 6   -137648.62949  21068891.50449
  23267932.133 5    -91785.402 5    -60257.55547  23267933.91847
  21363648.672 6    -72565.586 6    -48837.69148  21363646.55548
  24032976.594 5   -385381.070 5   -261778.59048  24032976.58648
  22599856.156 6   -521595.148 6   -390366.73848  22599853.70748
  23584999.125 5   -482291.809 5   -358049.43047  23584997.28947
  21665048.797 6   -315652.480 6   -231916.60549  21665050.32449
 20  5 16  5 20 52.0000000  0  9G01G03G07G08G11G17G22G28G30          0.000231104
  20243447.766 7   -181415.859 7   -135443.00449  20243449.75449
  23232503.672 5   -695524.137 5   -492276.66849  23232506.55549
  21068604.375 6   -186326.301 6   -138828.83249  21068603.49649
  23267740.766 5    -92789.074 5    -61039.64147  23267743.03547
  21363502.625 6    -73332.398 6    -49435.21148  21363500.37548
  24032168.148 5   -389630.348 5   -265089.71948  24032167.71148
  22599054.398 6   -525808.727 6   -393650.05148  22599051.99648
  23583971.203 5   -487695.359 5   -362259.98847  23583968.89547
  21664385.281 6   -319140.973 6   -234634.91449  21664386.42249
 20  5 16  5 20 53.0000000  0  9G01G03G07G08G11G17G22G28G30          0.000229290
  20243062.555 7   -183441.094 7   -137021.10549  20243063.75849
  23231448.156 5   -701067.902 5   -496596.48449  23231451.10949
  21068316.195 6   -187841.238 6   -140009.30549  21068315.16849
  23267550.500 5    -93793.691 5    -61822.46547  23267552.07047
  21363356.172 6    -74099.914 6    -50033.27048  21363354.30948
  24031359.234 5   -393880.453 5   -268401.49648  24031359.12948
  22598252.609 6   -530022.820 6   -396933.76248  22598250.27048
  23582942.898 5   -493099.918 5   -366471.32847  23582940.21147
  21663721.414 6   -322629.797 6   -237353.48449  21663722.69949
 20  5 16  5 20 54.0000000  0  9G01G03G07G08G11G17G22G28G30          0.000227474
  20242676.773 7   -185466.746 7   -138599.53549  20242678.50849
  23230393.266 5   -706612.609 5   -500917.03549  23230396.07449
  21068027.852 7   -189356.613 7   -141190.11749  21068026.87949
  23267358.852 5    -94799.402 5    -62606.14147  23267360.44947
  21363210.070 6    -74868.203 6    -50631.93848  21363208.08648
  24030550.281 5   -398131.449 5   -271713.95748  24030550.49648
  22597450.352 6   -534237.574 6   -400217.98448  22597448.50848
  23581914.234 5   -498505.586 5   -370683.53547  23581911.15647
  21663057.398 6   -326119.016 6   -240072.35249  21663058.61349
 20  5 16  5 20 55.0000000  0  9G01G03G07G08G11G17G22G28G30          0.000225658
  20242291.250 7   -187492.711 7   -140178.21149  20242292.90649
  23229337.602 5   -712158.102 5   -505238.19949  23229340.71949
  21067739.398 6   -190872.344 6   -142371.20749  21067738.14549
  23267168.039 5    -95806.063 5    -63390.55547  23267168.99247
  21363063.734 6    -75637.191 6    -51231.15248  21363061.73448
  24029741.156 5   -402383.285 5   -275027.07448  24029741.10248
  22596648.438 6   -538452.824 6   -403502.59048  22596646.16848
  23580885.297 5   -503912.219 5   -374896.48847  23580882.40647
  21662393.367 6   -329608.543 6   -242791.46549  21662394.26649
 20  5 16  5 20 56.0000000  0  9G01G03G07G08G11G17G22G28G30          0.000223845
  20241905.852 7   -189518.965 7   -141757.10949  20241907.49249
  23228282.406 5   -717704.434 5   -509560.02049  23228285.31349
  21067450.742 6   -192388.434 6   -143552.57449  21067450.07449
  23266975.586 5    -96813.699 5    -64175.73047  23266977.40247
  21362917.227 6    -76406.867 6    -51830.89548  21362915.06648
  24028932.078 5   -406635.949 5   -278340.83648  24028931.68448
  22595846.250 6   -542668.605 6   -406787.61748  22595843.95348
  23579856.547 5   -509319.867 5   -379110.24647  23579853.56347
  21661729.070 6   -333098.395 6   -245510.83649  21661730.43849
 20  5 16  5 20 57.0000000  0  9G01G03G07G08G11G17G22G28G30          0.000222027
  20241520.195 7   -191545.613 7   -143336.32049  20241521.96549
  23227226.680 5   -723251.676 5   -513882.54349  23227230.00449
  21067162.414 6   -193904.957 6   -144734.28949  21067161.21149
  23266784.195 5    -97822.426 5    -64961.75847  23266785.56647
  21362771.109 6    -77177.324 6    -52431.25448  21362768.78148
  24028122.523 6   -410889.535 6   -281655.32049  24028122.57049
  22595044.102 6   -546885.016 6   -410073.13748  22595041.16848
  23578827.133 5   -514728.598 5   -383324.85547  23578824.70347
  21661064.773 6   -336588.648 6   -248230.51649  21661066.07449
 20  5 16  5 20 58.0000000  0  9G01G03G07G08G11G17G22G28G30          0.000220209
  20241134.680 7   -193572.520 7   -144915.72749  20241136.12149
  23226171.078 5   -728799.684 5   -518205.66449  23226174.20749
  21066873.961 6   -195421.809 6   -145916.25049  21066872.56649
  23266591.789 5    -98832.086 5    -65748.49247  23266593.20747
  21362623.875 6    -77948.422 6    -53032.10948  21362622.12148
  24027312.883 5   -415143.883 5   -284970.39548  24027313.11348
  22594241.844 6   -551101.895 6   -413359.02048  22594238.78948
  23577798.172 5   -520138.270 5   -387540.18447  23577795.19547
  21660400.398 6   -340079.164 6   -250950.40249  21660401.94549
 20  5 16  5 20 59.0000000  0  9G01G03G07G08G11G17G22G28G30          0.000218391
  20240748.461 7   -195599.727 7   -146495.37149  20240750.12549
  23225115.422 5   -734348.488 5   -522529.41049  23225118.23449
  21066585.086 6   -196938.941 6   -147098.42649  21066584.07049
  23266399.250 5    -99842.688 5    -66535.96147  23266400.91047
  21362477.031 6    -78720.191 6    -53633.48848  21362475.06348
  24026503.609 5   -419399.051 5   -288286.10948  24026503.02048
  22593438.914 6   -555319.309 6   -416645.31348  22593436.40248
  23576768.328 6   -525548.938 6   -391756.29347  23576765.53547
  21659736.297 6   -343569.969 6   -253670.51249  21659737.49649
 20  5 16  5 21  0.0000000  0  9G01G03G07G08G11G17G22G28G30          0.000216574
  20240362.641 7   -197627.211 7   -148075.22749  20240364.53549
  23224059.313 5   -739898.119 5   -526853.79849  23224061.82049
  21066296.297 6   -198456.461 6   -148280.91849  21066295.09849
  23266206.898 5   -100854.262 5    -67324.19147  23266208.58647
  21362330.000 6    -79492.637 6    -54235.39848  21362327.94548
  24025693.563 5   -423655.080 5   -291602.49148  24025693.12148
  22592635.945 6   -559537.203 6   -419931.98848  22592633.56648
  23575738.453 6   -530960.586 6   -395973.16047  23575736.02047
  21659072.172 6   -347061.066 6   -256390.84849  21659073.65649
 20  5 16  5 21  1.0000000  0  9G01G03G07G08G11G17G22G28G30          0.000214754
  20239976.813 7   -199655.141 7   -149655.43049  20239978.32049
  23223002.867 5   -745448.672 5   -531178.89849  23223005.91449
  21066006.984 6   -199974.457 6   -149463.77049  21066006.08649
  23266014.133 5   -101866.955 5    -68113.31047  23266015.91047
  21362182.930 6    -80265.910 6    -54837.94948  21362181.00048
  24024883.867 5   -427911.965 5   -294919.54348  24024883.24248
  22591833.406 6   -563755.777 6   -423219.19548  22591830.59048
  23574707.930 6   -536373.359 6   -400190.91447  23574705.81647
  21658407.773 6   -350552.621 6   -259111.53949  21658409.05149
 20  5 16  5 21  2.0000000  0  9G01G03G07G08G11G17G22G28G30          0.000212934
  20239590.820 7   -201683.453 7   -151235.93049  20239592.71549
  23221946.633 5   -751000.133 5   -535504.71549  23221949.64549
  21065718.492 6   -201492.891 6   -150646.96149  21065717.28549
  23265820.789 5   -102880.645 5    -68903.20347  23265822.75447
  21362035.547 6    -81039.973 6    -55441.11348  21362033.36348
  24024073.570 5   -432169.809 5   -298237.34449  24024072.89549
  22591030.727 6   -567974.969 6   -426506.87148  22591027.95348
  23573678.258 6   -541787.207 6   -404409.48847  23573675.44547
  21657743.469 6   -354044.582 6   -261832.54349  21657744.71549
 20  5 16  5 21  3.0000000  0  9G01G03G07G08G11G17G22G28G30          0.000211115
  20239204.789 7   -203712.039 7   -152816.65249  20239206.67649
  23220889.773 5   -756552.379 5   -539831.13349  23220892.85549
  21065429.555 6   -203011.617 6   -151830.39149  21065428.33649
  23265628.023 5   -103895.316 5    -69693.86347  23265629.65247
  21361888.414 6    -81814.672 6    -56044.77348  21361886.36748
  24023262.977 5   -436428.457 5   -301555.77749  24023262.31349
  22590227.648 6   -572194.652 6   -429794.93448  22590224.99248
  23572647.359 6   -547202.023 6   -408628.82447  23572645.57847
  21657078.797 6   -357536.848 6   -264553.79349  21657079.92249
 20  5 16  5 21  4.0000000  0  9G01G03G07G08G11G17G22G28G30          0.000209293
  20238818.930 7   -205740.969 7   -154397.63349  20238820.35549
  23219832.992 5   -762105.465 5   -544158.20749  23219836.29749
  21065140.422 6   -204530.754 6   -153014.13349  21065139.62149
  23265434.508 5   -104910.961 5    -70485.27747  23265436.76247
  21361740.719 6    -82590.133 6    -56649.03148  21361738.62148
  24022452.086 5   -440687.945 5   -304874.85948  24022451.88748
  22589424.758 6   -576414.887 6   -433083.42648  22589422.18848
  23571617.055 5   -552617.883 5   -412848.97747  23571615.02047
  21656414.281 6   -361029.406 6   -267275.27049  21656415.62149
 20  5 16  5 21  5.0000000  0  9G01G03G07G08G11G17G22G28G30          0.000207472
  20238432.656 7   -207770.211 7   -155978.86349  20238434.37149
  23218776.180 5   -767659.402 5   -548485.94949  23218779.24649
  21064850.938 6   -206050.258 6   -154198.16449  21064850.09449
  23265240.438 5   -105927.633 5    -71277.49247  23265243.00047
  21361592.938 6    -83366.262 6    -57253.81348  21361591.31348
  24021641.828 5   -444948.270 5   -308194.59448  24021641.32848
  22588621.469 6   -580635.652 6   -436372.32848  22588618.87948
  23570585.906 5   -558034.734 5   -417069.89847  23570584.17247
  21655749.289 6   -364522.340 6   -269997.03549  21655750.71149
 20  5 16  5 21  6.0000000  0  9G01G03G07G08G11G17G22G28G30          0.000205650
  20238046.469 7   -209799.684 7   -157560.27349  20238048.10249
  23217719.258 5   -773214.070 5   -552814.25849  23217722.38749
  21064561.828 6   -207570.043 6   -155382.41449  21064561.01249
  23265048.039 5   -106945.191 5    -72070.38747  23265049.65647
  21361445.258 6    -84143.031 6    -57859.09048  21361443.25448
  24020830.227 6   -449209.359 6   -311514.91848  24020830.17648
  22587817.992 6   -584856.895 6   -439661.60948  22587815.22748
  23569554.703 5   -563452.547 5   -421291.57447  23569553.01647
