     2.10           OBSERVATION DATA    GPS(GPS)            RINEX VERSION / TYPE
cnvtToRINEX 3.07.0  convertToRINEX OPR  19-May-20 12:31 UTC PGM / RUN BY / DATE 
----------------------------------------------------------- COMMENT             
AG17                                                        MARKER NAME         
AG17                                                        MARKER NUMBER       
GNSS Observer       Trimble                                 OBSERVER / AGENCY   
0220365401          5700                2.32                REC # / TYPE / VERS 
                    UNKNOWN EXT                             ANT # / TYPE        
 -3050988.7415  4927814.8303  2653599.3784                  APPROX POSITION XYZ 
        0.0000        0.0000        0.0000                  ANTENNA: DELTA H/E/N
     1     1     0                                          WAVELENGTH FACT L1/2
     4    C1    L1    L2    P2                              # / TYPES OF OBSERV 
  2020     5    16     5    13   43.0000000     GPS         TIME OF FIRST OBS   
  2020     5    16     6    23   27.0000000     GPS         TIME OF LAST OBS    
     0                                                      RCV CLOCK OFFS APPL 
    18                                                      LEAP SECONDS        
     9                                                      # OF SATELLITES     
   G01  4185  4185  4185  4185                              PRN / # OF OBS      
   G03  4178  4178  4178  4178                              PRN / # OF OBS      
   G07  4154  4154  4154  4154                              PRN / # OF OBS      
   G08  4185  4185  4184  4184                              PRN / # OF OBS      
   G11  4185  4185  4185  4185                              PRN / # OF OBS      
   G17  4185  4184  4180  4180                              PRN / # OF OBS      
   G22  4185  4184  4180  4180                              PRN / # OF OBS      
   G28  4185  4184  4147  4147                              PRN / # OF OBS      
   G30  4185  4185  4185  4185                              PRN / # OF OBS      
CARRIER PHASE MEASUREMENTS: PHASE SHIFTS REMOVED            COMMENT             
                                                            END OF HEADER       
 20  5 16  5 13 43.0000000  0  7G01G08G11G17G22G28G30                0.000225847
  20185099.75017     -5240.91817     -2566.49259  20185099.09059
  23113571.93815     11867.50815                
  21195515.86716     20380.23416      7916.45758  21195512.21158
  24147311.38315                                
  22714506.49215                                
  23789757.26615                                
  21725954.79716    -21770.75816     -5858.89859  21725954.24659
 20  5 16  5 13 44.0000000  0  7G01G08G11G17G22G28G30                0.000225294
  20185039.133 7     -5557.848 7     -2813.44149  20185038.83649
  23113761.625 4     12864.629 4       117.75057  23113761.54757
  21195726.234 6     21485.414 6      8777.63348  21195722.41048
  24146869.984 4     -7099.538 4                
  22714050.680 5    -10344.105 5                
  23789112.547 5    -15611.730 5                
  21725617.922 6    -23540.102 6     -7237.60949  21725617.35949
 20  5 16  5 13 45.0000000  0  7G01G08G11G17G22G28G30                0.000224756
  20184979.117 7     -5874.551 7     -3060.23049  20184979.15249
  23113950.898 4     13861.293 4       894.39846  23113951.24246
  21195936.992 6     22590.430 6      9638.67248  21195932.96148
  24146428.453 4     -9416.094 4                
  22713594.297 3    -12740.477 3                
  23788466.672 5    -19001.594 5                
  21725281.094 6    -25309.320 6     -8616.23449  21725280.82849
 20  5 16  5 13 46.0000000  0  7G01G08G11G17G22G28G30                0.000224203
  20184918.805 7     -6191.016 7     -3306.82449  20184918.83649
  23114140.875 4     14857.570 4      1670.72746  23114141.21946
  21196147.305 6     23695.363 6     10499.66047  21196143.38747
  24145988.211 5    -11732.934 5                
  22713138.602 3    -15136.879 3                
  23787821.391 4    -22391.934 4                
  21724944.438 6    -27078.297 6     -9994.67649  21724944.18449
 20  5 16  5 13 47.0000000  0  7G01G08G11G17G22G28G30                0.000223650
  20184858.477 7     -6507.113 7     -3553.13349  20184858.60949
  23114330.422 3     15853.457 3      2446.74646  23114330.79746
  21196357.586 6     24800.246 6     11360.61747  21196353.35547
  24145547.320 4    -14049.938 4                
  22712681.813 3    -17533.176 3                
  23787176.078 5    -25782.637 5                
  21724608.000 6    -28846.965 6    -11372.85949  21724607.75449
 20  5 16  5 13 48.0000000  0  7G01G08G11G17G22G28G30                0.000223095
  20184798.438 7     -6822.977 7     -3799.26249  20184798.54349
  23114519.711 3     16848.930 3      3222.41046  23114520.29746
  21196567.813 6     25905.004 6     12221.46547  21196563.64147
  24145105.977 4    -16367.234 4      -362.44558  24145105.19558
  22712225.773 3    -19929.566 3    -10460.57056  22712222.67256
  23786531.086 5    -29173.863 5     -1056.01656  23786527.93856
  21724271.516 6    -30615.441 6    -12750.89549  21724270.85249
 20  5 16  5 13 49.0000000  0  7G01G08G11G17G22G28G30                0.000222540
  20184738.844 7     -7138.473 7     -4045.10549  20184738.31349
  23114709.109 3     17844.016 3      3997.80146  23114709.71546
  21196778.172 6     27009.715 6     13082.28147  21196774.34047
  24144665.227 4    -18684.685 4     -2168.23648  24144664.10948
  22711770.266 3    -22325.871 3    -12327.82846  22711766.65646
  23785885.766 4    -32565.469 4     -3698.88146  23785882.49246
  21723935.125 6    -32383.609 6    -14128.68449  21723934.41449
 20  5 16  5 13 50.0000000  0  8G01G03G08G11G17G22G28G30             0.000221985
  20184678.586 7     -7453.574 7     -4290.63749  20184678.39549
  23446790.81315    -83576.46115    -30831.34858  23446792.01258
  23114898.586 5     18838.871 5      4773.02346  23114899.04346
  21196987.859 6     28114.492 6     13943.14148  21196984.05948
  24144223.695 4    -21002.336 4     -3974.18448  24144222.94948
  22711314.375 5    -24722.137 5    -14195.03946  22711310.39546
  23785240.242 5    -35957.391 5     -6341.97746  23785237.16846
  21723598.891 6    -34151.422 6    -15506.19549  21723598.25049
 20  5 16  5 13 51.0000000  0  8G01G03G08G11G17G22G28G30             0.000221432
  20184618.430 7     -7768.324 7     -4535.89849  20184618.67649
  23446105.656 5    -87177.555 5    -33637.37148  23446107.16848
  23115087.820 5     19833.359 5      5547.94546  23115088.42646
  21197198.164 6     29219.227 6     14803.97348  21197194.10548
  24143783.406 4    -23320.137 4     -5780.24648  24143781.63348
  22710858.461 6    -27118.250 6    -16062.12947  22710854.54747
  23784594.938 5    -39349.715 5     -8985.33646  23784592.15646
  21723262.680 6    -35918.895 6    -16883.43049  21723262.05949
 20  5 16  5 13 52.0000000  0  8G01G03G08G11G17G22G28G30             0.000220877
  20184558.750 7     -8082.754 7     -4780.90249  20184558.69949
  23445420.445 5    -90778.949 5    -36443.64148  23445422.01648
  23115277.227 5     20827.473 5      6322.56647  23115277.30947
  21197408.297 6     30323.883 6     15664.74648  21197404.36748
  24143341.852 4    -25638.086 4     -7586.43448  24143340.42248
  22710402.617 6    -29514.301 6    -17929.17647  22710398.66447
  23783948.617 5    -42742.418 5    -11628.98846  23783946.13746
  21722925.938 6    -37686.094 6    -18260.46149  21722925.50049
 20  5 16  5 13 53.0000000  0  8G01G03G08G11G17G22G28G30             0.000220322
  20184498.742 7     -8396.844 7     -5025.64849  20184498.88749
  23444734.859 5    -94380.590 5    -39250.10948  23444736.39148
  23115466.758 5     21821.195 5      7096.89147  23115466.58647
  21197618.313 6     31428.520 6     16525.50048  21197614.60548
  24142901.211 5    -27956.297 5     -9392.83248  24142899.34048
  22709946.641 6    -31910.309 6    -19796.19147  22709942.60547
  23783303.117 5    -46135.563 5    -14272.98046  23783300.58246
  21722590.219 6    -39453.008 6    -19637.27349  21722589.41449
 20  5 16  5 13 54.0000000  0  8G01G03G08G11G17G22G28G30             0.000219767
  20184439.555 7     -8710.559 7     -5270.09849  20184439.38349
  23444048.906 5    -97982.418 5    -42056.73048  23444051.25848
  23115655.180 5     22814.609 5      7870.98447  23115655.44547
  21197828.547 6     32533.141 6     17386.25048  21197824.79748
  24142460.109 5    -30274.625 5    -11199.32048  24142458.48048
  22709490.422 6    -34306.234 6    -21663.14147  22709486.35247
  23782657.359 5    -49529.070 5    -16917.27746  23782654.67246
  21722253.609 6    -41219.582 6    -21013.82849  21722253.34449
 20  5 16  5 13 55.0000000  0  8G01G03G08G11G17G22G28G30             0.000219212
  20184379.609 7     -9023.660 7     -5514.08249  20184379.91849
  23443363.570 5   -101584.270 5    -44863.36748  23443365.48448
  23115844.313 5     23807.914 5      8644.98447  23115844.97747
  21198038.742 6     33637.969 6     18247.15648  21198035.28548
  24142018.875 5    -32592.883 5    -13005.76248  24142016.67648
  22709035.078 6    -36701.867 6    -23529.87147  22709031.21547
  23782012.070 5    -52922.691 5    -19561.65646  23782008.93046
  21721917.813 6    -42985.605 6    -22389.95349  21721917.22349
 20  5 16  5 13 56.0000000  0  8G01G03G08G11G17G22G28G30             0.000218655
  20184320.211 7     -9336.363 7     -5757.74649  20184320.69149
  23442678.422 5   -105186.250 5    -47670.09848  23442680.61748
  23116033.273 5     24800.953 5      9418.78547  23116033.63347
  21198249.008 6     34742.852 6     19108.10548  21198245.42648
  24141577.695 4    -34911.277 4    -14812.31348  24141575.91048
  22708578.625 6    -39097.340 6    -25396.48047  22708575.15647
  23781366.188 5    -56316.641 5    -22206.29746  23781362.70746
  21721581.766 6    -44751.230 6    -23765.76649  21721581.07049
 20  5 16  5 13 57.0000000  0  8G01G03G08G11G17G22G28G30             0.000218100
  20184260.750 7     -9648.609 7     -6001.05149  20184260.59849
  23441993.141 5   -108788.367 5    -50476.94548  23441994.47748
  23116222.477 5     25793.766 5     10192.40647  23116222.71547
  21198459.305 6     35847.809 6     19969.10948  21198455.90248
  24141136.711 4    -37229.699 4    -16618.87548  24141134.80548
  22708123.078 6    -41492.641 6    -27262.94147  22708119.30947
  23780720.250 5    -59710.836 5    -24851.11346  23780716.87946
  21721245.695 6    -46516.457 6    -25141.27349  21721245.36749
 20  5 16  5 13 58.0000000  0  8G01G03G08G11G17G22G28G30             0.000217545
  20184201.469 7     -9960.410 7     -6244.01649  20184201.66849
  23441306.805 5   -112390.629 5    -53283.91048  23441309.22748
  23116410.891 5     26786.348 5     10965.84447  23116411.62547
  21198669.469 6     36952.832 6     20830.16448  21198666.10948
  24140695.797 4    -39548.258 4    -18425.53948  24140693.88748
  22707667.516 6    -43887.793 6    -29129.29347  22707663.53147
  23780074.773 5    -63105.379 5    -27496.21946  23780070.98046
  21720910.336 6    -48281.262 6    -26516.44949  21720909.75449
 20  5 16  5 13 59.0000000  0  8G01G03G08G11G17G22G28G30             0.000216988
  20184142.102 7    -10271.734 7     -6486.60949  20184142.28149
  23440621.375 5   -115993.027 5    -56090.97748  23440623.61748
  23116599.445 5     27778.633 5     11739.05147  23116600.32847
  21198880.023 6     38057.930 6     21691.27748  21198876.49648
  24140253.633 4    -41866.920 4    -20232.29448  24140252.66848
  22707211.516 6    -46282.762 6    -30995.50447  22707207.80547
  23779427.898 5    -66500.141 5    -30141.49646  23779424.82046
  21720574.305 6    -50045.668 6    -27891.30949  21720573.52049
 20  5 16  5 14  0.0000000  0  8G01G03G08G11G17G22G28G30             0.000216433
  20184082.875 7    -10582.602 7     -6728.84449  20184083.06649
  23439935.461 5   -119595.531 5    -58898.11748  23439938.02348
  23116788.547 5     28770.730 5     12512.10947  23116788.72747
  21199090.633 6     39163.141 6     22552.48048  21199086.83248
  24139813.211 4    -44185.539 4    -22038.99648  24139811.28948
  22706755.664 6    -48677.547 6    -32861.56347  22706752.32447
  23778782.195 5    -69895.219 5    -32787.00046  23778779.00446
  21720238.367 6    -51809.641 6    -29265.83249  21720238.19949
 20  5 16  5 14  1.0000000  0  8G01G03G08G11G17G22G28G30             0.000215876
  20184023.898 7    -10892.906 7     -6970.63749  20184023.97349
  23439250.773 5   -123198.066 5    -61705.28148  23439252.77748
  23116977.516 5     29762.680 5     13285.05947  23116977.41847
  21199300.734 6     40268.492 6     23413.78948  21199297.25448
  24139371.539 4    -46504.262 4    -23845.79548  24139370.28148
  22706299.867 6    -51072.102 6    -34727.45347  22706296.36347
  23778135.820 5    -73290.469 5    -35432.64546  23778132.40646
  21719902.844 6    -53573.102 6    -30639.95349  21719902.53549
 20  5 16  5 14  2.0000000  0  8G01G03G08G11G17G22G28G30             0.000215321
  20183964.922 7    -11202.793 7     -7212.10949  20183965.46549
  23438565.008 5   -126800.766 5    -64512.57448  23438567.05948
  23117166.109 5     30754.391 5     14057.81647  23117166.29747
  21199510.969 6     41373.918 6     24275.15648  21199507.86348
  24138930.563 4    -48822.965 4    -25652.57848  24138928.96948
  22705844.109 6    -53466.445 6    -36593.17647  22705840.64847
  23777489.289 5    -76686.012 5    -38078.51646  23777486.69546
  21719567.414 6    -55336.148 6    -32013.75849  21719566.89849
 20  5 16  5 14  3.0000000  0  8G01G03G08G11G17G22G28G30             0.000214764
  20183905.977 7    -11512.133 7     -7453.15249  20183906.33249
  23437879.633 5   -130403.488 5    -67319.88748  23437881.74648
  23117354.859 5     31745.953 5     14830.46547  23117354.85947
  21199721.336 6     42479.477 6     25136.63748  21199718.40248
  24138488.781 5    -51141.688 5    -27459.35948  24138487.67248
  22705388.664 6    -55860.566 6    -38458.73047  22705385.34447
  23776843.164 5    -80081.750 5    -40724.53946  23776840.25046
  21719232.086 6    -57098.730 6    -33387.20349  21719231.63349
 20  5 16  5 14  4.0000000  0  8G01G03G08G11G17G22G28G30             0.000214209
  20183847.352 7    -11820.918 7     -7693.76249  20183847.76649
  23437194.328 5   -134006.301 5    -70127.27048  23437196.07048
  23117543.844 5     32737.320 5     15602.95347  23117543.75047
  21199932.039 6     43585.230 6     25998.25448  21199928.11748
  24138047.805 4    -53460.395 4    -29266.14848  24138046.30148
  22704933.594 5    -58254.371 5    -40324.03547  22704929.77347
  23776197.813 5    -83477.648 5    -43370.69146  23776194.23846
  21718896.953 6    -58860.766 6    -34760.22349  21718896.07449
 20  5 16  5 14  5.0000000  0  8G01G03G08G11G17G22G28G30             0.000213652
  20183788.430 7    -12129.281 7     -7934.04749  20183788.84449
  23436508.523 4   -137609.238 4    -72934.77348  23436510.52048
  23117731.531 5     33728.414 5     16375.24646  23117732.30946
  21200142.164 6     44690.992 6     26859.87948  21200138.37548
  24137606.055 4    -55779.227 4    -31073.02348  24137605.02748
  22704478.391 5    -60648.031 5    -42189.21547  22704474.39847
  23775550.688 5    -86873.926 5    -46017.13346  23775547.96146
  21718561.242 6    -60622.438 6    -36132.96549  21718561.21949
 20  5 16  5 14  6.0000000  0  8G01G03G08G11G17G22G28G30             0.000213095
  20183729.938 7    -12437.125 7     -8173.93449  20183730.53149
  23435823.547 5   -141212.191 5    -75742.28548  23435824.93448
  23117920.094 2     34719.391 2     17147.43446  23117921.17646
  21200353.102 6     45796.922 6     27721.63748  21200349.22748
  24137165.273 4    -58098.020 4    -32879.87948  24137163.56348
  22704023.117 4    -63041.535 4    -44054.28146  22704019.14546
  23774904.203 5    -90270.324 5    -48663.68846  23774901.19146
  21718226.352 6    -62383.594 6    -37505.29749  21718225.57449
 20  5 16  5 14  7.0000000  0  8G01G03G08G11G17G22G28G30             0.000212538
  20183671.664 7    -12744.367 7     -8413.33649  20183672.14149
  23435137.602 5   -144815.168 5    -78549.80948  23435139.35548
  23118108.469 2     35710.250 2     17919.53946  23118108.92246
  21200563.320 6     46903.070 6     28583.57447  21200559.93847
  24136724.102 5    -60416.773 5    -34686.71148  24136722.31348
  22703566.820 4    -65434.699 4    -45919.08646  22703563.60546
  23774258.281 5    -93666.922 5    -51310.41046  23774255.17646
  21717891.289 6    -64144.227 6    -38877.23449  21717890.89549
 20  5 16  5 14  8.0000000  0  8G01G03G08G11G17G22G28G30             0.000211981
  20183613.109 7    -13051.203 7     -8652.43449  20183613.99249
  23434451.578 5   -148418.316 5    -81357.44948  23434453.82448
  23118296.852 2     36700.848 2     18691.44946  23118298.01646
  21200773.750 6     48009.227 6     29445.51247  21200769.88347
  24136282.492 5    -62735.637 5    -36493.62948  24136281.39548
  22703111.898 4    -67827.766 4    -47783.80946  22703108.39846
  23773611.719 5    -97063.820 5    -53957.35246  23773608.78546
  21717556.813 6    -65904.492 6    -40248.86749  21717556.02049
 20  5 16  5 14  9.0000000  0  8G01G03G08G11G17G22G28G30             0.000211424
  20183555.078 7    -13357.379 7     -8891.00849  20183555.48049
  23433766.039 5   -152021.359 5    -84165.00448  23433768.00448
  23118486.406 5     37691.375 5     19463.27746  23118486.53946
  21200984.227 6     49115.695 6     30307.69947  21200980.36347
  24135841.430 4    -65054.422 4    -38300.48048  24135840.14148
  22702655.836 6    -70220.484 6    -49648.25046  22702652.50446
  23772964.984 5   -100460.844 5    -56604.37546  23772962.26646
  21717221.648 6    -67664.168 6    -41620.03949  21717221.39549
 20  5 16  5 14 10.0000000  0  8G01G03G08G11G17G22G28G30             0.000210869
  20183496.836 7    -13663.078 7     -9129.21949  20183496.96549
  23433080.125 5   -155624.531 5    -86972.64548  23433082.52048
  23118674.898 5     38681.707 5     20234.94146  23118675.43846
  21201194.758 6     50222.270 6     31169.96948  21201191.18048
  24135400.055 4    -67373.215 4    -40107.31648  24135399.35248
  22702200.797 6    -72612.922 6    -51512.49647  22702197.59847
  23772319.070 5   -103858.059 5    -59251.53946  23772315.68446
  21716887.164 6    -69423.340 6    -42990.80549  21716886.57849
 20  5 16  5 14 11.0000000  0  8G01G03G08G11G17G22G28G30             0.000210312
  20183438.422 7    -13968.238 7     -9367.01249  20183439.32449
  23432394.266 5   -159227.727 5    -89780.30548  23432396.62148
  23118862.742 5     39671.863 5     21006.49247  23118863.53547
  21201405.086 6     51328.977 6     32032.34448  21201401.26648
  24134958.680 4    -69691.977 4    -41914.13748  24134957.51248
  22701745.727 6    -75005.137 6    -53376.56647  22701742.09847
  23771672.523 5   -107255.488 5    -61898.88346  23771669.67246
  21716552.344 6    -71182.039 6    -44361.20749  21716551.68049
 20  5 16  5 14 12.0000000  0  8G01G03G08G11G17G22G28G30             0.000209755
  20183380.625 7    -14272.813 7     -9604.33649  20183381.39849
  23431708.828 4   -162830.984 4    -92588.02748  23431711.18048
  23119051.086 5     40661.891 5     21777.94147  23119051.82047
  21201615.930 6     52435.891 6     32894.87148  21201611.87948
  24134517.680 4    -72010.703 4    -43720.93448  24134515.84848
  22701290.406 6    -77397.023 6    -55240.38347  22701287.19147
  23771025.922 5   -110653.090 5    -64546.36346  23771022.66046
  21716217.914 6    -72940.215 6    -45731.21549  21716217.28549
 20  5 16  5 14 13.0000000  0  8G01G03G08G11G17G22G28G30             0.000209198
  20183322.719 7    -14576.895 7     -9841.28949  20183323.09449
  23431022.969 4   -166434.270 4    -95395.77748  23431025.44548
  23119239.633 5     41651.742 5     22549.25447  23119240.66847
  21201826.703 6     53542.891 6     33757.46948  21201823.03948
  24134076.531 4    -74329.500 4    -45527.78548  24134075.05548
  22700835.375 6    -79788.742 6    -57104.05947  22700831.73447
  23770379.328 5   -114050.918 5    -67194.03146  23770376.13346
  21715883.117 6    -74697.906 6    -47100.85249  21715882.74649
 20  5 16  5 14 14.0000000  0  9G01G03G07G08G11G17G22G28G30          0.000208639
  20183264.914 7    -14880.426 7    -10077.80149  20183265.82849
  23430336.961 4   -170037.629 4    -98203.59048  23430339.85248
  20969662.00816      6400.07816      4977.93059  20969658.84859
  23119427.820 5     42641.445 5     23320.45347  23119429.25447
  21202037.117 6     54650.066 6     34620.19948  21202033.58648
  24133635.328 4    -76648.258 4    -47334.61348  24133633.68848
  22700380.250 6    -82180.160 6    -58967.49647  22700376.31647
  23769732.742 5   -117448.938 5    -69841.84046  23769729.64846
  21715548.992 6    -76455.094 6    -48470.09449  21715548.79349
 20  5 16  5 14 15.0000000  0  9G01G03G07G08G11G17G22G28G30          0.000208082
  20183207.563 7    -15183.238 7    -10313.76249  20183208.26249
  23429651.898 5   -173640.855 5   -101011.31348  23429654.17648
  20969704.820 6      6625.805 6      5153.82449  20969702.33249
  23119616.023 5     43631.203 5     24091.69147  23119617.14547
  21202247.305 6     55757.609 6     35483.21948  21202244.11748
  24133194.219 5    -78966.805 5    -49141.27348  24133192.49248
  22699925.352 6    -84571.160 6    -60830.60547  22699921.77347
  23769086.531 5   -120846.938 5    -72489.62946  23769082.96546
  21715214.492 6    -78211.617 6    -49838.82049  21715214.25449
 20  5 16  5 14 16.0000000  0  9G01G03G07G08G11G17G22G28G30          0.000207525
  20183150.086 7    -15485.488 7    -10549.28149  20183150.55949
  23428965.984 5   -177244.027 5   -103818.99248  23428968.50448
  20969747.844 6      6852.012 6      5330.08649  20969744.88349
  23119804.430 5     44620.801 5     24862.79747  23119805.57847
  21202458.727 6     56865.328 6     36346.37148  21202454.73448
  24132753.273 4    -81285.328 4    -50947.91848  24132751.48848
  22699470.422 6    -86961.887 6    -62693.51247  22699466.57847
  23768439.398 5   -124245.121 5    -75137.56346  23768436.32046
  21714880.320 6    -79967.582 6    -51207.10949  21714880.13349
 20  5 16  5 14 17.0000000  0  9G01G03G07G08G11G17G22G28G30          0.000206968
  20183092.539 7    -15787.148 7    -10784.34049  20183093.10949
  23428280.500 5   -180847.242 5   -106626.70748  23428282.87548
  20969791.070 6      7078.766 6      5506.77749  20969788.50849
  23119992.766 5     45610.309 5     25633.84847  23119993.91047
  21202669.711 6     57973.250 6     37209.68848  21202665.80548
  24132311.984 4    -83603.809 4    -52754.52748  24132310.50048
  22699015.680 6    -89352.277 6    -64556.14847  22699011.84447
  23767792.898 5   -127643.477 5    -77785.63346  23767789.48446
  21714546.148 6    -81723.023 6    -52574.98449  21714545.84849
 20  5 16  5 14 18.0000000  0  9G01G03G07G08G11G17G22G28G30          0.000206411
  20183035.102 7    -16088.121 7    -11018.87149  20183035.64549
  23427595.031 4   -184450.352 4   -109434.32848  23427597.25048
  20969834.625 6      7306.164 6      5683.96949  20969831.78149
  23120180.766 5     46599.813 5     26404.89147  23120182.10947
  21202880.523 6     59081.484 6     38073.24648  21202876.83248
  24131870.117 5    -85922.082 5    -54560.97348  24131869.02348
  22698560.797 6    -91742.258 6    -66418.47347  22698557.00447
  23767146.086 5   -131041.840 5    -80433.70746  23767143.24646
  21714212.500 6    -83477.816 6    -53942.35549  21714211.74649
 20  5 16  5 14 19.0000000  0  9G01G03G07G08G11G17G22G28G30          0.000205854
  20182977.969 7    -16388.539 7    -11252.96149  20182978.65249
  23426908.922 5   -188053.480 5   -112241.94148  23426911.84848
  20969877.570 6      7534.082 6      5861.56649  20969875.16049
  23120369.563 5     47589.161 5     27175.80347  23120370.21147
  21203091.680 6     60189.898 6     38936.94548  21203088.13348
  24131428.625 5    -88240.340 5    -56367.40648  24131428.03948
  22698106.008 6    -94131.988 6    -68280.60947  22698102.27347
  23766499.195 5   -134440.410 5    -83081.93846  23766496.16846
  21713878.555 6    -85232.082 6    -55309.30949  21713878.09049
 20  5 16  5 14 20.0000000  0  9G01G03G07G08G11G17G22G28G30          0.000205297
  20182920.813 7    -16688.387 7    -11486.61349  20182921.58649
  23426223.859 4   -191656.613 4   -115049.56648  23426225.84848
  20969921.117 6      7762.527 6      6039.57449  20969918.42249
  23120558.063 5     48578.445 5     27946.68047  23120558.60547
  21203302.164 6     61298.496 6     39800.78548  21203298.76248
  24130988.617 5    -90558.625 5    -58173.85248  24130986.48848
  22697651.492 6    -96521.434 6    -70142.52047  22697647.36347
  23765852.547 5   -137839.141 5    -85730.30146  23765849.48046
  21713544.508 6    -86985.828 6    -56675.86749  21713544.14149
 20  5 16  5 14 21.0000000  0  9G01G03G07G08G11G17G22G28G30          0.000204739
  20182863.930 7    -16987.625 7    -11719.77749  20182864.52349
  23425537.664 5   -195259.723 5   -117857.17648  23425540.38748
  20969964.727 6      7991.535 6      6218.02349  20969961.59049
  23120746.211 5     49567.621 5     28717.46947  23120746.68847
  21203513.563 6     62407.352 6     40664.82848  21203509.82848
  24130547.078 5    -92876.746 5    -59980.17248  24130545.66448
  22697196.742 6    -98910.520 6    -72004.14147  22697193.05547
  23765206.070 5   -141237.973 5    -88378.73446  23765202.75446
  21713211.320 6    -88738.988 6    -58041.96549  21713210.77749
 20  5 16  5 14 22.0000000  0  9G01G03G07G08G11G17G22G28G30          0.000204182
  20182807.242 7    -17286.238 7    -11952.46949  20182807.30549
  23424852.109 4   -198862.832 4   -120664.80148  23424854.62148
  20970008.531 6      8221.102 6      6396.90249  20970005.58249
  23120934.781 5     50556.715 5     29488.18847  23120934.97347
  21203724.586 6     63516.398 6     41529.02048  21203720.89548
  24130106.063 5    -95194.836 5    -61786.48448  24130104.56348
  22696742.016 6   -101299.309 6    -73865.53547  22696738.20347
  23764558.461 5   -144636.945 5    -91027.30146  23764555.96546
  21712877.313 6    -90491.574 6    -59407.62149  21712877.02349
 20  5 16  5 14 23.0000000  0  9G01G03G07G08G11G17G22G28G30          0.000203625
  20182750.484 7    -17584.277 7    -12184.71149  20182751.13349
  23424166.672 4   -202465.898 4   -123472.38748  23424168.62548
  20970052.531 6      8451.215 6      6576.21149  20970049.60249
  23121122.633 5     51545.637 5     30258.75847  23121123.10247
  21203935.594 6     64625.676 6     42393.39148  21203931.81348
  24129665.250 5    -97512.836 5    -63592.71948  24129663.32048
  22696287.656 6   -103687.785 6    -75726.68847  22696283.59447
  23763912.359 5   -148036.043 5    -93675.93846  23763909.08646
  21712544.023 6    -92243.629 6    -60772.86349  21712544.02349
 20  5 16  5 14 24.0000000  0  9G01G03G07G08G11G17G22G28G30          0.000203068
  20182693.961 7    -17881.770 7    -12416.52349  20182694.50449
  23423481.180 5   -206069.016 5   -126280.01248  23423483.46948
  20970095.977 6      8681.840 6      6755.91849  20970093.78949
  23121310.867 5     52534.469 5     31029.28147  23121311.34447
  21204146.906 6     65735.125 6     43257.88748  21204142.93448
  24129223.414 5    -99830.828 5    -65398.95348  24129222.13348
  22695833.555 6   -106075.984 6    -77587.60947  22695829.00447
  23763265.313 5   -151435.355 5    -96324.75446  23763262.62946
  21712211.227 6    -93995.160 6    -62137.69149  21712210.53549
 20  5 16  5 14 25.0000000  0  9G01G03G07G08G11G17G22G28G30          0.000202509
  20182637.227 7    -18178.684 7    -12647.88749  20182638.05549
  23422794.875 4   -209672.156 4   -129087.64148  23422797.59848
  20970139.992 6      8912.977 6      6936.02749  20970137.30549
  23121498.617 5     53523.152 5     31799.68847  23121499.80147
  21204357.984 6     66844.738 6     44122.52348  21204354.28148
  24128782.875 4   -102148.789 4    -67205.15648  24128781.05548
  22695378.773 6   -108463.902 6    -79448.32047  22695374.99247
  23762618.359 5   -154834.840 5    -98973.71146  23762615.44146
  21711877.891 6    -95746.172 6    -63502.11349  21711877.58249
 20  5 16  5 14 26.0000000  0  9G01G03G07G08G11G17G22G28G30          0.000201952
  20182580.977 7    -18474.871 7    -12878.67649  20182581.62949
  23422109.234 5   -213275.113 5   -131895.10948  23422112.22348
  20970184.219 6      9144.828 6      7116.68849  20970181.69549
  23121686.789 5     54511.883 5     32570.13347  23121687.66847
  21204569.180 6     67954.730 6     44987.45348  21204565.62148
  24128341.992 5   -104466.543 5    -69011.18848  24128339.99248
  22694924.586 6   -110851.340 6    -81308.66447  22694920.60947
  23761970.898 5   -158234.266 5   -101622.60946  23761968.57046
  21711544.805 6    -97496.469 6    -64865.98849  21711544.24249
 20  5 16  5 14 27.0000000  0  9G01G03G07G08G11G17G22G28G30          0.000201395
  20182524.656 7    -18770.230 7    -13108.83249  20182525.34049
  23421424.258 4   -216877.871 4   -134702.44148  23421426.51648
  20970228.828 6      9377.418 6      7297.92649  20970225.85549
  23121875.172 5     55500.738 5     33340.67247  23121875.60947
  21204780.094 6     69065.121 6     45852.69948  21204776.60948
  24127900.289 5   -106784.012 5    -70817.00148  24127898.59848
  22694470.375 6   -113238.270 6    -83168.61747  22694466.42647
  23761324.141 5   -161633.664 5   -104271.49546  23761321.42646
  21711211.773 6    -99246.023 6    -66229.27749  21711211.24249
 20  5 16  5 14 28.0000000  0  9G01G03G07G08G11G17G22G28G30          0.000200838
  20182468.656 7    -19064.746 7    -13338.32449  20182469.50049
  23420739.000 4   -220480.293 4   -137509.52348  23420741.22348
  20970272.813 6      9610.859 6      7479.82449  20970270.34849
  23122063.313 5     56489.777 5     34111.35247  23122064.02747
  21204991.984 6     70176.031 6     46718.34448  21204988.33248
  24127459.727 5   -109101.148 5    -72622.55948  24127458.04348
  22694015.961 6   -115624.598 6    -85028.09847  22694012.41447
  23760677.625 5   -165032.906 5   -106920.25046  23760674.89146
  21710878.914 6   -100994.715 6    -67591.89549  21710878.42249
 20  5 16  5 14 29.0000000  0  9G01G03G07G08G11G17G22G28G30          0.000200281
  20182412.836 7    -19358.457 7    -13567.18449  20182413.60949
  23420052.797 4   -224082.539 4   -140316.46548  23420055.33648
  20970317.664 6      9845.020 6      7662.28549  20970314.85549
  23122251.438 5     57478.855 5     34882.07847  23122252.12947
  21205203.266 6     71287.352 6     47584.30148  21205199.43048
  24127019.047 5   -111418.035 5    -74427.92648  24127017.55148
  22693562.008 6   -118010.441 6    -86887.19147  22693558.22347
  23760030.914 5   -168432.109 5   -109568.97346  23760028.19946
  21710546.531 6   -102742.691 6    -68953.95349  21710546.06349
 20  5 16  5 14 30.0000000  0  9G01G03G07G08G11G17G22G28G30          0.000199722
  20182357.078 7    -19651.691 7    -13795.68049  20182357.55549
  23419367.375 5   -227684.883 5   -143123.48848  23419369.64148
  20970362.383 6     10079.637 6      7845.10549  20970359.52749
  23122439.531 5     58467.797 5     35652.67647  23122440.36747
  21205414.688 6     72398.746 6     48450.32448  21205411.07448
  24126578.109 4   -113734.918 4    -76233.29348  24126576.21548
  22693108.188 6   -120396.051 6    -88746.11347  22693104.42647
  23759383.859 5   -171831.551 5   -112217.87946  23759381.08646
  21710213.625 6   -104490.184 6    -70315.64149  21710213.20349
 20  5 16  5 14 31.0000000  0  9G01G03G07G08G11G17G22G28G30          0.000199165
  20182301.352 7    -19944.730 7    -14024.02749  20182301.98849
  23418681.734 4   -231287.586 4   -145930.79348  23418684.82048
  20970407.117 6     10314.410 6      8028.04749  20970404.01249
  23122627.313 5     59456.195 5     36422.84847  23122628.11347
  21205626.000 6     73509.969 6     49316.21148  21205622.05148
  24126137.203 4   -116052.180 4    -78038.95748  24126135.27048
  22692654.500 6   -122781.762 6    -90605.10547  22692650.19947
  23758736.664 5   -175231.504 5   -114867.19146  23758734.25846
  21709881.234 6   -106237.555 6    -71677.22749  21709880.73449
 20  5 16  5 14 32.0000000  0  9G01G03G07G08G11G17G22G28G30          0.000198608
  20182245.891 7    -20237.707 7    -14252.32449  20182245.91049
  23417996.266 4   -234890.836 4   -148738.52748  23417998.62948
  20970451.594 6     10549.176 6      8210.98049  20970448.66849
  23122815.656 5     60443.957 5     37192.52747  23122816.20347
  21205837.164 6     74620.879 6     50181.85248  21205833.27348
  24125696.422 5   -118369.898 5    -79844.98048  24125694.03948
  22692200.328 6   -125167.691 6    -92464.25847  22692196.32447
  23758089.547 5   -178632.152 5   -117517.05146  23758086.55946
  21709548.445 6   -107984.875 6    -73038.77749  21709548.14849
 20  5 16  5 14 33.0000000  0  9G01G03G07G08G11G17G22G28G30          0.000198050
  20182189.672 7    -20530.871 7    -14480.76649  20182190.42249
  23417310.742 4   -238494.876 4   -151546.86548  23417313.09848
  20970496.344 6     10783.727 6      8393.75049  20970493.34849
  23123003.625 5     61430.844 5     37961.53147  23123004.42247
  21206048.594 6     75731.187 6     51047.02548  21206044.63348
  24125254.906 5   -120688.324 5    -81651.54348  24125253.29748
  22691746.680 6   -127554.082 6    -94323.78547  22691742.28147
  23757442.977 5   -182033.774 5   -120167.65846  23757439.71146
  21709216.250 6   -109732.466 6    -74400.53849  21709215.63749
 20  5 16  5 14 34.0000000  0  9G01G03G07G08G11G17G22G28G30          0.000197491
  20182133.953 7    -20823.934 7    -14709.12149  20182134.55949
  23416624.859 4   -242099.313 4   -154355.51648  23416626.75448
  20970540.930 6     11018.336 6      8576.55549  20970537.70749
  23123191.234 5     62417.145 5     38730.07847  23123191.91447
  21206259.945 6     76841.281 6     51912.03948  21206256.11348
  24124813.563 5   -123007.227 5    -83458.47748  24124811.72748
  22691292.102 6   -129940.668 6    -96183.46147  22691288.08247
  23756794.914 5   -185435.906 5   -122818.66446  23756792.48846
  21708883.781 6   -111479.918 6    -75762.18449  21708883.12549
 20  5 16  5 14 35.0000000  0  9G01G03G07G08G11G17G22G28G30          0.000196932
  20182078.445 7    -21116.691 7    -14937.24249  20182078.79749
  23415938.953 4   -245704.066 4   -157164.40648  23415940.99248
  20970585.555 6     11253.211 6      8759.58249  20970582.51649
  23123378.742 5     63403.055 5     39498.31647  23123379.22747
  21206471.516 6     77951.285 6     52776.96948  21206467.62148
  24124371.836 5   -125326.266 5    -85265.51248  24124370.38748
  22690837.633 6   -132327.195 6    -98043.09447  22690833.62147
  23756147.688 5   -188838.543 5   -125470.08246  23756144.60946
  21708550.906 6   -113227.133 6    -77123.64549  21708550.52349
 20  5 16  5 14 36.0000000  0  9G01G03G07G08G11G17G22G28G30          0.000196373
  20182022.969 7    -21409.121 7    -15165.11349  20182023.21949
  23415252.625 5   -249309.055 5   -159973.48848  23415254.77048
  20970630.578 6     11488.359 6      8942.81349  20970627.28149
  23123565.953 5     64388.574 5     40266.25847  23123567.12947
  21206682.516 6     79061.195 6     53641.84048  21206678.56348
  24123931.008 5   -127645.559 5    -87072.75048  24123929.46948
  22690383.523 6   -134713.727 6    -99902.72347  22690379.68447
  23755500.406 5   -192241.574 5   -128121.80146  23755496.97746
  21708218.789 6   -114974.082 6    -78484.90649  21708218.12949
 20  5 16  5 14 37.0000000  0  9G01G03G07G08G11G17G22G28G30          0.000195812
  20181967.367 7    -21701.191 7    -15392.69949  20181967.44949
  23414567.148 4   -252914.316 4   -162782.77748  23414568.97348
  20970675.211 6     11723.832 6      9126.29749  20970672.40649
  23123753.594 5     65373.773 5     41033.93447  23123754.66047
  21206893.867 6     80171.098 6     54506.69148  21206889.97748
  24123489.523 5   -129965.027 5    -88880.12148  24123487.89548
  22689929.211 6   -137100.133 6   -101762.26647  22689925.71947
  23754852.258 5   -195644.996 5   -130773.81646  23754849.14846
  21707886.555 6   -116720.699 6    -79845.91049  21707886.27749
 20  5 16  5 14 38.0000000  0  9G01G03G07G08G11G17G22G28G30          0.000195253
  20181911.914 7    -21992.758 7    -15619.89849  20181912.30549
  23413880.898 5   -256519.602 5   -165592.08248  23413882.93448
  20970719.969 6     11959.766 6      9310.13349  20970717.52049
  23123940.797 5     66358.805 5     41801.48047  23123941.96547
  21207104.805 6     81281.137 6     55371.66048  21207101.37948
  24123048.336 4   -132284.543 4    -90687.53148  24123046.94548
  22689475.469 6   -139486.324 6   -103621.63347  22689471.83247
  23754204.617 5   -199048.625 5   -133425.98446  23754201.61746
  21707553.977 6   -118466.836 6    -81206.54349  21707554.13749
 20  5 16  5 14 39.0000000  0  9G01G03G07G08G11G17G22G28G30          0.000194693
  20181856.383 7    -22283.805 7    -15846.68849  20181856.73849
  23413195.125 4   -260124.953 4   -168401.44548  23413196.50048
  20970764.836 6     12196.180 6      9494.35249  20970762.25049
  23124128.773 5     67343.648 5     42568.89547  23124129.32447
  21207316.516 6     82391.309 6     56236.73048  21207312.53948
  24122606.727 5   -134604.000 5    -92494.90248  24122604.94948
  22689020.914 6   -141872.258 6   -105480.80147  22689017.42247
  23753556.508 5   -202452.473 5   -136078.32446  23753553.69146
  21707222.078 6   -120212.480 6    -82566.78149  21707221.30149
 20  5 16  5 14 40.0000000  0  9G01G03G07G08G11G17G22G28G30          0.000194134
  20181801.016 7    -22574.254 7    -16073.01249  20181801.28149
  23412508.352 5   -263730.270 5   -171210.78148  23412510.74648
  20970810.305 6     12433.129 6      9678.98449  20970807.06349
  23124316.203 5     68328.395 5     43336.23047  23124316.64847
  21207527.750 6     83501.703 6     57101.96948  21207524.00448
  24122165.172 4   -136923.434 4    -94302.25848  24122163.55548
  22688567.242 6   -144257.910 6   -107339.74647  22688563.10547
  23752909.391 5   -205856.434 5   -138730.76646  23752906.24246
  21706890.109 6   -121957.590 6    -83926.61349  21706889.60249
 20  5 16  5 14 41.0000000  0  9G01G03G07G08G11G17G22G28G30          0.000193575
  20181745.766 7    -22864.020 7    -16298.80549  20181746.36749
  23411822.930 5   -267335.512 5   -174020.06648  23411824.73448
  20970855.523 6     12670.738 6      9864.13749  20970852.86749
  23124503.617 5     69313.129 5     44103.55547  23124504.12147
  21207738.875 6     84612.375 6     57967.42248  21207735.34848
  24121723.734 4   -139242.695 4    -96109.48048  24121722.25048
  22688113.859 6   -146643.145 6   -109198.37147  22688109.76647
  23752262.102 5   -209260.457 5   -141383.25046  23752258.57446
  21706558.117 6   -123702.059 6    -85285.93849  21706557.89149
 20  5 16  5 14 42.0000000  0  9G01G03G07G08G11G17G22G28G30          0.000193014
  20181690.695 7    -23153.172 7    -16524.11749  20181691.22749
  23411136.477 5   -270940.730 5   -176829.33248  23411138.31648
  20970900.594 6     12908.918 6     10049.72749  20970897.97749
  23124691.125 5     70297.777 5     44870.81647  23124691.48047
  21207950.406 6     85723.320 6     58833.09448  21207946.95348
  24121282.438 4   -141561.852 4    -97916.61748  24121280.69548
  22687659.469 6   -149028.023 6   -111056.71547  22687655.26247
  23751613.781 5   -212664.578 5   -144035.81646  23751610.75846
  21706226.234 6   -125445.922 6    -86644.79349  21706225.76249
 20  5 16  5 14 43.0000000  0  9G01G03G07G08G11G17G22G28G30          0.000192455
  20181636.008 7    -23441.652 7    -16748.91049  20181636.37949
  23410450.711 5   -274545.805 5   -179638.48448  23410452.33248
  20970946.242 6     13147.723 6     10235.80549  20970943.64549
  23124878.414 5     71282.406 5     45638.05147  23124878.15247
  21208161.859 6     86834.512 6     59698.96148  21208158.32048
  24120841.406 4   -143880.941 4    -99723.69948  24120839.94548
  22687206.180 6   -151412.523 6   -112914.77047  22687201.78547
  23750966.031 5   -216068.793 5   -146688.45746  23750962.83646
  21705894.188 6   -127189.176 6    -88003.17649  21705894.00049
 20  5 16  5 14 44.0000000  0  9G01G03G07G08G11G17G22G28G30          0.000191895
  20181580.922 7    -23729.371 7    -16973.10549  20181581.36749
  23409764.313 5   -278150.750 5   -182447.53148  23409766.33248
  20970991.719 6     13387.223 6     10422.43449  20970989.03549
  23125066.078 5     72267.117 5     46405.36347  23125065.77747
  21208373.430 6     87946.082 6     60565.11748  21208369.62548
  24120399.930 5   -146199.769 5   -101530.56448  24120398.46548
  22686752.070 6   -153796.555 6   -114772.46547  22686747.88747
  23750318.039 5   -219472.965 5   -149341.06346  23750315.08646
  21705562.383 6   -128931.707 6    -89360.98849  21705562.21549
 20  5 16  5 14 45.0000000  0  9G01G03G07G08G11G17G22G28G30          0.000191336
  20181526.617 7    -24016.277 7    -17196.66849  20181527.06649
  23409078.117 5   -281755.422 5   -185256.35548  23409080.79348
  20971036.977 6     13627.504 6     10609.66449  20971034.37149
  23125253.570 5     73251.965 5     47172.78147  23125253.75047
  21208584.984 6     89058.117 6     61431.63748  21208581.36748
  24119959.102 5   -148518.254 5   -103337.17648  24119957.26648
  22686298.914 6   -156180.031 6   -116629.72347  22686295.03547
  23749670.313 5   -222877.031 5   -151993.57846  23749667.68846
  21705231.297 6   -130673.465 6    -90718.20749  21705230.76649
 20  5 16  5 14 46.0000000  0  9G01G03G07G08G11G17G22G28G30          0.000190777
  20181472.180 7    -24302.063 7    -17419.35949  20181472.74649
  23408392.594 5   -285359.574 5   -188064.78548  23408394.11748
  20971083.367 6     13868.871 6     10797.74249  20971080.49649
  23125440.586 5     74237.160 5     47940.46547  23125440.91447
  21208796.773 6     90170.879 6     62298.72348  21208793.12148
  24119518.641 5   -150836.203 5   -105143.37148  24119516.08648
  22685845.109 6   -158562.699 6   -118486.33647  22685841.51647
  23749022.258 5   -226280.742 5   -154645.82446  23749019.56646
  21704899.836 6   -132414.148 6    -92074.58249  21704899.47749
 20  5 16  5 14 47.0000000  0  9G01G03G07G08G11G17G22G28G30          0.000190218
  20181417.766 7    -24587.031 7    -17641.41849  20181418.21949
  23407706.961 5   -288963.496 5   -190873.03148  23407708.48448
  20971129.172 6     14111.004 6     10986.41049  20971126.54749
  23125628.078 5     75222.527 5     48708.29347  23125628.34847
  21209008.414 6     91284.063 6     63166.13348  21209004.92648
  24119077.281 5   -153153.805 5   -106949.29748  24119074.80948
  22685392.289 6   -160944.797 6   -120342.52047  22685387.99247
  23748374.688 5   -229684.359 5   -157297.98846  23748371.64846
  21704568.805 6   -134154.012 6    -93430.32449  21704568.72749
 20  5 16  5 14 48.0000000  0  9G01G03G07G08G11G17G22G28G30          0.000189657
  20181364.047 7    -24870.922 7    -17862.62549  20181364.39549
  23407020.555 5   -292566.902 5   -193680.88748  23407022.23448
  20971175.914 6     14354.156 6     11175.87949  20971172.86749
  23125815.281 5     76208.273 5     49476.41047  23125816.03147
  21209220.344 6     92397.945 6     64034.09448  21209216.99248
  24118636.031 4   -155470.918 4   -108754.84048  24118633.92648
  22684938.586 6   -163326.102 6   -122198.08247  22684934.79747
  23747727.383 5   -233087.613 5   -159949.85946  23747724.42646
  21704238.344 6   -135892.859 6    -94785.26649  21704237.78149
 20  5 16  5 14 49.0000000  0  9G01G03G07G08G11G17G22G28G30          0.000189100
  20181310.250 7    -25153.922 7    -18083.14849  20181310.45349
  23406335.547 5   -296169.977 5   -196488.46948  23406337.00848
  20971222.141 6     14598.152 6     11366.00849  20971219.01249
  23126002.977 5     77194.234 5     50244.68847  23126003.96147
  21209432.383 6     93512.352 6     64902.46148  21209429.12548
  24118194.891 4   -157787.648 4   -110560.09048  24118193.39848
  22684486.000 6   -165706.793 6   -124053.16447  22684482.27747
  23747079.547 5   -236490.707 5   -162601.60546  23747076.53546
  21703907.492 6   -137630.852 6    -96139.54749  21703906.85949
 20  5 16  5 14 50.0000000  0  9G01G03G07G08G11G17G22G28G30          0.000188541
  20181256.570 7    -25435.980 7    -18302.93049  20181257.09049
  23405649.875 4   -299772.684 4   -199295.77748  23405651.53948
  20971268.445 6     14843.082 6     11556.85949  20971265.74649
  23126190.938 5     78180.461 5     51013.17247  23126191.34047
  21209644.711 6     94627.352 6     65771.29748  21209640.80548
  24117754.094 4   -160103.941 4   -112364.98848  24117752.78948
  22684033.023 6   -168086.777 6   -125907.69147  22684028.71147
  23746432.695 5   -239893.574 5   -165253.19946  23746429.32846
  21703576.633 6   -139367.922 6    -97493.11349  21703576.35549
 20  5 16  5 14 51.0000000  0  9G01G03G07G08G11G17G22G28G30          0.000187983
  20181202.820 7    -25717.047 7    -18521.94149  20181203.57449
  23404964.125 5   -303375.008 5   -202102.78148  23404965.94948
  20971315.281 6     15088.941 6     11748.43449  20971312.90649
  23126378.484 5     79166.965 5     51781.87947  23126379.16047
  21209856.648 6     95742.926 6     66640.57448  21209853.24648
  24117314.047 4   -162419.801 4   -114169.55548  24117311.89548
  22683580.039 6   -170466.098 6   -127761.70347  22683576.22347
  23745784.875 5   -243296.174 5   -167904.58646  23745781.75046
  21703246.461 6   -141104.039 6    -98845.93449  21703246.25049
 20  5 16  5 14 52.0000000  0  9G01G03G07G08G11G17G22G28G30          0.000187424
  20181149.781 7    -25997.270 7    -18740.30549  20181150.04749
  23404279.242 4   -306977.027 4   -204909.54748  23404280.58648
  20971362.438 6     15335.590 6     11940.62949  20971359.51649
  23126565.719 5     80153.625 5     52550.69147  23126567.25447
  21210069.477 6     96858.969 6     67510.21948  21210065.56348
  24116872.898 4   -164735.336 4   -115973.86748  24116871.18848
  22683127.945 6   -172844.844 6   -129615.27047  22683123.57847
  23745137.836 5   -246698.730 5   -170555.93446  23745134.08646
  21702916.141 6   -142839.363 6   -100198.13349  21702915.85249
 20  5 16  5 14 53.0000000  0  9G01G03G07G08G11G17G22G28G30          0.000186867
  20181096.570 7    -26276.824 7    -18958.14549  20181096.97349
  23403593.672 5   -310578.984 5   -207716.26648  23403595.34448
  20971409.242 6     15582.871 6     12133.32049  20971406.75449
  23126754.117 5     81140.262 5     53319.50047  23126754.98847
  21210282.047 6     97975.285 6     68380.07448  21210278.03548
  24116432.063 4   -167050.766 4   -117778.09848  24116430.55148
  22682675.227 6   -175223.191 6   -131468.53147  22682670.97347
  23744489.625 5   -250101.316 5   -173207.31346  23744486.90646
  21702586.023 6   -144574.066 6   -101549.85549  21702585.68849
 20  5 16  5 14 54.0000000  0  9G01G03G07G08G11G17G22G28G30          0.000186308
  20181043.438 7    -26555.945 7    -19175.63749  20181043.58649
  23402907.844 5   -314181.063 5   -210523.07448  23402909.73448
  20971456.391 6     15830.543 6     12326.30949  20971453.69549
  23126941.828 5     82126.660 5     54088.11747  23126942.70747
  21210494.211 6     99091.672 6     69249.98048  21210490.85948
  24115991.469 4   -169366.258 4   -119582.37148  24115989.79748
  22682222.242 6   -177601.375 6   -133321.65647  22682218.22747
  23743842.688 5   -253504.188 5   -175858.89846  23743839.11346
  21702255.820 6   -146308.371 6   -102901.26649  21702255.74249
 20  5 16  5 14 55.0000000  0  9G01G03G07G08G11G17G22G28G30          0.000185749
  20180990.500 7    -26834.414 7    -19392.62149  20180990.71549
  23402222.523 5   -317783.070 5   -213329.83248  23402224.27048
  20971503.820 6     16078.809 6     12519.76249  20971500.91049
  23127129.516 5     83113.000 5     54856.69547  23127130.32847
  21210706.438 6    100208.305 6     70120.07848  21210702.72748
  24115550.914 4   -171681.648 4   -121386.57448  24115549.28148
  22681770.172 6   -179979.215 6   -135174.52047  22681766.16447
  23743194.453 5   -256907.164 5   -178510.56646  23743191.69946
  21701926.172 6   -148042.035 6   -104252.17249  21701925.57049
 20  5 16  5 14 56.0000000  0  9G01G03G07G08G11G17G22G28G30          0.000185192
  20180937.422 7    -27112.336 7    -19609.18849  20180937.83249
  23401536.680 5   -321385.105 5   -216136.60248  23401538.96948
  20971551.078 6     16327.590 6     12713.60949  20971548.27049
  23127317.320 5     84099.207 5     55625.17647  23127317.67647
  21210919.656 6    101325.145 6     70990.34848  21210915.66848
  24115110.422 4   -173997.012 4   -123190.75448  24115108.83648
  22681317.539 6   -182356.746 6   -137027.14147  22681313.73047
  23742547.258 5   -260310.289 5   -181162.35246  23742544.03546
  21701596.234 6   -149775.215 6   -105602.70349  21701596.09449
 20  5 16  5 14 57.0000000  0  9G01G03G07G08G11G17G22G28G30          0.000184633
  20180884.633 7    -27389.883 7    -19825.46149  20180884.77749
  23400851.539 4   -324987.355 4   -218943.55548  23400853.09448
  20971598.750 6     16576.703 6     12907.72749  20971595.87149
  23127505.102 5     85085.129 5     56393.42647  23127505.31347
  21211131.758 6    102441.961 6     71860.59048  21211128.34848
  24114669.633 4   -176312.520 4   -124995.04748  24114668.05548
  22680864.961 6   -184734.180 6   -138879.68847  22680860.89147
  23741899.281 5   -263713.770 5   -183814.41846  23741896.45746
  21701266.656 6   -151508.035 6   -106952.94949  21701266.12149
 20  5 16  5 14 58.0000000  0  9G01G03G07G08G11G17G22G28G30          0.000184074
  20180831.898 7    -27666.898 7    -20041.31349  20180832.05149
  23400165.969 5   -328589.637 5   -221750.53148  23400168.02048
  20971645.836 6     16826.324 6     13102.23449  20971643.16849
  23127692.742 5     86070.863 5     57161.52747  23127693.22747
  21211344.195 6    103558.926 6     72730.95748  21211340.32048
  24114229.008 4   -178628.059 4   -126799.36348  24114227.54348
  22680412.922 6   -187111.379 6   -140732.05147  22680408.64547
  23741251.438 5   -267117.457 5   -186466.62546  23741248.64146
  21700937.219 6   -153240.367 6   -108302.82049  21700936.35549
 20  5 16  5 14 59.0000000  0  9G01G03G07G08G11G17G22G28G30          0.000183516
  20180779.430 7    -27943.301 7    -20256.68849  20180779.38349
  23399480.508 5   -332191.887 5   -224557.46548  23399482.53148
  20971693.523 6     17076.484 6     13297.15649  20971690.68049
  23127880.180 5     87056.523 5     57929.55947  23127880.35247
  21211556.805 6    104676.117 6     73601.49648  21211553.23848
  24113788.828 4   -180943.449 4   -128603.56348  24113786.67248
  22679960.250 6   -189488.215 6   -142584.12947  22679956.70747
  23740604.242 5   -270521.281 5   -189118.95346  23740601.27046
  21700607.289 6   -154972.109 6   -109652.23449  21700606.91049
 20  5 16  5 15  0.0000000  0  9G01G03G07G08G11G17G22G28G30          0.000182957
  20180726.922 7    -28219.105 7    -20471.60249  20180727.27349
  23398795.133 5   -335794.102 5   -227364.38348  23398797.02348
  20971741.586 6     17327.223 6     13492.53949  20971738.44149
  23128067.453 5     88042.137 5     58697.56347  23128068.06647
  21211769.445 6    105793.574 6     74472.23848  21211766.01248
  24113347.977 4   -183258.781 4   -130407.71948  24113346.29348
  22679507.930 6   -191864.688 6   -144435.92247  22679504.48447
  23739956.328 5   -273925.199 5   -191771.35246  23739953.23846
  21700278.016 6   -156703.266 6   -111001.18449  21700277.77349
 20  5 16  5 15  1.0000000  0  9G01G03G07G08G11G17G22G28G30          0.000182398
  20180674.375 7    -28494.230 7    -20685.98449  20180674.77749
  23398109.313 5   -339396.195 5   -230171.20748  23398111.28148
  20971789.102 6     17578.598 6     13688.41449  20971786.12549
  23128255.555 5     89027.656 5     59465.48046  23128255.62546
  21211982.414 6    106911.289 6     75343.18048  21211978.83648
  24112907.547 4   -185573.977 4   -132211.76248  24112906.10548
  22679055.688 6   -194240.816 6   -146287.46947  22679051.93047
  23739308.648 5   -277329.176 5   -194423.80546  23739305.16446
  21699948.602 6   -158433.805 6   -112349.65649  21699948.06649
 20  5 16  5 15  2.0000000  0  9G01G03G07G08G11G17G22G28G30          0.000181839
  20180622.422 7    -28768.805 7    -20899.94549  20180622.37149
  23397424.375 4   -342998.359 4   -232978.08648  23397425.85248
  20971837.078 6     17830.453 6     13884.66449  20971834.45749
  23128442.758 5     90013.074 5     60233.34046  23128442.77346
  21212195.078 6    108029.164 6     76214.24648  21212191.34448
  24112467.266 4   -187889.156 4   -134015.80548  24112465.18848
  22678603.633 6   -196616.664 6   -148138.77747  22678599.94547
  23738660.570 5   -280733.352 5   -197076.41046  23738657.53546
  21699619.625 6   -160163.848 6   -113697.74249  21699619.01249
 20  5 16  5 15  3.0000000  0  9G01G03G07G08G11G17G22G28G30          0.000181280
  20180570.094 7    -29042.793 7    -21113.43449  20180570.48049
  23396738.539 4   -346600.469 4   -235784.92248  23396740.17648
  20971885.078 6     18082.875 6     14081.35949  20971882.20749
  23128630.461 4     90998.313 4     61001.06346  23128630.57046
  21212408.039 6    109147.262 6     77085.48448  21212404.07848
  24112026.133 5   -190204.336 5   -135819.84448  24112025.19548
  22678151.227 6   -198992.215 6   -149989.85947  22678148.10247
  23738012.547 5   -284137.648 5   -199729.13346  23738009.50846
  21699290.508 6   -161893.297 6   -115045.36349  21699290.07449
 20  5 16  5 15  4.0000000  0  9G01G03G07G08G11G17G22G28G30          0.000180721
  20180518.094 7    -29316.141 7    -21326.43049  20180518.29349
  23396053.156 5   -350202.551 5   -238591.74648  23396055.27348
  20971933.250 7     18335.859 7     14278.48449  20971930.39549
  23128817.508 5     91983.539 5     61768.77346  23128817.97346
  21212620.797 6    110265.590 6     77956.92647  21212616.65247
  24111585.734 4   -192519.273 4   -137623.68848  24111584.23048
  22677699.891 5   -201367.387 5   -151840.61347  22677696.30147
  23737364.953 5   -287542.121 5   -202382.00446  23737361.85946
  21698961.336 6   -163622.199 6   -116392.56649  21698961.18049
 20  5 16  5 15  5.0000000  0  9G01G03G07G08G11G17G22G28G30          0.000180162
  20180466.367 7    -29588.691 7    -21538.81349  20180466.87949
  23395367.641 5   -353804.434 5   -241398.40248  23395369.49248
  20971981.594 6     18589.586 6     14476.19149  20971979.03149
  23129005.633 5     92968.879 5     62536.56646  23129005.64546
  21212833.852 6    111384.332 6     78828.68047  21212829.25847
  24111145.906 5   -194834.098 5   -139427.45748  24111143.60948
  22677247.438 5   -203742.031 5   -153690.96547  22677244.42247
  23736716.898 5   -290946.516 5   -205034.80546  23736713.59446
  21698632.180 6   -165350.359 6   -117739.20349  21698631.91849
 20  5 16  5 15  6.0000000  0  9G01G03G07G08G11G17G22G28G30          0.000179604
  20180414.555 7    -29860.633 7    -21750.71549  20180414.87949
  23394682.250 4   -357406.199 4   -244204.95348  23394684.20348
  20972030.430 7     18843.902 7     14674.35249  20972027.28549
  23129193.023 2     93954.152 2     63304.31646  23129192.96946
  21213047.313 6    112503.340 6     79700.64847  21213042.48447
  24110705.188 4   -197148.730 4   -141231.07048  24110703.17248
  22676796.008 6   -206116.371 6   -155541.11347  22676792.59447
  23736069.023 5   -294350.922 5   -207687.59846  23736065.98446
  21698303.344 6   -167077.898 6   -119085.34849  21698303.50849
 20  5 16  5 15  7.0000000  0  9G01G03G07G08G11G17G22G28G30          0.000179045
  20180362.828 7    -30131.840 7    -21962.03549  20180363.12949
  23393996.555 3   -361007.840 3   -247011.40647  23393998.65247
  20972078.570 6     19098.918 6     14873.06649  20972075.53149
  23129380.281 2     94939.484 2     64072.14546  23129380.86746
  21213259.242 6    113622.660 6     80572.85547  21213255.38347
  24110264.398 5   -199463.195 5   -143034.54748  24110262.84048
  22676344.203 6   -208490.234 6   -157390.88747  22676340.43047
  23735422.078 5   -297755.422 5   -210340.45346  23735418.22346
  21697975.297 6   -168804.734 6   -120430.92649  21697974.71149
 20  5 16  5 15  8.0000000  0  9G01G03G07G08G11G17G22G28G30          0.000178486
  20180311.266 7    -30402.348 7    -22172.82049  20180311.59449
  23393311.289 4   -364609.344 4   -249817.77048  23393313.42248
  20972127.070 7     19354.633 7     15072.32849  20972123.99649
  23129567.945 3     95924.801 3     64839.92246  23129568.10546
  21213472.156 6    114742.309 6     81445.30947  21213468.73047
  24109824.398 5   -201777.409 5   -144837.83748  24109822.32448
  22675892.688 6   -210863.617 6   -159240.27747  22675888.93447
  23734773.977 5   -301159.840 5   -212993.22746  23734770.37546
  21697646.453 6   -170530.871 6   -121775.96149  21697646.40249
 20  5 16  5 15  9.0000000  0  9G01G03G07G08G11G17G22G28G30          0.000177929
  20180260.203 7    -30672.195 7    -22383.08249  20180260.30549
  23392626.680 4   -368210.762 4   -252624.07848  23392627.91448
  20972175.555 6     19610.895 6     15272.01249  20972173.10949
  23129754.484 2     96910.059 2     65607.64846  23129755.78946
  21213685.453 6    115862.297 6     82318.02347  21213681.94947
  24109383.781 5   -204091.648 5   -146641.14848  24109382.21948
  22675441.023 6   -213236.652 6   -161089.40647  22675437.30947
  23734126.492 5   -304564.438 5   -215646.12146  23734122.62546
  21697318.148 6   -172256.453 6   -123120.55549  21697318.13749
 20  5 16  5 15 10.0000000  0  9G01G03G07G08G11G17G22G28G30          0.000177370
  20180208.875 7    -30941.133 7    -22592.66049  20180208.65649
  23391941.148 4   -371811.902 4   -255430.14848  23391943.03548
  20972224.430 6     19867.996 6     15472.36349  20972222.12549
  23129942.141 2     97895.445 2     66375.46146  23129943.35246
  21213898.453 6    116982.715 6     83191.05947  21213894.70347
  24108943.102 4   -206405.500 4   -148444.14548  24108941.74248
  22674989.227 6   -215609.082 6   -162938.05947  22674986.16047
  23733477.734 5   -307968.855 5   -218298.89846  23733474.73046
  21696989.734 6   -173981.160 6   -124464.47749  21696990.10949
 20  5 16  5 15 11.0000000  0  9G01G03G07G08G11G17G22G28G30          0.000176811
  20180157.734 7    -31209.441 7    -22801.73849  20180158.02049
  23391256.391 4   -375412.922 4   -258236.10948  23391257.92648
  20972274.055 6     20125.734 6     15673.21149  20972271.14849
  23130130.063 3     98880.871 3     67143.32446  23130130.83246
  21214112.102 6    118103.422 6     84064.31647  21214107.74247
  24108503.078 4   -208719.141 4   -150246.96148  24108501.70348
  22674538.258 6   -217981.137 6   -164786.40247  22674534.41047
  23732830.172 5   -311373.297 5   -220951.71946  23732826.96146
  21696662.063 6   -175705.246 6   -125807.91049  21696661.91449
 20  5 16  5 15 12.0000000  0  9G01G03G07G08G11G17G22G28G30          0.000176252
  20180107.102 7    -31477.074 7    -23010.28949  20180107.23049
  23390570.945 4   -379013.859 4   -261042.03548  23390572.37148
  20972322.875 6     20384.102 6     15874.53949  20972320.16849
  23130317.500 3     99866.355 3     67911.21946  23130318.41846
  21214325.578 6    119224.434 6     84937.82847  21214321.58647
  24108062.594 4   -211032.664 4   -152049.69148  24108061.28948
  22674087.063 6   -220352.789 6   -166634.43047  22674083.78947
  23732182.273 4   -314777.820 4   -223604.58246  23732179.31346
  21696333.609 6   -177428.672 6   -127150.84449  21696333.82449
 20  5 16  5 15 13.0000000  0  9G01G03G07G08G11G17G22G28G30          0.000175694
  20180055.836 7    -31743.961 7    -23218.25049  20180056.52049
  23389885.125 5   -382614.609 5   -263847.84048  23389887.45348
  20972372.203 6     20643.176 6     16076.41049  20972369.24649
  23130505.352 3    100851.828 3     68679.12146  23130505.91046
  21214538.758 6    120345.773 6     85811.60947  21214535.17247
  24107622.859 5   -213345.961 5   -153852.25848  24107621.21148
