     2.10           OBSERVATION DATA    GPS(GPS)            RINEX VERSION / TYPE
cnvtToRINEX 3.07.0  convertToRINEX OPR  19-May-20 12:29 UTC PGM / RUN BY / DATE 
----------------------------------------------------------- COMMENT             
GBA0                                                        MARKER NAME         
GBA0                                                        MARKER NUMBER       
GNSS Observer       Trimble                                 OBSERVER / AGENCY   
0220247377          TRIMBLE 5700        2.32                REC # / TYPE / VERS 
                    UNKNOWN EXT                             ANT # / TYPE        
 -3051023.8675  4927493.4203  2654157.4855                  APPROX POSITION XYZ 
        0.0000        0.0000        0.0000                  ANTENNA: DELTA H/E/N
     1     1     0                                          WAVELENGTH FACT L1/2
     4    C1    L1    L2    P2                              # / TYPES OF OBSERV 
  2020     5    16     3    31   29.0000000     GPS         TIME OF FIRST OBS   
  2020     5    16     5     1   10.0000000     GPS         TIME OF LAST OBS    
     0                                                      RCV CLOCK OFFS APPL 
    18                                                      LEAP SECONDS        
    12                                                      # OF SATELLITES     
   G01  5382  5382  5382  5382                              PRN / # OF OBS      
   G03  1167  1161  1161  1161                              PRN / # OF OBS      
   G04    25    16     0     0                              PRN / # OF OBS      
   G07  5382  5382  5382  5382                              PRN / # OF OBS      
   G08  5382  5382  5382  5382                              PRN / # OF OBS      
   G11  5382  5382  5382  5382                              PRN / # OF OBS      
   G16  4014  4014  4014  4014                              PRN / # OF OBS      
   G17   252   248   249   249                              PRN / # OF OBS      
   G22  2074  2054  1882  1882                              PRN / # OF OBS      
   G27  1861  1819  1752  1752                              PRN / # OF OBS      
   G28  1072  1072  1072  1072                              PRN / # OF OBS      
   G30  5361  5361  5361  5361                              PRN / # OF OBS      
CARRIER PHASE MEASUREMENTS: PHASE SHIFTS REMOVED            COMMENT             
                                                            END OF HEADER       
 20  5 16  3 31 29.0000000  0  5G01G07G08G11G16                      0.000004217
  21824521.70316   -121744.36316    -42228.89159  21824523.74259
  21909963.99216    -89200.19916    -38811.17659  21909963.11359
  20923054.10917    -43731.72717    -15350.49259  20923054.21959
  20323057.67216    -84331.78516    -29149.71559  20323055.53559
  23263812.04715    -28577.27015     -4332.68057  23263809.43857
 20  5 16  3 31 30.0000000  0  5G01G07G08G11G16                      0.000001572
  21823128.273 6   -129067.035 6    -47934.87549  21823130.53149
  21908682.258 6    -95935.992 6    -44059.85249  21908681.11349
  20922544.664 7    -46407.984 7    -17435.88749  20922545.14149
  20322091.961 6    -89407.160 6    -33104.54749  20322089.68049
  23263327.117 5    -31129.043 5     -6321.08547  23263323.56647
 20  5 16  3 31 31.0000000  0  5G01G07G08G11G16                     -0.000001072
  21821734.328 6   -136392.074 6    -53642.69949  21821736.43049
  21907400.344 6   -102674.125 6    -49310.34849  21907398.75049
  20922035.117 7    -49086.750 7    -19523.24249  20922035.43849
  20321126.023 6    -94484.715 6    -37061.08649  20321123.67649
  23262840.664 5    -33683.422 5     -8311.47247  23262838.10247
 20  5 16  3 31 32.0000000  0  5G01G07G08G11G16                     -0.000003723
  21820340.219 6   -143719.379 6    -59352.29349  21820342.21549
  21906117.477 6   -109414.492 6    -54562.58649  21906116.04749
  20921524.742 7    -51767.910 7    -21612.46549  20921525.00849
  20320159.484 6    -99564.336 6    -41019.22349  20320157.12949
  23262354.023 6    -36240.293 6    -10303.87147  23262351.38747
 20  5 16  3 31 33.0000000  0  5G01G07G08G11G16                     -0.000006371
  21818945.453 6   -151048.941 6    -65063.64149  21818947.30949
  21904834.609 6   -116157.070 6    -59816.54749  21904833.33649
  20921014.063 7    -54451.438 7    -23703.53149  20921014.17249
  20319192.023 6   -104646.012 6    -44978.97348  20319190.06348
  23261866.984 6    -38799.711 6    -12298.21147  23261864.61347
 20  5 16  3 31 34.0000000  0  5G01G07G08G11G16                     -0.000009024
  21817550.398 6   -158380.480 6    -70776.53549  21817552.65249
  21903550.906 6   -122901.625 6    -65072.04749  21903549.95749
  20920503.297 7    -57137.094 7    -25796.25049  20920503.54349
  20318225.367 6   -109729.465 6    -48940.10248  20318222.38748
  23261379.641 6    -41361.332 6    -14294.28146  23261376.92246
 20  5 16  3 31 35.0000000  0  5G01G07G08G11G16                     -0.000011673
  21816154.352 6   -165713.977 6    -76490.94549  21816156.65249
  21902267.125 6   -129648.039 6    -70329.00449  21902265.98849
  20919991.563 7    -59824.824 7    -27890.58649  20919991.94149
  20317257.148 6   -114814.660 6    -52902.59848  20317254.64848
  23260891.758 6    -43925.188 6    -16292.09847  23260889.13347
 20  5 16  3 31 36.0000000  0  5G01G07G08G11G16                     -0.000014332
  21814758.891 6   -173049.367 6    -82206.83249  21814761.21149
  21900982.961 6   -136396.352 6    -75587.43049  21900982.03949
  20919479.859 7    -62514.613 7    -29986.52349  20919479.89149
  20316289.156 6   -119901.563 6    -56866.41448  20316286.89848
  23260403.234 6    -46491.203 6    -18291.59047  23260400.98047
 20  5 16  3 31 37.0000000  0  5G01G07G08G11G16                     -0.000016985
  21813362.086 6   -180386.512 6    -87924.08649  21813365.05949
  21899698.039 6   -143146.410 6    -80847.22349  21899697.62549
  20918967.539 7    -65206.285 7    -32083.92249  20918967.66049
  20315321.148 6   -124990.035 6    -60831.45748  20315318.52348
  23259914.773 6    -49059.230 6    -20292.64847  23259912.23447
 20  5 16  3 31 38.0000000  0  5G01G07G08G11G16                     -0.000019644
  21811966.211 6   -187725.367 6    -93642.67249  21811968.23849
  21898413.625 6   -149898.121 6    -86108.29349  21898412.73049
  20918455.125 7    -67899.805 7    -34182.77349  20918455.34849
  20314351.922 6   -130079.988 6    -64797.65248  20314349.95748
  23259426.109 6    -51629.223 6    -22295.24247  23259423.20347
 20  5 16  3 31 39.0000000  0  5G01G07G08G11G16                     -0.000022299
  21810569.328 6   -195065.789 6    -99362.47749  21810571.38349
  21897127.906 6   -156651.371 6    -91370.55549  21897127.47749
  20917941.789 7    -70594.984 7    -36282.91449  20917942.41849
  20313383.523 6   -135171.313 6    -68764.92648  20313380.93448
  23258935.961 6    -54201.043 6    -24299.25847  23258933.61747
 20  5 16  3 31 40.0000000  0  5G01G07G08G11G16                     -0.000024961
  21809171.977 6   -202407.629 6   -105083.39549  21809174.16449
  21895843.352 6   -163406.008 6    -96633.90649  21895842.28949
  20917429.039 7    -73291.746 7    -38384.29349  20917429.23049
  20312414.320 6   -140263.879 6    -72733.15648  20312411.88348
  23258446.664 6    -56774.535 6    -26304.57847  23258444.01647
 20  5 16  3 31 41.0000000  0  5G01G07G08G11G16                     -0.000027618
  21807774.625 6   -209750.906 6   -110805.43049  21807776.50449
  21894557.234 6   -170162.059 6   -101898.36349  21894556.49249
  20916915.523 7    -75990.102 7    -40486.90649  20916915.41849
  20311445.047 6   -145357.652 6    -76702.32448  20311442.68048
  23257956.234 6    -59349.738 6    -28311.22747  23257953.64147
 20  5 16  3 31 42.0000000  0  5G01G07G08G11G16                     -0.000030283
  21806377.234 6   -217095.465 6   -116528.46549  21806379.05549
  21893271.039 6   -176919.324 6   -107163.76649  21893270.59449
  20916401.766 7    -78689.848 7    -42590.60249  20916402.21149
  20310475.203 6   -150452.520 6    -80672.35548  20310473.20348
  23257466.102 6    -61926.477 6    -30319.07047  23257463.45747
 20  5 16  3 31 43.0000000  0  5G01G07G08G11G16                     -0.000032944
  21804979.406 6   -224441.293 6   -122252.48449  21804980.97349
  21891985.414 6   -183677.844 6   -112430.14549  21891984.55549
  20915887.563 7    -81390.984 7    -44695.38349  20915887.64849
  20309505.547 6   -155548.473 6    -84643.22748  20309503.46948
  23256975.617 6    -64504.715 6    -32328.09047  23256972.89147
 20  5 16  3 31 44.0000000  0  5G01G07G08G11G16                     -0.000035610
  21803581.344 6   -231788.297 6   -127977.41849  21803583.18049
  21890698.789 6   -190437.512 6   -117697.41849  21890698.29349
  20915373.594 7    -84093.449 7    -46801.19949  20915373.59449
  20308535.727 6   -160645.395 6    -88614.85548  20308533.43048
  23256484.438 6    -67084.418 6    -34338.25847  23256481.88747
 20  5 16  3 31 45.0000000  0  5G01G07G08G11G16                     -0.000038271
  21802183.148 6   -239136.379 6   -133703.19549  21802184.86349
  21889412.469 6   -197198.230 6   -122965.50849  21889411.83649
  20914858.945 7    -86797.109 7    -48907.94949  20914859.15249
  20307565.508 6   -165743.172 6    -92587.15248  20307563.16848
  23255993.297 6    -69665.461 6    -36349.46147  23255990.76647
 20  5 16  3 31 46.0000000  0  5G01G07G08G11G16                     -0.000040939
  21800784.766 6   -246485.512 6   -139429.79749  21800786.37549
  21888125.766 6   -203959.949 6   -128234.37549  21888125.07049
  20914344.180 7    -89501.957 7    -51015.62549  20914344.37949
  20306595.461 6   -170841.805 6    -96560.10948  20306593.00048
  23255502.133 6    -72247.805 6    -38361.67647  23255499.60547
 20  5 16  3 31 47.0000000  0  5G01G07G08G11G16                     -0.000043604
  21799385.766 6   -253835.531 6   -145157.08249  21799387.60949
  21886838.789 6   -210722.520 6   -133503.91049  21886837.90249
  20913829.305 7    -92207.859 7    -53124.12549  20913829.83649
  20305624.836 6   -175941.160 6   -100533.63748  20305622.76248
  23255010.922 6    -74831.293 6    -40374.78547  23255007.87547
 20  5 16  3 31 48.0000000  0  5G01G07G08G11G16                     -0.000046272
  21797987.086 6   -261186.395 6   -150885.03149  21797988.93049
  21885551.859 6   -217485.902 6   -138774.08649  21885551.02049
  20913313.813 7    -94914.723 7    -55233.36749  20913314.25049
  20304654.625 6   -181041.125 6   -104507.63348  20304652.46548
  23254518.398 6    -77415.898 6    -42388.76247  23254516.13347
 20  5 16  3 31 49.0000000  0  5G01G07G08G11G16                     -0.000048937
  21796588.172 6   -268538.043 6   -156613.57849  21796589.96949
  21884264.414 6   -224250.027 6   -144044.83249  21884263.85549
  20912799.039 7    -97622.523 7    -57343.34449  20912799.23049
  20303683.602 6   -186141.684 6   -108482.09448  20303681.82048
  23254026.531 6    -80001.551 6    -44403.55147  23254023.78547
 20  5 16  3 31 50.0000000  0  7G01G07G08G11G16G27G30               -0.000051609
  21795189.008 6   -275890.438 6   -162342.72349  21795190.88349
  21882977.117 6   -231014.887 6   -149316.14849  21882976.22749
  20912283.563 7   -100331.176 7    -59453.98449  20912283.67249
  20302713.219 6   -191242.805 6   -112456.99648  20302711.08648
  23253534.344 6    -82588.207 6    -46419.13747  23253531.41047
  22656355.63316    -48461.91416    -33183.14159  22656355.18059
  24447317.73414   -190085.62114    -98278.23857  24447317.79357
 20  5 16  3 31 51.0000000  0  7G01G07G08G11G16G27G30               -0.000054277
  21793789.820 6   -283243.469 6   -168072.35549  21793791.93449
  21881689.516 6   -237780.336 6   -154587.92649  21881689.10549
  20911767.844 7   -103040.590 7    -61565.21149  20911768.42249
  20301742.430 6   -196344.348 6   -116432.22348  20301740.23048
  23253041.875 6    -85175.746 6    -48435.39547  23253038.93447
  22656074.852 6    -49933.098 6    -34329.52349  22656074.67649
  24445869.594 4   -197693.984 4   -104206.83647  24445869.86747
 20  5 16  3 31 52.0000000  0  7G01G07G08G11G16G27G30               -0.000056948
  21792390.273 6   -290597.102 6   -173802.46149  21792392.16049
  21880401.938 6   -244546.402 6   -159860.18449  21880401.34849
  20911251.977 7   -105750.777 7    -63677.05149  20911252.37549
  20300771.625 6   -201446.320 6   -120407.78948  20300769.41448
  23252549.461 6    -87764.168 6    -50452.34446  23252546.64546
  22655795.320 6    -51405.219 6    -35476.63749  22655794.73049
  24444422.023 4   -205303.176 4   -110136.07047  24444421.50447
 20  5 16  3 31 53.0000000  0  7G01G07G08G11G16G27G30               -0.000059614
  21790990.922 6   -297951.293 6   -179533.00049  21790992.85949
  21879114.492 6   -251312.949 6   -165132.82449  21879113.77749
  20910736.234 6   -108461.641 6    -65789.41049  20910736.72749
  20299800.859 6   -206548.637 6   -124383.61348  20299798.41048
  23252056.672 6    -90353.398 6    -52469.93046  23252053.79746
  22655514.938 6    -52878.262 6    -36624.46549  22655514.17649
  24442973.555 4   -212913.176 4   -116065.93847  24442973.59047
 20  5 16  3 31 54.0000000  0  7G01G07G08G11G16G27G30               -0.000062288
  21789590.922 6   -305306.031 6   -185263.96949  21789593.02349
  21877826.805 6   -258080.000 6   -170405.84849  21877826.16849
  20910220.320 7   -111173.148 7    -67902.27749  20910221.04349
  20298829.758 6   -211651.273 6   -128359.69948  20298827.57848
  23251564.203 6    -92943.410 6    -54488.11747  23251560.92247
  22655234.000 6    -54352.121 6    -37772.93449  22655234.12549
  24441525.180 4   -220523.953 4   -121996.41447  24441525.65247
 20  5 16  3 31 55.0000000  0  7G01G07G08G11G16G27G30               -0.000064957
  21788191.945 6   -312661.242 6   -190995.29349  21788193.55949
  21876538.766 6   -264847.512 6   -175679.23049  21876538.31649
  20909704.359 7   -113885.289 7    -70015.63349  20909704.49249
  20297858.500 6   -216754.246 6   -132336.03948  20297856.45748
  23251070.633 6    -95534.191 6    -56506.91446  23251067.60946
  22654953.594 6    -55826.863 6    -38922.08649  22654953.27349
  24440075.195 4   -228135.441 4   -127927.44147  24440076.83247
 20  5 16  3 31 56.0000000  0  7G01G07G08G11G16G27G30               -0.000067631
  21786791.906 6   -320016.941 6   -196727.00449  21786793.89849
  21875251.297 6   -271615.469 6   -180952.96149  21875250.30149
  20909187.797 7   -116598.008 7    -72129.44549  20909188.57049
  20296887.508 6   -221857.457 6   -136312.56648  20296885.10548
  23250577.344 6    -98125.727 6    -58526.29747  23250575.05147
  22654672.719 6    -57302.406 6    -40071.85949  22654673.06349
  24438627.156 4   -235747.652 4   -133859.03147  24438628.26647
 20  5 16  3 31 57.0000000  0  7G01G07G08G11G16G27G30               -0.000070301
  21785392.195 6   -327373.055 6   -202459.04349  21785394.21549
  21873962.617 6   -278383.824 6   -186227.00449  21873962.15249
  20908671.703 7   -119311.324 7    -74243.72349  20908671.75049
  20295916.172 6   -226960.922 6   -140289.29348  20295914.10248
  23250084.234 6   -100717.922 6    -60546.17646  23250081.58646
  22654391.914 6    -58778.723 6    -41222.23049  22654391.98049
  24437179.250 4   -243360.516 4   -139791.12948  24437179.93448
 20  5 16  3 31 58.0000000  0  7G01G07G08G11G16G27G30               -0.000072977
  21783992.102 6   -334729.566 6   -208191.38749  21783994.50849
  21872675.227 6   -285152.527 6   -191501.32449  21872673.87549
  20908155.500 7   -122025.141 7    -76358.38349  20908155.35249
  20294945.031 6   -232064.563 6   -144266.15248  20294942.65248
  23249590.852 6   -103310.777 6    -62566.58246  23249588.29746
  22654110.773 6    -60255.746 6    -42373.16049  22654110.56649
  24435730.406 4   -250973.969 4   -145723.68048  24435731.01648
 20  5 16  3 31 59.0000000  0  7G01G07G08G11G16G27G30               -0.000075647
  21782592.328 6   -342086.313 6   -213923.91449  21782594.42249
  21871387.266 6   -291921.418 6   -196775.78149  21871386.25849
  20907638.633 7   -124739.320 7    -78473.33649  20907639.43449
  20293973.984 6   -237168.219 6   -148243.03548  20293971.84448
  23249097.453 6   -105904.090 6    -64587.34847  23249094.62947
  22653829.586 6    -61733.340 6    -43524.53949  22653829.48049
  24434281.367 4   -258587.930 4   -151656.63348  24434282.52748
 20  5 16  3 32  0.0000000  0  7G01G07G08G11G16G27G30               -0.000078323
  21781192.086 6   -349443.344 6   -219656.66049  21781194.21549
  21870098.625 6   -298690.555 6   -202050.43049  21870097.91449
  20907121.852 7   -127453.934 7    -80588.61749  20907122.57849
  20293002.867 6   -242272.020 6   -152220.02348  20293000.68048
  23248603.531 6   -108497.988 6    -66608.58247  23248601.46547
  22653548.438 6    -63211.543 6    -44676.38349  22653548.29349
  24432832.227 3   -266202.434 3   -157590.00847  24432833.08647
 20  5 16  3 32  1.0000000  0  7G01G07G08G11G16G27G30               -0.000080996
  21779792.109 6   -356800.637 6   -225389.60549  21779794.51249
  21868810.188 6   -305459.945 6   -207325.29349  21868810.05149
  20906605.672 7   -130168.992 7    -82704.25449  20906606.14149
  20292031.797 6   -247375.840 6   -156197.01248  20292029.68048
  23248110.281 6   -111092.430 6    -68630.25046  23248107.65646
  22653266.875 6    -64690.410 6    -45828.77349  22653266.91849
  24431382.695 3   -273817.348 3   -163523.69947  24431383.99647
 20  5 16  3 32  2.0000000  0  7G01G07G08G11G16G27G30               -0.000083672
  21778391.781 6   -364158.086 6   -231122.67649  21778393.82049
  21867523.250 6   -312229.527 6   -212600.28949  21867522.02049
  20906088.352 7   -132884.383 7    -84820.14149  20906088.91849
  20291060.516 6   -252479.668 6   -160174.01248  20291058.40248
  23247616.109 5   -113687.313 5    -70652.27346  23247614.02046
  22652984.953 6    -66169.828 6    -46981.57449  22652985.83649
  24429934.039 5   -281432.797 5   -169457.84847  24429934.12147
 20  5 16  3 32  3.0000000  0  7G01G07G08G11G16G27G30               -0.000086344
  21776991.750 6   -371515.836 6   -236855.97749  21776994.04749
  21866234.172 6   -318999.254 6   -217875.39849  21866233.21149
  20905571.813 7   -135600.137 7    -86936.31649  20905572.53949
  20290089.242 6   -257583.539 6   -164151.05948  20290086.99248
  23247121.961 5   -116282.656 5    -72674.63346  23247120.43446
  22652703.055 6    -67649.766 6    -48134.76649  22652704.61749
  24428485.383 5   -289048.656 5   -175392.27348  24428484.84848
 20  5 16  3 32  4.0000000  0  7G01G07G08G11G16G27G30               -0.000089022
  21775591.609 6   -378873.746 6   -242589.40249  21775593.75049
  21864946.148 6   -325769.219 6   -223150.68849  21864944.82849
  20905055.234 7   -138316.246 7    -89052.75849  20905055.35249
  20289118.141 6   -262687.441 6   -168128.12948  20289115.61348
  23246628.742 5   -118878.516 5    -74697.37146  23246626.52746
  22652421.922 6    -69130.246 6    -49288.37949  22652422.81649
  24427035.961 5   -296664.992 5   -181327.05548  24427035.64848
 20  5 16  3 32  5.0000000  0  7G01G07G08G11G16G27G30               -0.000091694
  21774191.391 6   -386231.922 6   -248323.04349  21774193.81349
  21863657.695 6   -332539.340 6   -228426.10249  21863656.33249
  20904538.227 7   -141032.730 7    -91169.50049  20904538.11349
  20288146.977 6   -267791.363 6   -172105.22348  20288144.54348
  23246134.547 5   -121474.836 5    -76720.46146  23246132.86746
  22652139.938 6    -70611.340 6    -50442.46549  22652141.11349
  24425586.766 5   -304281.770 5   -187262.18447  24425587.10947
 20  5 16  3 32  6.0000000  0  7G01G07G08G11G16G27G30               -0.000094374
  21772791.070 6   -393590.254 6   -254056.80949  21772793.40249
  21862369.109 6   -339309.590 6   -233701.62549  21862368.44949
  20904021.391 7   -143749.512 7    -93286.47349  20904021.58249
  20287175.375 6   -272895.250 6   -176082.27748  20287173.12548
  23245640.219 5   -124071.590 5    -78743.89846  23245638.17246
  22651858.023 6    -72092.895 6    -51596.92249  22651858.87149
  24424136.953 5   -311898.938 5   -193197.63748  24424137.71148
 20  5 16  3 32  7.0000000  0  7G01G07G08G11G16G27G30               -0.000097048
  21771390.969 6   -400948.684 6   -259790.65249  21771392.98449
  21861080.781 6   -346079.906 6   -238977.19949  21861079.72749
  20903504.063 7   -146466.539 7    -95403.64549  20903504.50849
  20286203.977 6   -277999.063 6   -180059.26248  20286201.95748
  23245146.398 5   -126668.691 5    -80767.61346  23245144.35246
  22651576.203 6    -73574.910 6    -52751.74649  22651576.68049
  24422687.883 5   -319516.453 5   -199133.37948  24422688.48048
 20  5 16  3 32  8.0000000  0  7G01G07G08G11G16G27G30               -0.000099726
  21769990.930 6   -408307.203 6   -265524.56649  21769992.58649
  21859792.852 6   -352850.266 6   -244252.80949  21859791.50049
  20902987.109 7   -149183.781 7    -97520.98049  20902987.23849
  20285232.914 6   -283102.727 6   -184036.13748  20285230.98848
  23244651.563 5   -129266.133 5    -82791.60546  23244650.12546
  22651294.039 6    -75057.344 6    -53906.89849  22651295.09449
  24421237.961 5   -327134.277 5   -205069.34848  24421238.77748
 20  5 16  3 32  9.0000000  0  7G01G07G08G11G16G27G30               -0.000102400
  21768590.180 6   -415665.785 6   -271258.52749  21768592.53149
  21858504.367 6   -359620.707 6   -249528.47749  21858502.92249
  20902470.180 7   -151901.246 7    -99638.48849  20902470.57049
  20284261.469 6   -288206.277 6   -188012.93048  20284259.89848
  23244157.617 5   -131863.949 5    -84815.88346  23244155.95746
  22651011.531 6    -76540.219 6    -55062.39149  22651012.81649
  24419788.328 5   -334752.469 5   -211005.60248  24419789.01248
 20  5 16  3 32 10.0000000  0  7G01G07G08G11G16G27G30               -0.000105080
  21767190.359 6   -423024.344 6   -276992.47349  21767192.25849
  21857215.781 6   -366391.051 6   -254804.07049  21857214.34849
  20901952.820 7   -154618.813 7   -101756.06649  20901953.27049
  20283290.734 6   -293309.621 6   -191989.55548  20283288.68848
  23243662.742 5   -134461.969 5    -86840.31346  23243661.39146
  22650729.617 6    -78023.352 6    -56218.09449  22650730.65249
  24418337.547 5   -342370.793 5   -216941.97748  24418339.38348
 20  5 16  3 32 11.0000000  0  7G01G07G08G11G16G27G30               -0.000107754
  21765790.148 6   -430382.953 6   -282726.44949  21765791.87949
  21855927.547 6   -373161.418 6   -260079.67649  21855926.25049
  20901435.414 7   -157336.570 7   -103873.79749  20901436.05949
  20282319.742 6   -298412.832 6   -195966.08648  20282317.25048
  23243168.344 6   -137060.320 6    -88865.00846  23243167.12146
  22650447.586 6    -79506.910 6    -57374.12949  22650448.07849
  24416888.648 5   -349989.406 5   -222878.56648  24416889.55548
 20  5 16  3 32 12.0000000  0  7G01G07G08G11G16G27G30               -0.000110435
  21764389.148 6   -437741.695 6   -288460.53549  21764391.69549
  21854639.070 6   -379931.859 6   -265355.34449  21854637.39849
  20900918.523 7   -160054.551 7   -105991.71549  20900918.96149
  20281348.492 6   -303515.938 6   -199942.52748  20281346.04348
  23242673.563 6   -139659.012 6    -90889.94546  23242672.70346
  22650165.586 6    -80990.918 6    -58530.50449  22650164.99249
  24415438.617 4   -357608.418 4   -228815.47748  24415439.55548
 20  5 16  3 32 13.0000000  0  7G01G07G08G11G16G27G30               -0.000113110
  21762989.422 6   -445100.398 6   -294194.60249  21762991.24249
  21853350.273 6   -386702.223 6   -270630.95349  21853349.40249
  20900401.133 7   -162772.672 7   -108109.73049  20900401.88349
  20280376.938 6   -308618.797 6   -203918.80148  20280375.10248
  23242179.164 6   -142257.961 6    -92915.05546  23242177.75446
  22649882.961 6    -82475.234 6    -59687.09449  22649882.62149
  24413989.414 5   -365227.582 5   -234752.48848  24413990.07448
 20  5 16  3 32 14.0000000  0  7G01G07G08G11G16G27G30               -0.000115791
  21761588.852 6   -452459.012 6   -299928.59449  21761590.91049
  21852062.383 6   -393472.488 6   -275906.48849  21852061.48849
  20899883.969 7   -165490.871 7   -110227.79749  20899884.43849
  20279406.617 6   -313721.402 6   -207894.87148  20279404.15248
  23241684.336 6   -144857.105 6    -94940.33646  23241683.15646
  22649599.906 6    -83959.824 6    -60843.90249  22649599.32049
  24412539.508 5   -372846.906 5   -240689.62948  24412540.29348
 20  5 16  3 32 15.0000000  0  7G01G07G08G11G16G27G30               -0.000118465
  21760188.719 6   -459817.582 6   -305662.54749  21760191.48849
  21850773.898 6   -400242.680 6   -281181.96549  21850772.81649
  20899366.563 7   -168209.156 7   -112345.94149  20899367.23849
  20278435.523 6   -318823.762 6   -211870.75048  20278433.50848
  23241189.758 5   -147456.453 5    -96965.79347  23241188.37947
  22649317.766 6    -85444.719 6    -62000.96149  22649317.32049
  24411089.070 4   -380466.453 4   -246626.93848  24411090.41848
 20  5 16  3 32 16.0000000  0  7G01G07G08G11G16G27G30               -0.000121147
  21758788.008 6   -467176.180 6   -311396.51649  21758790.48849
  21849485.516 6   -407012.879 6   -286457.44549  21849484.19949
  20898848.969 7   -170927.621 7   -114464.23049  20898849.77349
  20277464.383 6   -323925.969 6   -215846.49248  20277462.30948
  23240694.961 5   -150056.113 5    -98991.50046  23240693.72746
  22649035.109 6    -86929.996 6    -63158.32049  22649034.68449
  24409639.063 4   -388086.270 4   -252564.44548  24409640.34848
 20  5 16  3 32 17.0000000  0  7G01G07G08G11G16G27G30               -0.000123823
  21757387.805 6   -474534.730 6   -317130.44549  21757390.44949
  21848197.570 6   -413782.988 6   -291732.86349  21848195.62149
  20898332.023 7   -173646.160 7   -116582.57449  20898332.65249
  20276493.578 6   -329027.934 6   -219822.04748  20276491.56648
  23240200.406 5   -152655.973 5   -101017.37546  23240199.23846
  22648751.875 5    -88415.547 5    -64315.89549  22648752.00849
  24408188.633 4   -395706.234 4   -258502.07848  24408190.09448
 20  5 16  3 32 18.0000000  0  7G01G07G08G11G16G27G30               -0.000126505
  21755987.570 6   -481893.195 6   -322864.31349  21755989.78549
  21846908.758 6   -420552.980 6   -297008.18049  21846907.67249
  20897814.617 7   -176364.754 7   -118700.96149  20897815.27349
  20275522.508 6   -334129.602 6   -223797.35948  20275520.44948
  23239705.484 5   -155256.008 5   -103043.37946  23239704.05546
  22648468.711 6    -89901.363 6    -65473.68049  22648469.27049
  24406738.969 4   -403326.371 4   -264439.83648  24406740.67248
 20  5 16  3 32 19.0000000  0  7G01G07G08G11G16G27G30               -0.000129181
  21754586.836 6   -489251.605 6   -328598.13749  21754589.64549
  21845620.617 6   -427322.887 6   -302283.43049  21845619.08249
  20897297.445 7   -179083.434 7   -120819.41049  20897298.33249
  20274552.094 6   -339231.027 6   -227772.50048  20274549.99248
  23239210.547 5   -157856.242 5   -105069.54746  23239209.39846
  22648186.508 5    -91387.445 5    -66631.66849  22648186.28149
  24405288.375 4   -410946.688 4   -270377.75048  24405290.77748
 20  5 16  3 32 20.0000000  0  7G01G07G08G11G16G27G30               -0.000131863
  21753187.328 6   -496609.941 6   -334331.90649  21753189.36749
  21844332.352 6   -434092.672 6   -307558.59449  21844330.85549
  20896779.922 7   -181802.176 7   -122937.91849  20896780.84449
  20273581.547 6   -344332.195 6   -231747.43848  20273579.14148
  23238715.461 5   -160456.672 5   -107095.86346  23238714.71146
  22647903.719 5    -92873.852 5    -67789.91049  22647903.79749
  24403837.766 4   -418567.164 4   -276315.78148  24403840.67648
 20  5 16  3 32 21.0000000  0  7G01G07G08G11G16G27G30               -0.000134539
  21751787.047 6   -503968.238 6   -340065.64149  21751788.97749
  21843044.039 6   -440862.391 6   -312833.69549  21843042.41449
  20896262.469 7   -184521.000 7   -125056.48449  20896263.16849
  20272610.500 6   -349433.105 6   -235722.16448  20272608.56348
  23238220.508 5   -163057.355 5   -109122.37946  23238219.46946
  22647620.633 5    -94360.523 5    -68948.35549  22647620.89849
  24402387.016 4   -426187.813 4   -282253.95348  24402390.62948
 20  5 16  3 32 22.0000000  0  7G01G07G08G11G16G27G30               -0.000137222
  21750386.984 6   -511326.422 6   -345799.28949  21750389.38349
  21841756.313 6   -447631.988 6   -318108.70749  21841754.41449
  20895745.031 7   -187239.879 7   -127175.08649  20895745.76649
  20271640.477 6   -354533.734 6   -239696.69548  20271637.73448
  23237725.914 5   -165658.172 5   -111148.98446  23237724.73846
  22647337.703 5    -95847.453 5    -70107.00449  22647337.84449
  24400937.711 4   -433808.676 4   -288192.29348  24400940.46548
 20  5 16  3 32 23.0000000  0  7G01G07G08G11G16G27G30               -0.000139898
  21748986.555 6   -518684.566 6   -351532.90649  21748989.00049
  21840467.828 6   -454401.465 6   -323383.62549  21840466.28149
  20895227.805 7   -189958.836 7   -129293.75849  20895228.50449
  20270669.531 6   -359634.098 6   -243671.00048  20270667.11348
  23237230.680 5   -168259.207 5   -113175.77346  23237229.74646
  22647054.656 5    -97334.637 5    -71265.84849  22647054.84449
  24399487.266 4   -441429.621 4   -294130.69148  24399490.38748
 20  5 16  3 32 24.0000000  0  7G01G07G08G11G16G27G30               -0.000142582
  21747586.563 6   -526042.605 6   -357266.44549  21747588.85549
  21839179.625 6   -461170.852 6   -328658.48049  21839177.80949
  20894710.609 7   -192677.848 7   -131412.46549  20894711.05949
  20269699.125 6   -364734.199 6   -247645.10948  20269696.84448
  23236735.977 5   -170860.391 5   -115202.66046  23236734.62946
  22646771.766 5    -98822.094 5    -72424.91049  22646771.85549
  24398037.797 4   -449050.738 4   -300069.22748  24398039.69948
 20  5 16  3 32 25.0000000  0  7G01G07G08G11G16G27G30               -0.000145258
  21746185.961 6   -533400.578 6   -362999.92649  21746188.38349
  21837891.336 6   -467940.109 6   -333933.22349  21837889.84049
  20894192.969 7   -195396.887 7   -133531.19549  20894194.03549
  20268728.852 6   -369834.008 6   -251618.98048  20268726.55948
  23236240.727 5   -173461.762 5   -117229.70346  23236239.34846
  22646488.891 5   -100309.801 5    -73584.15649  22646488.81349
  24396587.570 4   -456672.031 4   -306007.89848  24396589.51248
 20  5 16  3 32 26.0000000  0  7G01G07G08G11G16G27G30               -0.000147942
  21744785.734 6   -540758.496 6   -368733.36749  21744788.33249
  21836602.852 6   -474709.281 6   -339207.91049  21836601.39149
  20893675.516 7   -198116.035 7   -135650.01649  20893676.41449
  20267757.984 6   -374933.566 6   -255592.66048  20267755.41448
  23235745.953 5   -176063.355 5   -119256.90646  23235744.81346
  22646205.445 6   -101797.828 6    -74743.66849  22646205.73449
  24395136.703 4   -464293.516 4   -311946.71948  24395139.23448
 20  5 16  3 32 27.0000000  0  7G01G07G08G11G16G27G30               -0.000150620
  21743385.594 6   -548116.301 6   -374466.71949  21743387.84449
  21835315.359 6   -481478.328 6   -344482.48849  21835313.50449
  20893158.383 7   -200835.230 7   -137768.87549  20893158.90649
  20266787.883 6   -380032.824 6   -259566.11748  20266785.50448
  23235250.750 5   -178665.109 5   -121284.24246  23235249.42246
  22645922.328 5   -103286.105 5    -75903.35949  22645922.25449
  24393686.313 4   -471915.109 4   -317885.62148  24393689.30948
 20  5 16  3 32 28.0000000  0  7G01G07G08G11G16G27G30               -0.000153303
  21741985.906 6   -555474.055 6   -380200.03149  21741987.93849
  21834027.305 6   -488247.277 6   -349757.00449  21834025.32049
  20892640.453 7   -203554.523 7   -139887.79749  20892641.35949
  20265817.609 6   -385131.855 6   -263539.38748  20265814.98848
  23234755.195 5   -181267.059 5   -123311.74646  23234754.51246
  22645639.313 5   -104774.609 5    -77063.23049  22645639.04749
  24392236.742 4   -479536.848 4   -323824.63748  24392238.84848
 20  5 16  3 32 29.0000000  0  7G01G07G08G11G16G27G30               -0.000155981
  21740585.727 6   -562831.719 6   -385933.27749  21740587.69949
  21832738.734 6   -495016.098 6   -355031.40649  21832737.42649
  20892123.117 7   -206273.863 7   -142006.75849  20892123.74649
  20264847.305 6   -390230.543 6   -267512.38748  20264844.94148
  23234260.063 5   -183869.191 5   -125339.39146  23234259.17646
  22645355.844 6   -106263.453 6    -78223.37149  22645355.48449
  24390785.734 4   -487158.757 4   -329763.78348  24390788.11748
 20  5 16  3 32 30.0000000  0  7G01G07G08G11G16G27G30               -0.000158665
  21739185.563 6   -570189.262 6   -391666.42649  21739187.47749
  21831450.617 6   -501784.789 6   -360305.71149  21831449.37549
  20891605.867 7   -208993.281 7   -144125.79749  20891606.47749
  20263876.914 6   -395329.004 6   -271485.21548  20263874.53548
  23233765.422 5   -186471.484 5   -127367.15246  23233764.20746
  22645072.211 5   -107752.473 5    -79383.64549  22645072.59449
  24389335.148 4   -494780.832 4   -335703.06348  24389337.63748
 20  5 16  3 32 31.0000000  0  7G01G07G08G11G16G27G30               -0.000161343
  21737785.828 6   -577546.750 6   -397399.53149  21737787.82049
  21830162.445 6   -508553.375 6   -365579.94149  21830161.25049
  20891087.961 7   -211712.750 7   -146244.85949  20891088.77749
  20262906.828 6   -400427.172 6   -275457.81648  20262904.66848
  23233270.000 5   -189073.992 5   -129395.08646  23233269.44546
  22644788.680 5   -109241.801 5    -80544.16049  22644789.30149
  24387884.305 4   -502403.082 4   -341642.48448  24387887.17248
 20  5 16  3 32 32.0000000  0  7G01G07G08G11G16G27G30               -0.000164028
  21736385.219 6   -584904.051 6   -403132.49249  21736387.00049
  21828874.672 6   -515321.758 6   -370854.00849  21828873.04349
  20890570.609 7   -214432.172 7   -148363.89149  20890571.13749
  20261936.609 6   -405524.965 6   -279430.12548  20261934.54348
  23232775.008 5   -191676.543 5   -131423.05546  23232774.10546
  22644505.273 5   -110731.293 5    -81704.80549  22644505.81649
  24386433.852 4   -510025.332 4   -347581.90248  24386436.74248
 20  5 16  3 32 33.0000000  0  7G01G07G08G11G16G27G30               -0.000166706
  21734985.180 6   -592261.223 6   -408865.35949  21734987.15649
  21827586.891 6   -522089.957 6   -376127.92649  21827585.34049
  20890053.383 7   -217151.590 7   -150482.91849  20890053.83249
  20260966.797 6   -410622.430 6   -283402.17248  20260964.56648
  23232278.523 5   -194279.223 5   -133451.11346  23232278.39546
  22644221.750 6   -112220.965 6    -82865.58649  22644222.38749
  24384983.633 4   -517647.691 4   -353521.39548  24384986.14148
 20  5 16  3 32 34.0000000  0  7G01G07G08G11G16G27G30               -0.000169392
  21733584.977 6   -599618.375 6   -414598.20349  21733587.24249
  21826298.719 6   -528858.129 6   -381401.82849  21826297.24249
  20889535.820 7   -219871.148 7   -152602.05949  20889536.52049
  20259996.805 6   -415719.680 6   -287374.05548  20259994.75448
  23231783.422 5   -196882.145 5   -135479.36346  23231783.19946
  22643938.430 6   -113710.988 6    -84026.64549  22643938.72349
  24383533.000 4   -525270.297 4   -359461.08648  24383535.56348
 20  5 16  3 32 35.0000000  0  7G01G07G08G11G16G27G30               -0.000172070
  21732185.414 6   -606975.297 6   -420330.87549  21732187.39149
  21825010.820 6   -535626.027 6   -386675.51649  21825009.43049
  20889018.164 7   -222590.621 7   -154721.12549  20889019.04349
  20259026.742 6   -420816.512 6   -291345.60948  20259024.82048
  23231288.594 5   -199485.117 5   -137507.65646  23231288.07846
  22643654.750 6   -115201.141 6    -85187.80149  22643655.03149
  24382082.641 4   -532892.918 4   -365400.78548  24382085.09448
 20  5 16  3 32 36.0000000  0  7G01G07G08G11G16G27G30               -0.000174755
  21730785.406 6   -614332.168 6   -426063.50449  21730787.51649
  21823722.898 6   -542393.836 6   -391949.12949  21823721.35249
  20888500.797 7   -225310.180 7   -156840.26649  20888501.62549
  20258056.867 6   -425913.066 6   -295316.95748  20258054.95348
  23230792.609 5   -202088.301 5   -139536.10946  23230792.86346
  22643370.844 5   -116691.574 5    -86349.18049  22643371.44949
  24380631.719 4   -540515.648 4   -371340.58248  24380634.77348
 20  5 16  3 32 37.0000000  0  7G01G07G08G11G16G27G30               -0.000177435
  21729385.820 6   -621688.824 6   -431795.96149  21729387.51249
  21822434.961 6   -549161.387 6   -397222.55549  21822433.70349
  20887983.047 7   -228029.684 7   -158959.35249  20887984.02049
  20257087.453 6   -431009.273 6   -299288.02748  20257085.06348
  23230297.672 4   -204691.516 4   -141564.60547  23230297.03947
  22643087.375 6   -118182.133 6    -87510.66449  22643087.93449
  24379182.102 5   -548138.441 5   -377280.42248  24379184.10548
 20  5 16  3 32 38.0000000  0  7G01G07G08G11G16G27G30               -0.000180119
  21727985.539 6   -629045.313 6   -437528.28949  21727987.43449
  21821147.188 6   -555928.742 6   -402495.81649  21821145.70749
  20887465.750 7   -230749.148 7   -161078.41849  20887466.24649
  20256117.773 6   -436105.066 6   -303258.77048  20256115.52748
  23229802.297 4   -207294.855 4   -143593.19146  23229801.68046
  22642804.461 6   -119672.855 6    -88672.27349  22642804.32049
  24377731.297 4   -555761.344 4   -383220.34448  24377733.66048
 20  5 16  3 32 39.0000000  0  7G01G07G08G11G16G27G30               -0.000182800
  21726585.648 6   -636401.688 6   -443260.52749  21726587.93049
  21819859.266 6   -562695.965 6   -407768.98049  21819857.78949
  20886948.055 7   -233468.633 7   -163197.50049  20886949.12549
  20255148.102 6   -441200.582 6   -307229.29748  20255145.44148
  23229307.258 4   -209898.313 4   -145621.85246  23229306.31646
  22642520.219 5   -121163.797 5    -89834.04349  22642520.44549
  24376280.164 4   -563384.313 4   -389160.30148  24376283.43848
 20  5 16  3 32 40.0000000  0  7G01G07G08G11G16G27G30               -0.000185484
  21725185.875 6   -643757.926 6   -448992.66049  21725187.93849
  21818571.695 6   -569463.008 6   -413042.00449  21818570.71149
  20886430.797 7   -236188.125 7   -165316.59449  20886431.45349
  20254177.961 6   -446295.758 6   -311199.56348  20254176.21548
  23228811.852 5   -212501.918 5   -147650.64847  23228811.19947
  22642236.563 6   -122655.020 6    -90996.03549  22642236.53949
  24374829.789 4   -571007.402 4   -395100.36748  24374832.45748
 20  5 16  3 32 41.0000000  0  7G01G07G08G11G16G27G30               -0.000188164
  21723785.828 6   -651113.930 6   -454724.60949  21723788.07049
  21817283.602 6   -576229.824 6   -418314.85249  21817282.62549
  20885912.977 7   -238907.574 7   -167435.64549  20885914.20749
  20253208.664 6   -451390.543 6   -315169.52348  20253206.54748
  23228315.977 4   -215105.594 4   -149679.49646  23228315.47346
  22641952.625 5   -124146.332 5    -92158.09849  22641953.00049
  24373378.961 4   -578630.547 4   -401040.47748  24373382.05548
 20  5 16  3 32 42.0000000  0  7G01G07G08G11G16G27G30               -0.000190849
  21722386.297 6   -658469.859 6   -460456.49649  21722388.09449
  21815996.266 6   -582996.473 6   -423587.56649  21815995.23049
  20885395.695 7   -241627.055 7   -169554.71949  20885396.48049
  20252239.188 6   -456484.996 6   -319139.22748  20252236.97348
  23227820.281 4   -217709.422 4   -151708.44146  23227819.47346
  22641668.984 5   -125637.906 5    -93320.35949  22641668.67249
  24371928.648 4   -586253.762 4   -406980.64148  24371930.98848
 20  5 16  3 32 43.0000000  0  7G01G07G08G11G16G27G30               -0.000193531
  21720986.898 6   -665825.594 6   -466188.23449  21720988.49649
  21814709.094 6   -589762.938 6   -428860.14149  21814707.65249
  20884878.211 7   -244346.504 7   -171673.76249  20884878.90249
  20251270.008 6   -461579.109 6   -323108.67248  20251267.49248
  23227325.289 5   -220313.305 5   -153737.43846  23227324.32846
  22641385.156 6   -127129.633 6    -94482.73849  22641385.02349
  24370478.031 4   -593877.074 4   -412920.89148  24370480.20748
 20  5 16  3 32 44.0000000  0  7G01G07G08G11G16G27G30               -0.000196217
  21719586.656 6   -673181.207 6   -471919.88749  21719588.78949
  21813420.953 6   -596529.223 6   -434132.55949  21813420.18049
  20884360.930 7   -247065.965 7   -173792.82849  20884361.36749
  20250300.688 6   -466672.910 6   -327077.86748  20250298.27048
  23226829.953 4   -222917.348 4   -155766.57046  23226828.95746
  22641101.133 6   -128621.586 6    -95645.30149  22641101.33649
  24369027.242 4   -601500.523 4   -418861.25448  24369029.84048
 20  5 16  3 32 45.0000000  0  7G01G07G08G11G16G27G30               -0.000198896
  21718186.672 6   -680536.676 6   -477651.42249  21718189.00449
  21812133.539 6   -603295.316 6   -439404.83649  21812132.78149
  20883843.398 7   -249785.398 7   -175911.86349  20883843.84449
  20249331.648 6   -471766.348 6   -331046.77748  20249329.28548
  23226334.492 4   -225521.473 4   -157795.78146  23226333.30146
  22640817.266 5   -130113.727 5    -96808.01649  22640817.02749
  24367576.430 4   -609124.004 4   -424801.62948  24367578.85248
 20  5 16  3 32 46.0000000  0  7G01G07G08G11G16G27G30               -0.000201584
  21716787.750 6   -687892.004 6   -483382.84849  21716789.58649
  21810846.523 6   -610061.246 6   -444676.98049  21810845.59049
  20883325.828 7   -252504.879 7   -178030.93849  20883326.48849
  20248362.164 6   -476859.441 6   -335015.41848  20248359.55548
  23225838.672 5   -228125.797 5   -159825.12147  23225837.28947
  22640533.227 5   -131606.113 5    -97970.92249  22640533.41049
  24366125.125 4   -616747.570 4   -430742.06648  24366128.38748
 20  5 16  3 32 47.0000000  0  7G01G07G08G11G16G27G30               -0.000204264
  21715387.773 6   -695247.277 6   -489114.23049  21715390.05949
  21809558.680 6   -616827.098 6   -449949.07449  21809557.58249
  20882808.336 7   -255224.410 7   -180150.05549  20882809.16049
  20247392.938 6   -481952.293 6   -338983.87548  20247390.50048
  23225343.086 5   -230730.258 5   -161854.56647  23225342.15247
  22640248.898 5   -133098.746 5    -99134.01649  22640249.39849
  24364674.953 4   -624371.328 4   -436682.64848  24364677.62948
 20  5 16  3 32 48.0000000  0  7G01G07G08G11G16G27G30               -0.000206951
  21713988.227 6   -702602.332 6   -494845.43849  21713990.41849
  21808271.344 6   -623592.699 6   -455220.97349  21808270.09449
  20882290.711 7   -257943.941 7   -182269.17249  20882291.84049
  20246424.188 6   -487044.762 6   -342952.03148  20246421.69948
  23224847.883 5   -233334.824 5   -163884.10246  23224846.15246
  22639965.078 5   -134591.551 5   -100297.24649  22639965.31349
  24363224.297 4   -631995.168 4   -442623.30148  24363226.34048
 20  5 16  3 32 49.0000000  0  7G01G07G08G11G16G27G30               -0.000209631
  21712588.445 6   -709957.258 6   -500576.55549  21712590.56349
  21806983.828 6   -630358.152 6   -460492.76249  21806982.61349
  20881773.016 7   -260663.426 7   -184388.24649  20881773.60249
  20245454.742 6   -492136.891 6   -346919.92248  20245452.36348
  23224352.398 5   -235939.496 5   -165913.71547  23224350.69147
  22639680.938 5   -136084.527 5   -101460.59849  22639681.42649
  24361773.195 4   -639619.063 4   -448564.00448  24361775.85548
 20  5 16  3 32 50.0000000  0  7G01G07G08G11G16G27G30               -0.000212318
  21711189.094 6   -717312.043 6   -506307.55549  21711191.53149
  21805696.406 6   -637123.426 6   -465764.40649  21805695.37549
  20881255.930 7   -263382.934 7   -186507.34449  20881256.25849
  20244486.125 6   -497228.695 6   -350887.55948  20244483.53948
  23223856.906 5   -238544.324 5   -167943.44546  23223855.23046
  22639397.375 6   -137577.762 6   -102624.16049  22639397.55549
  24360322.992 4   -647243.082 4   -454504.78148  24360325.14548
 20  5 16  3 32 51.0000000  0  7G01G07G08G11G16G27G30               -0.000215000
  21709789.289 6   -724666.637 6   -512038.39849  21709791.32049
  21804409.297 6   -643888.453 6   -471035.85549  21804408.19549
  20880738.188 7   -266102.391 7   -188626.40249  20880738.19949
  20243517.133 6   -502320.109 6   -354854.89848  20243514.94548
  23223360.492 5   -241149.215 5   -169973.25046  23223359.08246
  22639112.836 6   -139071.148 6   -103787.83649  22639113.17249
  24358871.500 4   -654867.129 4   -460445.58248  24358874.18848
 20  5 16  3 32 52.0000000  0  7G01G07G08G11G16G27G30               -0.000217688
  21708389.992 6   -732021.090 6   -517769.13749  21708391.92249
  21803121.445 6   -650653.355 6   -476307.20349  21803121.47749
  20880220.508 7   -268821.871 7   -190745.47349  20880221.17649
  20242548.188 6   -507411.211 6   -358821.98848  20242545.94148
  23222865.422 5   -243754.203 5   -172003.12946  23222863.25446
  22638828.617 5   -140564.777 5   -104951.70349  22638829.16049
  24357420.250 4   -662491.273 4   -466386.47348  24357423.42248
 20  5 16  3 32 53.0000000  0  7G01G07G08G11G16G27G30               -0.000220369
  21706990.359 6   -739375.457 6   -523499.81349  21706992.69149
  21801834.625 6   -657418.086 6   -481578.42649  21801833.85249
  20879703.234 7   -271541.391 7   -192864.58649  20879703.69149
  20241579.914 6   -512502.016 6   -362788.85249  20241577.43049
  23222369.492 5   -246359.414 5   -174033.16047  23222368.34447
  22638544.539 5   -142058.594 5   -106115.70749  22638545.06349
  24355970.328 4   -670115.527 4   -472327.46148  24355972.98848
 20  5 16  3 32 54.0000000  0  7G01G07G08G11G16G27G30               -0.000223057
  21705590.773 6   -746729.742 6   -529230.42249  21705593.02049
  21800546.883 6   -664182.691 6   -486849.54349  21800545.81649
  20879185.555 7   -274260.969 7   -194983.73849  20879186.25849
  20240610.883 6   -517592.512 6   -366755.47749  20240608.64149
  23221874.094 5   -248964.777 5   -176063.29347  23221872.38347
  22638260.297 6   -143552.676 6   -107279.92649  22638259.94149
  24354518.922 4   -677739.949 4   -478268.59048  24354521.42248
 20  5 16  3 32 55.0000000  0  7G01G07G08G11G16G27G30               -0.000225739
  21704191.594 6   -754083.887 6   -534960.92649  21704193.83649
  21799260.141 6   -670947.129 6   -492120.53149  21799259.12549
  20878668.266 7   -276980.574 7   -197102.91049  20878668.71949
  20239642.242 6   -522682.715 6   -370721.85948  20239640.16848
  23221377.484 5   -251570.234 5   -178093.50847  23221376.64147
  22637975.547 6   -145046.980 6   -108444.33249  22637975.95349
  24353067.477 4   -685364.488 4   -484209.80148  24353070.80948
 20  5 16  3 32 56.0000000  0  7G01G07G08G11G16G27G30               -0.000228426
  21702792.195 6   -761437.781 6   -540691.23849  21702794.12549
  21797972.742 6   -677711.320 6   -497391.32849  21797971.91049
  20878150.641 7   -279700.082 7   -199222.00449  20878151.14549
  20238673.703 6   -527772.461 6   -374687.89548  20238671.47748
  23220881.734 5   -254175.762 5   -180123.78546  23220880.80546
  22637691.484 6   -146541.398 6   -109608.82449  22637691.73449
  24351616.570 3   -692989.023 3   -490151.00048  24351620.20348
 20  5 16  3 32 57.0000000  0  7G01G07G08G11G16G27G30               -0.000231108
  21701392.836 6   -768791.543 6   -546421.44149  21701394.93049
  21796685.727 6   -684475.352 6   -502662.00449  21796684.67649
  20877633.242 7   -282419.605 7   -201341.11749  20877633.76249
  20237705.227 6   -532861.910 6   -378653.69948  20237702.80548
  23220385.836 5   -256781.395 5   -182154.15246  23220385.30146
  22637406.859 6   -148036.039 6   -110773.48049  22637407.23449
  24350166.086 4   -700613.668 4   -496092.28148  24350169.03948
 20  5 16  3 32 58.0000000  0  7G01G07G08G11G16G27G30               -0.000233795
  21699993.352 6   -776145.094 6   -552151.48049  21699995.87949
  21795398.672 6   -691239.121 6   -507932.47349  21795397.46149
  20877115.766 7   -285139.082 7   -203460.19149  20877116.53149
  20236736.680 6   -537950.941 6   -382619.18048  20236734.51648
  23219890.133 5   -259387.113 5   -184184.59046  23219888.95346
  22637122.438 6   -149530.820 6   -111938.24649  22637122.42249
  24348714.805 3   -708238.270 3   -502033.53148  24348718.10248
 20  5 16  3 32 59.0000000  0  7G01G07G08G11G16G27G30               -0.000236479
  21698594.023 6   -783498.516 6   -557881.42249  21698596.12149
  21794111.570 6   -698002.723 6   -513202.82049  21794110.18849
  20876598.016 7   -287858.539 7   -205579.24249  20876598.95749
  20235768.492 6   -543039.656 6   -386584.41848  20235766.21148
  23219394.023 5   -261992.957 5   -186215.12146  23219393.13746
  22636837.633 5   -151025.824 5   -113103.18849  22636838.38749
  24347264.203 3   -715863.031 3   -507974.89148  24347266.63748
 20  5 16  3 33  0.0000000  0  7G01G07G08G11G16G27G30               -0.000239166
  21697194.953 6   -790851.676 6   -563611.15249  21697196.99249
  21792824.664 6   -704766.023 6   -518472.92649  21792823.58649
  20876081.000 7   -290577.875 7   -207698.19549  20876081.37149
  20234800.398 6   -548127.906 6   -390549.28148  20234797.81348
  23218898.242 5   -264598.785 5   -188245.64147  23218896.58647
  22636553.727 5   -152520.898 5   -114268.17249  22636553.80949
  24345813.617 3   -723487.770 3   -513916.22348  24345815.93448
 20  5 16  3 33  1.0000000  0  7G01G07G08G11G16G27G30               -0.000241850
  21695795.539 6   -798204.672 6   -569340.75849  21695798.03949
  21791537.914 6   -711529.160 6   -523742.90249  21791536.07449
  20875563.328 6   -293297.258 6   -209817.19149  20875563.91049
  20233832.336 6   -553215.824 6   -394513.89548  20233829.75448
  23218402.141 4   -267204.734 4   -190276.26646  23218400.94946
  22636269.094 5   -154016.207 5   -115433.34449  22636269.17249
  24344362.539 3   -731112.574 3   -519857.61348  24344365.01648
 20  5 16  3 33  2.0000000  0  7G01G07G08G11G16G27G30               -0.000244537
  21694396.313 6   -805557.473 6   -575070.20749  21694398.43449
  21790250.906 6   -718292.070 6   -529012.70749  21790249.36349
  20875046.117 7   -296016.574 7   -211936.13349  20875046.78549
  20232864.164 6   -558303.352 6   -398478.19948  20232861.75848
  23217906.320 5   -269810.762 5   -192306.93446  23217904.77346
  22635984.406 6   -155511.629 6   -116598.60549  22635984.93849
  24342912.039 4   -738737.418 4   -525799.04748  24342913.72348
 20  5 16  3 33  3.0000000  0  7G01G07G08G11G16G27G30               -0.000247221
  21692997.438 6   -812910.156 6   -580799.57449  21692999.87549
  21788963.453 6   -725054.816 6   -534282.37149  21788962.46949
  20874528.422 7   -298735.926 7   -214055.11749  20874529.00049
  20231896.250 6   -563390.559 6   -402442.26248  20231893.57848
  23217410.547 5   -272416.926 5   -194337.72346  23217409.32846
  22635700.109 6   -157007.293 6   -117764.06349  22635699.70749
  24341461.195 5   -746362.430 5   -531740.63348  24341462.96548
 20  5 16  3 33  4.0000000  0  7G01G07G08G11G16G27G30               -0.000249910
  21691598.125 6   -820262.578 6   -586528.73449  21691600.26649
  21787677.172 6   -731817.277 6   -539551.82049  21787675.88749
  20874010.828 7   -301455.152 7   -216174.00449  20874011.31649
  20230928.266 6   -568477.324 6   -406405.99249  20230925.77749
  23216914.742 5   -275023.109 5   -196368.51646  23216913.59446
  22635415.203 6   -158503.063 6   -118929.61349  22635415.36749
  24340010.906 5   -753987.359 5   -537682.13748  24340012.05548
 20  5 16  3 33  5.0000000  0  7G01G07G08G11G16G27G30               -0.000252594
  21690199.063 6   -827614.879 6   -592257.80549  21690201.12549
  21786390.211 6   -738579.574 6   -544821.14549  21786389.44149
  20873493.234 7   -304174.375 7   -218292.87549  20873494.32049
  20229960.273 6   -573563.785 6   -410369.48049  20229957.45349
  23216418.555 6   -277629.438 6   -198399.42646  23216417.44946
  22635130.352 6   -159999.035 6   -120095.31349  22635130.85549
  24338558.633 4   -761612.402 4   -543623.73848  24338560.59848
 20  5 16  3 33  6.0000000  0  7G01G07G08G11G16G27G30               -0.000255281
  21688800.484 6   -834966.914 6   -597986.65649  21688801.89849
  21785103.531 6   -745341.617 6   -550090.26649  21785101.85249
  20872975.984 7   -306893.551 7   -220411.71149  20872976.50849
  20228992.805 6   -578649.813 6   -414332.61348  20228989.56348
  23215922.695 6   -280235.809 6   -200430.37946  23215921.30146
  22634845.711 6   -161495.129 6   -121261.09849  22634846.38749
  24337107.258 3   -769237.430 3   -549565.29348  24337109.20348
 20  5 16  3 33  7.0000000  0  7G01G07G08G11G16G27G30               -0.000257965
  21687401.219 6   -842318.777 6   -603715.37949  21687403.25449
  21783817.102 6   -752103.414 6   -555359.19949  21783815.10949
  20872458.406 7   -309612.641 7   -222530.48449  20872459.49649
  20228024.984 6   -583735.461 6   -418295.44548  20228021.98448
  23215425.891 5   -282842.191 5   -202461.34846  23215425.73046
  22634560.141 6   -162991.371 6   -122427.01249  22634561.53549
  24335656.953 3   -776862.465 3   -555506.87948  24335658.33648
 20  5 16  3 33  8.0000000  0  7G01G07G08G11G16G27G30               -0.000260654
  21686001.820 6   -849670.422 6   -609443.92249  21686004.32049
  21782530.758 6   -758864.938 6   -560627.91449  21782528.54749
  20871940.859 7   -312331.656 7   -224649.20749  20871941.85949
  20227056.688 6   -588820.691 6   -422257.95748  20227054.48048
  23214930.125 5   -285448.652 5   -204492.37546  23214929.41846
  22634276.391 6   -164487.773 6   -123593.03949  22634276.79749
  24334206.469 3   -784487.559 3   -561448.52048  24334207.89848
 20  5 16  3 33  9.0000000  0  7G01G07G08G11G16G27G30               -0.000263338
  21684603.227 6   -857021.953 6   -615172.37949  21684604.95349
  21781244.188 6   -765626.355 6   -565896.55149  21781241.55149
  20871423.734 7   -315050.734 7   -226767.97749  20871424.30949
  20226089.406 6   -593905.586 6   -426220.20748  20226086.70748
  23214433.914 5   -288055.250 5   -206523.47746  23214433.57446
  22633991.273 6   -165984.395 6   -124759.23049  22633991.75449
  24332755.844 5   -792112.770 5   -567390.25448  24332756.59048
 20  5 16  3 33 10.0000000  0  7G01G07G08G11G16G27G30               -0.000266027
  21683204.023 6   -864373.234 6   -620900.64149  21683206.05149
  21779957.789 6   -772387.488 6   -571164.96549  21779955.39849
  20870906.555 7   -317769.734 7   -228886.67649  20870907.33649
  20225121.586 6   -598990.109 6   -430182.16448  20225119.47348
  23213938.156 5   -290661.910 5   -208554.62946  23213937.33246
  22633706.539 6   -167481.164 6   -125925.55549  22633707.06349
  24331304.602 4   -799738.016 4   -573332.02048  24331305.79748
 20  5 16  3 33 11.0000000  0  7G01G07G08G11G16G27G30               -0.000268711
  21681805.758 6   -871724.262 6   -626628.70749  21681807.71149
  21778671.063 6   -779148.332 6   -576433.16449  21778668.87149
  20870388.727 7   -320488.602 7   -231005.27349  20870389.62149
  20224154.313 6   -604074.133 6   -434143.74248  20224152.18448
  23213442.367 5   -293268.563 5   -210585.76646  23213441.40646
  22633422.102 6   -168977.965 6   -127091.89149  22633422.37549
  24329853.625 4   -807363.230 4   -579273.75048  24329854.53148
 20  5 16  3 33 12.0000000  0  7G01G07G08G11G16G27G30               -0.000271400
  21680406.375 6   -879075.180 6   -632356.69949  21680408.60249
  21777384.961 6   -785909.035 6   -581701.24649  21777382.18849
  20869871.461 7   -323207.559 7   -233123.94549  20869872.19149
  20223187.133 6   -609157.875 6   -438105.09848  20223185.02348
  23212946.570 4   -295875.387 4   -212617.04746  23212945.37146
  22633136.641 6   -170475.074 6   -128258.47749  22633137.41049
  24328403.164 5   -814988.559 5   -585215.56348  24328403.46548
 20  5 16  3 33 13.0000000  0  7G01G07G08G11G16G27G30               -0.000274086
  21679007.813 6   -886425.844 6   -638084.48449  21679009.52749
  21776098.180 6   -792669.457 6   -586969.09849  21776095.69149
  20869354.102 7   -325926.375 7   -235242.49649  20869355.30949
  20222219.570 6   -614241.176 6   -442066.11748  20222217.37148
  23212450.453 4   -298482.211 4   -214648.34046  23212448.66846
  22632851.766 6   -171972.250 6   -129425.10549  22632852.66449
  24326952.133 5   -822613.883 5   -591157.35948  24326952.36748
 20  5 16  3 33 14.0000000  0  7G01G07G08G11G16G27G30               -0.000276775
  21677608.609 6   -893776.313 6   -643812.11349  21677611.12149
  21774811.367 6   -799429.648 6   -592236.77349  21774808.98849
  20868836.852 7   -328645.160 7   -237361.03549  20868837.92249
  20221252.516 6   -619324.113 6   -446026.85548  20221250.43448
  23211954.289 4   -301089.129 4   -216679.71146  23211952.56646
  22632566.992 6   -173469.602 6   -130591.86749  22632568.04349
  24325500.203 5   -830239.234 5   -597099.17248  24325501.65248
 20  5 16  3 33 15.0000000  0  7G01G07G08G11G16G27G30               -0.000279459
  21676210.297 6   -901126.656 6   -649539.65649  21676212.18049
  21773525.461 6   -806189.637 6   -597504.29749  21773522.94949
  20868319.570 7   -331363.934 7   -239479.55549  20868320.50849
  20220285.164 6   -624406.684 6   -449987.30548  20220282.98448
  23211458.188 4   -303696.129 4   -218711.13346  23211457.16846
  22632282.227 6   -174967.125 6   -131758.76649  22632282.81649
  24324048.969 5   -837864.707 5   -603041.09448  24324050.35948
 20  5 16  3 33 16.0000000  0  7G01G07G08G11G16G27G30               -0.000282150
  21674811.633 6   -908476.715 6   -655266.97749  21674814.00049
  21772239.164 6   -812949.348 6   -602771.60549  21772236.59449
  20867802.063 7   -334082.590 7   -241597.98849  20867803.15249
  20219318.289 6   -629488.816 6   -453947.40648  20219316.09448
  23210962.438 5   -306303.152 5   -220742.58246  23210960.53946
  22631997.508 6   -176464.758 6   -132925.75449  22631997.23849
  24322597.867 4   -845490.094 4   -608982.96148  24322599.12148
 20  5 16  3 33 17.0000000  0  7G01G07G08G11G16G27G30               -0.000284834
  21673412.508 6   -915826.582 6   -660994.14549  21673415.03949
  21770952.938 6   -819708.793 6   -608038.69949  21770950.14149
  20867284.648 7   -336801.176 7   -243716.36749  20867285.91049
  20218351.406 6   -634570.563 6   -457907.20748  20218348.79348
  23210466.445 5   -308910.223 5   -222774.06646  23210464.66446
  22631712.117 6   -177962.496 6   -134092.82049  22631712.71949
  24321146.406 3   -853115.484 3   -614924.83248  24321148.53948
 20  5 16  3 33 18.0000000  0  7G01G07G08G11G16G27G30               -0.000287523
  21672014.367 6   -923176.246 6   -666721.16049  21672016.83649
  21769666.547 6   -826468.047 6   -613305.65249  21769664.21149
  20866767.234 7   -339519.754 7   -245834.74249  20866767.89849
  20217384.234 6   -639651.910 6   -461866.69948  20217381.87548
  23209970.578 5   -311517.387 5   -224805.62146  23209968.48046
  22631427.898 6   -179460.445 6   -135260.06349  22631427.85549
  24319694.727 3   -860740.996 3   -620866.79348  24319697.23848
 20  5 16  3 33 19.0000000  0  7G01G07G08G11G16G27G30               -0.000290209
  21670615.914 6   -930525.656 6   -672447.96949  21670618.20349
  21768380.391 6   -833227.000 6   -618572.37549  21768377.84449
  20866250.156 7   -342238.234 7   -247953.03949  20866250.93449
  20216417.172 6   -644732.828 6   -465825.84848  20216414.84048
  23209474.156 5   -314124.551 5   -226837.18446  23209472.21546
  22631141.992 6   -180958.477 6   -136427.36749  22631142.40649
  24318244.328 3   -868366.434 3   -626808.69548  24318246.19948
 20  5 16  3 33 20.0000000  0  7G01G07G08G11G16G27G30               -0.000292900
  21669217.359 6   -937874.891 6   -678174.64149  21669219.64549
  21767094.055 6   -839985.758 6   -623838.94549  21767091.82049
  20865732.828 7   -344956.699 7   -250071.32449  20865733.83249
  20215450.320 6   -649813.355 6   -469784.69948  20215448.21948
  23208977.813 5   -316731.813 5   -228868.81646  23208975.86346
  22630857.211 6   -182456.707 6   -137594.82049  22630857.47749
  24316793.039 3   -875991.992 3   -632750.68448  24316795.25048
 20  5 16  3 33 21.0000000  0  7G01G07G08G11G16G27G30               -0.000295586
  21667818.773 6   -945223.980 6   -683901.20749  21667820.99249
