     2.10           OBSERVATION DATA    GPS(GPS)            RINEX VERSION / TYPE
cnvtToRINEX 3.07.0  convertToRINEX OPR  19-May-20 12:31 UTC PGM / RUN BY / DATE 
----------------------------------------------------------- COMMENT             
GI02                                                        MARKER NAME         
GI02                                                        MARKER NUMBER       
GNSS Observer       Trimble                                 OBSERVER / AGENCY   
0220365401          5700                2.32                REC # / TYPE / VERS 
                    UNKNOWN EXT                             ANT # / TYPE        
 -3050428.7980  4927748.8967  2654390.4391                  APPROX POSITION XYZ 
        0.0000        0.0000        0.0000                  ANTENNA: DELTA H/E/N
     1     1     0                                          WAVELENGTH FACT L1/2
     4    C1    L1    L2    P2                              # / TYPES OF OBSERV 
  2020     5    16     1    50    0.0000000     GPS         TIME OF FIRST OBS   
  2020     5    16     3     8   40.0000000     GPS         TIME OF LAST OBS    
     0                                                      RCV CLOCK OFFS APPL 
    18                                                      LEAP SECONDS        
    10                                                      # OF SATELLITES     
   G01  2542  2542  2542  2542                              PRN / # OF OBS      
   G04  4721  4721  4721  4721                              PRN / # OF OBS      
   G07  3411  3411  3411  3411                              PRN / # OF OBS      
   G08  4721  4721  4721  4721                              PRN / # OF OBS      
   G09  4721  4721  4719  4719                              PRN / # OF OBS      
   G11  4721  4721  4721  4721                              PRN / # OF OBS      
   G16  4721  4721  4721  4721                              PRN / # OF OBS      
   G26  3946  3944  3946  3946                              PRN / # OF OBS      
   G27  4721  4721  4721  4721                              PRN / # OF OBS      
   G31  1614  1614  1611  1611                              PRN / # OF OBS      
CARRIER PHASE MEASUREMENTS: PHASE SHIFTS REMOVED            COMMENT             
                                                            END OF HEADER       
 20  5 16  1 50  0.0000000  0  7G04G08G09G11G16G27G31                0.000182985
  21556017.98416       -48.33616       -94.10057  21556015.47357
  20599776.51617    -19201.00017     -3620.80459  20599775.01659
  22941896.32015    -17281.49215                
  23095461.38315    -59802.76615    -27110.70357  23095457.95357
  21685414.14816      5132.08216      2342.06357  21685410.50857
  20252891.01617       692.35517       349.84859  20252888.98459
  23845305.18015     19156.30915                
 20  5 16  1 50  1.0000000  0  7G04G08G09G11G16G27G31                0.000182409
  21556011.414 6       -83.824 6      -121.74847  21556009.38747
  20599376.234 7    -21305.871 7     -5260.99549  20599374.69549
  22941528.508 5    -19212.293 5                
  23094652.992 5    -64050.609 5    -30420.70747  23094649.33647
  21685481.922 6      5487.895 6      2619.31647  21685478.31647
  20252898.789 7       735.707 7       383.61749  20252897.54349
  23845625.758 5     20842.957 5                
 20  5 16  1 50  2.0000000  0  7G04G08G09G11G16G27G31                0.000181833
  21556004.234 6      -120.574 6      -150.40647  21556002.00047
  20598975.141 7    -23412.004 7     -6902.10249  20598974.07449
  22941160.922 5    -21144.289 5      -340.59458  22941159.68058
  23093844.891 5    -68300.156 5    -33732.04747  23093840.67647
  21685549.328 6      5841.957 6      2895.20747  21685545.80547
  20252906.977 7       777.797 7       416.41449  20252905.46949
  23845946.430 5     22528.008 5                
 20  5 16  1 50  3.0000000  0  7G04G08G09G11G16G27G31                0.000181253
  21555996.734 6      -158.547 6      -179.98447  21555995.27347
  20598574.219 7    -25519.395 7     -8544.23849  20598573.43049
  22940793.453 5    -23077.590 5     -1847.05548  22940791.93848
  23093035.672 5    -72551.395 5    -37044.70347  23093031.76247
  21685616.789 6      6194.242 6      3169.71947  21685612.87947
  20252914.742 7       818.645 7       448.23849  20252912.88349
  23846267.008 5     24211.496 5       495.58657  23846264.47357
 20  5 16  1 50  4.0000000  0  7G04G08G09G11G16G27G31                0.000180674
  21555989.531 6      -197.758 6      -210.53147  21555987.28947
  20598173.016 6    -27628.031 6    -10187.34049  20598172.59849
  22940425.391 5    -25012.090 5     -3354.44948  22940423.87948
  23092226.008 6    -76804.238 6    -40358.61347  23092222.46147
  21685683.398 6      6544.793 6      3442.87547  21685679.40247
  20252922.500 7       858.242 7       479.09849  20252920.90249
  23846587.164 5     25893.449 5      1806.21947  23846585.05547
 20  5 16  1 50  5.0000000  0  7G04G08G09G11G16G27G31                0.000180094
  21555982.320 6      -238.191 6      -242.04347  21555979.78547
  20597771.563 7    -29737.957 7    -11831.43849  20597771.01649
  22940057.281 5    -26947.813 5     -4862.80948  22940055.36748
  23091416.359 5    -81058.805 5    -43673.86347  23091413.16847
  21685749.508 6      6893.531 6      3714.61747  21685745.62947
  20252929.789 7       896.582 7       508.96949  20252928.41049
  23846906.797 5     27573.824 5      3115.61347  23846904.78147
 20  5 16  1 50  6.0000000  0  7G04G08G09G11G16G27G31                0.000179512
  21555974.117 6      -279.816 6      -274.48447  21555971.63347
  20597369.891 6    -31849.012 6    -13476.41849  20597369.09449
  22939688.453 5    -28884.684 5     -6372.06348  22939686.97748
  23090605.961 6    -85314.938 6    -46990.33647  23090603.17247
  21685815.484 6      7240.621 6      3985.07447  21685811.94547
  20252936.289 7       933.762 7       537.94149  20252934.48449
  23847226.102 5     29252.742 5      4423.85547  23847223.71147
 20  5 16  1 50  7.0000000  0  7G04G08G09G11G16G27G31                0.000178928
  21555965.797 6      -322.512 6      -307.75847  21555963.52047
  20596968.023 6    -33961.188 6    -15122.26249  20596967.04749
  22939319.555 5    -30822.672 5     -7882.18448  22939318.03548
  23089796.023 6    -89572.594 6    -50307.98047  23089792.79347
  21685881.820 6      7586.113 6      4254.28947  21685877.35547
  20252943.508 7       969.828 7       566.04349  20252942.08649
  23847545.398 5     30930.242 5      5730.99647  23847542.98847
 20  5 16  1 50  8.0000000  0  7G04G08G09G11G16G27G31                0.000178347
  21555957.602 6      -366.285 6      -341.87147  21555955.50047
  20596565.594 6    -36074.438 6    -16768.95349  20596564.96949
  22938950.461 5    -32761.703 5     -9393.12148  22938949.50448
  23088985.586 6    -93831.773 6    -53626.81647  23088982.34847
  21685947.023 6      7929.957 6      4522.21947  21685943.11747
  20252950.211 7      1004.828 7       593.31649  20252948.57849
  23847864.211 5     32606.348 5      7037.04347  23847862.04347
 20  5 16  1 50  9.0000000  0  7G04G08G09G11G16G27G31                0.000177759
  21555948.758 6      -411.133 6      -376.82047  21555947.07847
  20596163.297 6    -38188.785 6    -18416.49249  20596163.06349
  22938581.484 5    -34701.816 5    -10904.90648  22938580.34448
  23088174.289 5    -98092.410 5    -56946.79747  23088171.83247
  21686012.203 6      8272.254 6      4788.94147  21686008.31647
  20252957.016 7      1038.723 7       619.72749  20252955.25449
  23848182.594 5     34281.066 5      8342.00847  23848180.52747
 20  5 16  1 50 10.0000000  0  7G04G08G09G11G16G27G31                0.000177174
  21555939.953 6      -456.926 6      -412.51247  21555938.52347
  20595760.656 6    -40304.074 6    -20064.77349  20595760.57449
  22938211.703 5    -36642.891 5    -12417.44948  22938210.77748
  23087363.641 5   -102354.465 5    -60267.88347  23087360.45747
  21686076.961 6      8613.055 6      5054.50847  21686072.75447
  20252962.992 7      1071.668 7       645.39849  20252961.34849
  23848501.414 5     35954.516 5      9645.98847  23848499.18847
 20  5 16  1 50 11.0000000  0  7G04G08G09G11G16G27G31                0.000176586
  21555931.531 6      -503.707 6      -448.96547  21555929.30947
  20595358.313 6    -42420.371 6    -21713.83249  20595357.69949
  22937842.242 5    -38584.953 5    -13930.75448  22937841.52048
  23086552.563 6   -106617.949 6    -63590.07847  23086549.02747
  21686141.164 6      8952.355 6      5318.89847  21686137.94547
  20252969.164 7      1103.613 7       670.29749  20252967.63349
  23848819.414 5     37626.648 5     10948.94947  23848817.37147
 20  5 16  1 50 12.0000000  0  7G04G08G09G11G16G27G31                0.000175999
  21555922.547 6      -551.316 6      -486.07047  21555920.25447
  20594955.008 6    -44537.500 6    -23363.55149  20594954.78949
  22937472.672 5    -40527.773 5    -15444.63748  22937471.90248
  23085741.625 5   -110882.633 5    -66913.21147  23085737.30547
  21686205.445 6      9290.316 6      5582.24247  21686201.96147
  20252974.977 7      1134.754 7       694.56349  20252973.30149
  23849137.195 5     39297.672 5     12251.03547  23849134.85547
 20  5 16  1 50 13.0000000  0  7G04G08G09G11G16G27G31                0.000175411
  21555913.094 6      -599.676 6      -523.76247  21555911.03547
  20594552.141 7    -46655.426 7    -25013.88349  20594551.72749
  22937102.891 5    -42471.410 5    -16959.15648  22937102.10948
  23084929.203 5   -115148.543 5    -70237.29347  23084925.71147
  21686270.023 6      9627.004 6      5844.58647  21686265.71947
  20252980.914 7      1165.090 7       718.19949  20252979.05549
  23849455.695 5     40967.602 5     13552.28547  23849453.18447
 20  5 16  1 50 14.0000000  0  7G04G08G09G11G16G27G31                0.000174822
  21555903.703 6      -648.738 6      -561.98447  21555901.32047
  20594149.445 6    -48774.035 6    -26664.75049  20594148.73849
  22936733.523 5    -44415.660 5    -18474.15248  22936732.23448
  23084117.266 6   -119415.551 6    -73562.23047  23084113.82847
  21686333.547 6      9962.473 6      6105.99647  21686329.77347
  20252986.352 7      1194.754 7       741.31649  20252984.27349
  23849773.531 5     42636.551 5     14852.76647  23849770.51247
 20  5 16  1 50 15.0000000  0  7G04G08G09G11G16G27G31                0.000174231
  21555894.203 6      -698.605 6      -600.82847  21555892.09847
  20593745.797 7    -50893.453 7    -28316.23849  20593745.28549
  22936362.773 5    -46360.714 5    -19989.76748  22936362.15248
  23083304.961 5   -123683.813 5    -76888.14547  23083301.74247
  21686397.063 6     10296.578 6      6366.33247  21686393.35247
  20252991.953 7      1223.570 7       763.76249  20252989.94549
  23850090.930 5     44304.352 5     16152.34446  23850088.29746
 20  5 16  1 50 16.0000000  0  7G04G08G09G11G16G27G31                0.000173639
  21555884.617 6      -749.137 6      -640.20747  21555882.52347
  20593342.414 7    -53013.547 7    -29968.25849  20593341.77049
  22935992.625 5    -48306.551 5    -21505.98048  22935991.43448
  23082492.805 5   -127953.188 5    -80214.93447  23082489.20747
  21686460.008 6     10629.520 6      6625.76247  21686456.29347
  20252997.422 7      1251.730 7       785.70349  20252995.66449
  23850407.773 5     45971.141 5     17451.13746  23850405.31646
 20  5 16  1 50 17.0000000  0  7G04G08G09G11G16G27G31                0.000173048
  21555874.813 6      -800.293 6      -680.06647  21555872.73447
  20592939.086 6    -55134.285 6    -31620.77749  20592938.32849
  22935622.070 5    -50252.883 5    -23022.60548  22935620.80548
  23081679.453 6   -132223.590 6    -83542.52047  23081676.45347
  21686523.656 6     10961.352 6      6884.32847  21686519.74647
  20253002.453 7      1279.258 7       807.15249  20253000.94149
  23850724.430 5     47637.004 5     18749.21947  23850721.94147
 20  5 16  1 50 18.0000000  0  7G04G08G09G11G16G27G31                0.000172455
  21555865.203 6      -851.879 6      -720.26247  21555863.21947
  20592535.539 6    -57255.473 6    -33273.65249  20592534.59849
  22935251.906 5    -52199.676 5    -24539.59848  22935250.41448
  23080866.688 6   -136494.867 6    -86870.78147  23080863.77347
  21686586.945 6     11292.203 6      7142.14147  21686582.79747
  20253007.539 7      1306.316 7       828.24249  20253006.14149
  23851040.773 5     49302.133 5     20046.72347  23851039.04747
 20  5 16  1 50 19.0000000  0  7G04G08G09G11G16G27G31                0.000171862
  21555855.172 6      -903.938 6      -760.83247  21555853.05547
  20592131.398 7    -59377.125 7    -34926.88349  20592130.87949
  22934881.438 5    -54146.973 5    -26056.98048  22934879.98448
  23080054.273 5   -140766.992 5    -90199.69947  23080050.87547
  21686649.773 6     11622.078 6      7399.18047  21686645.35247
  20253012.500 7      1332.910 7       848.96949  20253010.95349
  23851357.813 5     50966.473 5     21343.60946  23851355.82446
 20  5 16  1 50 20.0000000  0  7G04G08G09G11G16G27G31                0.000171268
  21555845.500 6      -956.375 6      -801.68847  21555843.37547
  20591727.367 6    -61499.230 6    -36580.47749  20591726.74649
  22934510.656 5    -56094.594 5    -27574.61348  22934509.20348
  23079241.242 5   -145039.988 5    -93529.31647  23079237.71947
  21686711.961 6     11951.051 6      7655.51247  21686708.00847
  20253017.789 7      1359.137 7       869.40249  20253016.16049
  23851674.445 6     52630.125 6     22639.96547  23851671.87547
 20  5 16  1 50 21.0000000  0  7G04G08G09G11G16G27G31                0.000170673
  21555835.234 6     -1009.133 6      -842.80547  21555833.19547
  20591323.453 6    -63621.672 6    -38234.32849  20591323.15649
  22934139.656 5    -58042.527 5    -29092.48848  22934138.28148
  23078427.664 5   -149313.699 5    -96859.48047  23078424.62147
  21686774.141 6     12279.152 6      7911.16847  21686770.74647
  20253022.695 7      1385.016 7       889.57049  20253020.95349
  23851991.320 6     54293.125 6     23935.81347  23851988.32047
 20  5 16  1 50 22.0000000  0  7G04G08G09G11G16G27G31                0.000170078
  21555824.578 6     -1062.277 6      -884.21547  21555823.01247
  20590919.914 6    -65744.508 6    -39888.48449  20590919.25849
  22933768.781 5    -59990.883 5    -30610.69148  22933767.92648
  23077614.531 5   -153588.234 5   -100190.28947  23077611.36347
  21686836.727 6     12606.332 6      8166.11747  21686832.66847
  20253027.734 7      1410.480 7       909.40649  20253025.34849
  23852307.508 6     55955.410 6     25231.08647  23852304.71947
 20  5 16  1 50 23.0000000  0  7G04G08G09G11G16G27G31                0.000169483
  21555814.875 6     -1115.805 6      -925.93447  21555812.65247
  20590515.859 7    -67867.711 7    -41542.92649  20590514.61349
  22933398.227 5    -61939.574 5    -32129.14848  22933397.47348
  23076800.531 5   -157863.590 5   -103521.73047  23076797.79347
  21686898.500 6     12932.645 6      8420.38747  21686895.02047
  20253032.195 7      1435.586 7       928.96549  20253030.49649
  23852623.930 5     57616.996 5     26525.82447  23852621.21947
 20  5 16  1 50 24.0000000  0  7G04G08G09G11G16G27G31                0.000168886
  21555804.703 6     -1169.426 6      -967.72347  21555802.52047
  20590111.461 7    -69991.039 7    -43197.46949  20590110.89849
  22933027.016 5    -63888.383 5    -33647.69548  22933026.32448
  23075987.117 5   -162139.422 5   -106853.54347  23075983.76247
  21686960.734 6     13258.344 6      8674.18047  21686957.09847
  20253037.438 7      1460.559 7       948.42249  20253035.45749
  23852939.039 6     59278.164 6     27820.25047  23852937.12947
 20  5 16  1 50 25.0000000  0  7G04G08G09G11G16G27G31                0.000168289
  21555794.164 6     -1223.211 6     -1009.62947  21555792.02047
  20589707.789 6    -72114.535 6    -44852.14849  20589707.27349
  22932656.180 5    -65837.340 5    -35166.36348  22932655.17648
  23075173.086 5   -166415.895 5   -110185.85947  23075169.97747
  21687022.727 6     13583.328 6      8927.41447  21687018.80547
  20253041.930 7      1485.352 7       967.74249  20253039.94949
  23853255.281 5     60938.852 5     29114.28547  23853253.37947
 20  5 16  1 50 26.0000000  0  7G04G08G09G11G16G27G31                0.000167694
  21555784.086 6     -1277.176 6     -1051.68047  21555782.23047
  20589303.563 6    -74238.238 6    -46506.97749  20589303.09849
  22932285.039 5    -67786.508 5    -36685.19148  22932284.42248
  23074359.563 6   -170692.965 6   -113518.64147  23074355.93847
  21687083.992 6     13907.625 6      9180.10947  21687080.52347
  20253046.563 7      1509.980 7       986.93849  20253044.75849
  23853571.500 5     62599.066 5     30407.94947  23853568.91047
 20  5 16  1 50 27.0000000  0  7G04G08G09G11G16G27G31                0.000167095
  21555773.594 6     -1331.227 6     -1093.79747  21555771.58647
  20588899.195 6    -76361.980 6    -48161.84049  20588898.47749
  22931914.844 5    -69735.668 5    -38204.01648  22931913.82448
  23073545.367 5   -174970.492 5   -116851.78147  23073541.82847
  21687145.820 6     14231.320 6      9432.34047  21687142.35247
  20253051.125 7      1534.500 7      1006.03949  20253049.50049
  23853887.445 5     64258.883 5     31701.29347  23853885.05147
 20  5 16  1 50 28.0000000  0  7G04G08G09G11G16G27G31                0.000166498
  21555763.703 6     -1385.434 6     -1136.03147  21555761.27747
  20588495.273 7    -78485.914 7    -49816.85549  20588494.16449
  22931543.305 5    -71685.016 5    -39722.98448  22931542.64848
  23072731.242 5   -179248.668 5   -120185.42647  23072727.76647
  21687207.344 6     14554.359 6      9684.05947  21687203.98447
  20253055.492 7      1558.863 7      1025.02349  20253053.96949
  23854203.219 5     65918.219 5     32994.28547  23854200.66847
 20  5 16  1 50 29.0000000  0  7G04G08G09G11G16G27G31                0.000165899
  21555752.898 6     -1439.602 6     -1178.23847  21555751.16847
  20588091.078 6    -80609.836 6    -51471.85949  20588090.44549
  22931173.008 5    -73634.336 5    -41241.93848  22931171.59848
  23071916.906 5   -183527.191 5   -123519.34847  23071913.61347
  21687268.078 6     14876.883 6      9935.37947  21687264.91447
  20253060.484 7      1583.238 7      1044.02049  20253058.66849
  23854518.734 5     67577.254 5     34287.03147  23854516.49647
 20  5 16  1 50 30.0000000  0  7G04G08G09G11G16G27G31                0.000165300
  21555742.680 6     -1493.789 6     -1220.46947  21555740.75447
  20587686.977 6    -82733.805 6    -53126.89849  20587686.31649
  22930801.703 5    -75583.664 5    -42760.89848  22930800.83648
  23071102.742 5   -187806.184 5   -126853.62947  23071099.40247
  21687329.828 6     15198.871 6     10186.28147  21687326.45747
  20253065.109 7      1607.563 7      1062.97349  20253063.00849
  23854834.969 5     69235.926 5     35579.50847  23854832.42647
 20  5 16  1 50 31.0000000  0  7G04G08G09G11G16G27G31                0.000164701
  21555732.484 6     -1547.922 6     -1262.64847  21555730.22347
  20587282.664 6    -84857.723 6    -54781.90249  20587282.04749
  22930430.961 5    -77532.906 5    -44279.78948  22930430.12548
  23070288.445 5   -192085.523 5   -130188.17647  23070285.31347
  21687390.781 6     15520.391 6     10436.81647  21687387.19147
  20253069.727 7      1631.992 7      1082.00849  20253067.57449
  23855150.242 5     70894.375 5     36871.80547  23855148.00047
 20  5 16  1 50 32.0000000  0  7G04G08G09G11G16G27G31                0.000164103
  21555722.219 6     -1601.918 6     -1304.73447  21555719.95747
  20586878.664 6    -86981.543 6    -56436.82849  20586878.09449
  22930059.648 5    -79482.035 5    -45798.59448  22930059.37148
  23069474.250 5   -196365.156 5   -133522.95747  23069470.63347
  21687452.508 6     15841.531 6     10687.05547  21687448.41047
  20253074.336 7      1656.496 7      1101.10249  20253072.52749
  23855465.500 5     72552.629 5     38163.94947  23855463.56347
 20  5 16  1 50 33.0000000  0  7G04G08G09G11G16G27G31                0.000163504
  21555712.047 6     -1655.855 6     -1346.75447  21555709.94547
  20586474.422 6    -89105.285 6    -58091.69149  20586473.97349
  22929688.914 5    -81431.098 5    -47317.34048  22929687.96548
  23068660.336 6   -200645.184 6   -136858.04347  23068656.45347
  21687513.617 6     16162.207 6     10936.92647  21687509.39547
  20253078.898 7      1681.070 7      1120.25049  20253077.63349
  23855780.891 5     74210.629 5     39455.89146  23855778.89546
 20  5 16  1 50 34.0000000  0  7G04G08G09G11G16G27G31                0.000162903
  21555701.508 6     -1709.738 6     -1388.74647  21555699.45747
  20586070.125 6    -91228.980 6    -59746.52049  20586069.55949
  22929317.656 5    -83380.100 5    -48836.04748  22929317.27348
  23067845.117 6   -204925.527 6   -140193.37547  23067842.10547
  21687574.234 6     16482.426 6     11186.45347  21687570.63747
  20253083.773 7      1705.664 7      1139.41849  20253082.28549
  23856096.250 5     75868.375 5     40747.62546  23856094.34446
 20  5 16  1 50 35.0000000  0  7G04G08G09G11G16G27G31                0.000162302
  21555691.625 6     -1763.512 6     -1430.65247  21555689.51247
  20585666.070 6    -93352.590 6    -61401.28149  20585665.75849
  22928947.047 5    -85328.965 5    -50354.64148  22928946.24248
  23067030.391 6   -209206.238 6   -143528.99647  23067027.42647
  21687634.898 6     16802.227 6     11435.64547  21687631.58247
  20253088.398 7      1730.371 7      1158.66049  20253086.68449
  23856411.977 5     77525.906 5     42039.19546  23856409.74246
 20  5 16  1 50 36.0000000  0  7G04G08G09G11G16G27G31                0.000161703
  21555681.391 6     -1817.070 6     -1472.38747  21555679.00847
  20585262.000 6    -95476.016 6    -63055.89849  20585261.66849
  22928575.977 5    -87277.609 5    -51873.06648  22928575.49648
  23066215.313 6   -213487.125 6   -146864.74647  23066212.70747
  21687696.023 6     17121.719 6     11684.59847  21687692.43847
  20253092.867 7      1755.277 7      1178.07049  20253091.53149
  23856727.336 5     79183.324 5     43330.68046  23856725.08646
 20  5 16  1 50 37.0000000  0  7G04G08G09G11G16G27G31                0.000161102
  21555671.195 6     -1870.531 6     -1514.05147  21555669.11347
  20584857.625 6    -97599.320 6    -64710.42249  20584857.39149
  22928205.406 5    -89226.191 5    -53391.44148  22928205.06348
  23065401.102 5   -217768.359 5   -150200.77047  23065398.02747
  21687756.352 6     17440.777 6     11933.21547  21687752.75047
  20253097.992 7      1780.293 7      1197.55949  20253096.43849
  23857043.070 5     80840.547 5     44622.01246  23857040.16846
 20  5 16  1 50 38.0000000  0  8G04G08G09G11G16G26G27G31             0.000160498
  21555661.469 6     -1923.723 6     -1555.49247  21555658.98447
  20584453.984 6    -99722.379 6    -66364.75049  20584453.42249
  22927835.141 5    -91174.406 5    -54909.53148  22927833.91448
  23064586.383 5   -222049.742 5   -153536.90647  23064583.53147
  21687816.961 6     17759.617 6     12181.65647  21687813.60247
  23152706.46915     29552.64115     14385.09857  23152707.16457
  20253102.578 7      1805.563 7      1217.25049  20253101.34449
  23857357.883 5     82497.723 5     45913.31346  23857355.48846
 20  5 16  1 50 39.0000000  0  8G04G08G09G11G16G26G27G31             0.000159897
  21555651.180 6     -1976.719 6     -1596.78547  21555648.94547
  20584050.180 6   -101845.215 6    -68018.90649  20584049.36349
  22927464.078 5    -93122.492 5    -56427.52348  22927463.08648
  23063771.773 5   -226331.332 5   -156873.21547  23063768.10247
  21687877.953 6     18078.152 6     12429.87547  21687874.05547
  23152855.148 5     30331.090 5     14991.68047  23152854.91847
  20253107.438 7      1831.027 7      1237.09049  20253105.86749
  23857673.172 5     84154.801 5     47204.53946  23857670.73446
 20  5 16  1 50 40.0000000  0  8G04G08G09G11G16G26G27G31             0.000159296
  21555641.133 6     -2029.488 6     -1637.89847  21555639.05147
  20583646.266 6   -103967.891 6    -69672.93849  20583645.56649
  22927093.727 5    -95070.305 5    -57945.29748  22927093.31348
  23062956.891 5   -230613.133 5   -160209.68047  23062953.91447
  21687938.328 6     18396.324 6     12677.80147  21687934.86747
  23153003.594 5     31109.176 5     15597.96947  23153002.95347
  20253112.289 7      1856.680 7      1257.07849  20253110.89549
  23857989.148 5     85811.703 5     48495.63346  23857986.21546
 20  5 16  1 50 41.0000000  0  8G04G08G09G11G16G26G27G31             0.000158695
  21555630.969 6     -2081.996 6     -1678.81347  21555628.56347
  20583242.016 6   -106090.285 6    -71326.75849  20583241.84849
  22926722.398 5    -97017.910 5    -59462.91448  22926722.44148
  23062141.844 5   -234895.121 5   -163546.30547  23062138.71547
  21687998.664 6     18714.285 6     12925.56347  21687995.62547
  23153151.469 5     31886.996 5     16204.05947  23153151.25047
  20253117.313 7      1882.582 7      1277.26649  20253115.91049
  23858304.766 5     87468.559 5     49786.68846  23858301.19546
 20  5 16  1 50 42.0000000  0  8G04G08G09G11G16G26G27G31             0.000158092
  21555621.398 6     -2134.234 6     -1719.52047  21555618.48847
  20582838.492 6   -108212.414 6    -72980.36349  20582837.68049
  22926351.914 5    -98965.195 5    -60980.27348  22926351.50048
  23061327.414 5   -239177.219 5   -166883.00447  23061323.88747
  21688059.422 6     19031.984 6     13173.12147  21688056.00847
  23153299.750 5     32664.488 5     16809.89547  23153299.14547
  20253122.266 7      1908.750 7      1297.65249  20253120.82449
  23858619.734 5     89125.395 5     51077.73846  23858616.76246
 20  5 16  1 50 43.0000000  0  8G04G08G09G11G16G26G27G31             0.000157490
  21555611.414 6     -2186.188 6     -1760.00447  21555608.76647
  20582434.664 6   -110334.281 6    -74633.76249  20582434.08249
  22925982.156 5   -100912.203 5    -62497.42248  22925981.37548
  23060512.578 5   -243459.516 5   -170219.84847  23060509.54747
  21688119.531 6     19349.449 6     13420.49247  21688116.51247
  23153446.938 5     33441.723 5     17415.52347  23153446.89147
  20253126.813 7      1935.188 7      1318.25849  20253125.58649
  23858934.422 5     90782.199 5     52368.76646  23858932.06346
 20  5 16  1 50 44.0000000  0  8G04G08G09G11G16G26G27G31             0.000156889
  21555601.719 6     -2237.883 6     -1800.29347  21555599.28547
  20582031.039 6   -112455.871 6    -76286.94949  20582030.57849
  22925611.531 5   -102858.879 5    -64014.30948  22925610.73848
  23059697.266 5   -247741.906 5   -173556.78147  23059694.16447
  21688179.922 6     19666.668 6     13667.66847  21688176.73847
  23153595.344 5     34218.641 5     18020.91447  23153594.53547
  20253132.375 7      1961.914 7      1339.09049  20253130.91449
  23859249.844 5     92438.945 5     53659.74246  23859247.52746
 20  5 16  1 50 45.0000000  0  8G04G08G09G11G16G26G27G31             0.000156286
  21555591.672 6     -2289.156 6     -1840.24647  21555589.23047
  20581627.383 6   -114577.094 6    -77939.84849  20581626.67249
  22925240.836 5   -104805.203 5    -65530.92648  22925240.26648
  23058882.344 5   -252024.301 5   -176893.71947  23058879.60547
  21688240.266 6     19983.801 6     13914.78547  21688237.10547
  23153743.375 5     34995.426 5     18626.20747  23153742.82847
  20253137.734 7      1989.008 7      1360.20349  20253135.90249
  23859564.438 5     94095.762 5     54950.77346  23859562.48846
 20  5 16  1 50 46.0000000  0  8G04G08G09G11G16G26G27G31             0.000155684
  21555581.766 6     -2340.059 6     -1879.91447  21555579.51247
  20581223.711 6   -116697.938 6    -79592.45349  20581222.96949
  22924870.391 5   -106751.105 5    -67047.21548  22924869.87948
  23058067.063 5   -256306.785 5   -180230.71547  23058064.68047
  21688300.867 6     20300.754 6     14161.76647  21688297.37547
  23153891.297 5     35772.008 5     19231.33647  23153890.13347
  20253143.039 7      2016.473 7      1381.60249  20253140.82849
  23859879.898 5     95752.707 5     56241.89546  23859877.81346
 20  5 16  1 50 47.0000000  0  8G04G08G09G11G16G26G27G31             0.000155081
  21555572.594 6     -2390.602 6     -1919.30147  21555570.37947
  20580820.008 7   -118818.434 7    -81244.79349  20580819.43449
  22924500.961 5   -108696.629 5    -68563.20748  22924499.90248
  23057252.445 5   -260589.316 5   -183567.75047  23057249.52747
  21688361.117 6     20617.531 6     14408.60247  21688357.13347
  23154038.570 5     36548.371 5     19836.28947  23154037.91447
  20253148.070 7      2044.305 7      1403.28549  20253146.22749
  23860195.570 5     97409.637 5     57532.99247  23860193.20347
 20  5 16  1 50 48.0000000  0  8G04G08G09G11G16G26G27G31             0.000154478
  21555562.914 6     -2440.844 6     -1958.44147  21555560.46147
  20580416.789 7   -120938.633 7    -82896.89549  20580416.48049
  22924130.234 5   -110641.906 5    -70079.00448  22924129.44548
  23056437.617 5   -264871.977 5   -186904.89147  23056434.61347
  21688421.375 6     20934.113 6     14655.28547  21688417.24647
  23154186.125 5     37324.480 5     20441.05547  23154185.93847
  20253153.461 7      2072.391 7      1425.16849  20253151.64849
  23860510.805 5     99066.598 5     58824.12546  23860508.37146
 20  5 16  1 50 49.0000000  0  8G04G08G09G11G16G26G27G31             0.000153875
  21555553.078 6     -2490.668 6     -1997.27047  21555550.82447
  20580013.156 6   -123058.445 6    -84548.69549  20580012.79349
  22923760.383 5   -112586.711 5    -71594.43848  22923759.32048
  23055622.703 5   -269154.648 5   -190242.02747  23055619.66047
  21688481.766 6     21250.590 6     14901.89147  21688477.86347
  23154333.453 5     38100.449 5     21045.71147  23154333.43447
  20253159.023 7      2100.898 7      1447.37949  20253157.32849
  23860827.195 5    100723.605 5     60115.28547  23860824.01647
 20  5 16  1 50 50.0000000  0  8G04G08G09G11G16G26G27G31             0.000153273
  21555543.320 6     -2540.090 6     -2035.77747  21555541.72747
  20579609.969 6   -125177.848 6    -86200.17249  20579609.59449
  22923389.922 5   -114531.113 5    -73109.56648  22923389.40248
  23054807.531 5   -273437.297 5   -193579.15647  23054804.45347
  21688541.664 6     21566.953 6     15148.40247  21688537.99247
  23154481.344 5     38876.227 5     21650.21147  23154481.23447
  20253164.219 7      2129.813 7      1469.91449  20253162.73849
  23861141.891 5    102380.781 5     61406.58647  23861139.36747
 20  5 16  1 50 51.0000000  0  8G04G08G09G11G16G26G27G31             0.000152670
  21555534.398 6     -2589.102 6     -2073.96947  21555531.91447
  20579206.477 6   -127296.906 6    -87851.38749  20579206.39849
  22923019.820 5   -116475.129 5    -74624.37548  22923019.54348
  23053992.188 5   -277720.008 5   -196916.32847  23053989.70747
  21688601.844 6     21883.164 6     15394.80547  21688598.37147
  23154628.758 5     39651.801 5     22254.54347  23154628.75047
  20253169.922 7      2159.098 7      1492.73449  20253168.44149
  23861457.906 5    104037.945 5     62697.87547  23861454.53147
 20  5 16  1 50 52.0000000  0  8G04G08G09G11G16G26G27G31             0.000152067
  21555525.391 6     -2637.734 6     -2111.86747  21555522.80147
  20578803.453 7   -129415.539 7    -89502.27349  20578802.96949
  22922650.188 5   -118418.688 5    -76138.83648  22922649.59848
  23053177.211 5   -282002.746 5   -200253.52747  23053174.36347
  21688661.688 6     22199.281 6     15641.12547  21688658.21147
  23154776.320 5     40427.262 5     22858.79347  23154776.35947
  20253175.289 7      2188.773 7      1515.85949  20253173.80549
  23861773.039 5    105695.215 5     63989.25847  23861769.80147
 20  5 16  1 50 53.0000000  0  8G04G08G09G11G16G26G27G31             0.000151464
  21555516.125 6     -2686.012 6     -2149.49647  21555513.84847
  20578399.961 6   -131533.852 6    -91152.90649  20578400.08249
  22922280.516 5   -120361.934 5    -77653.05148  22922280.15648
  23052362.742 5   -286285.551 5   -203590.77747  23052359.40647
  21688722.070 6     22515.219 6     15887.31347  21688718.37947
  23154924.070 5     41202.488 5     23462.86347  23154923.80147
  20253181.430 7      2218.773 7      1539.23849  20253179.62949
  23862088.422 5    107352.559 5     65280.68847  23862085.43447
 20  5 16  1 50 54.0000000  0  8G04G08G09G11G16G26G27G31             0.000150860
  21555506.703 6     -2733.840 6     -2186.76247  21555505.12947
  20577997.547 6   -133651.727 6    -92803.19549  20577996.86749
  22921910.789 5   -122304.703 5    -79166.90248  22921910.43448
  23051547.680 5   -290568.316 5   -206928.00047  23051544.44547
  21688782.133 6     22831.094 6     16133.44547  21688778.53147
  23155071.016 5     41977.613 5     24066.85947  23155071.39547
  20253186.594 7      2249.254 7      1562.98449  20253185.62549
  23862404.180 5    109009.984 5     66572.18447  23862401.04347
 20  5 16  1 50 55.0000000  0  8G04G08G09G11G16G26G27G31             0.000150257
  21555497.727 6     -2781.176 6     -2223.64847  21555495.50047
  20577594.281 6   -135769.109 6    -94453.10549  20577594.20749
  22921541.031 5   -124246.973 5    -80680.35948  22921540.80548
  23050732.703 5   -294851.031 5   -210265.17647  23050729.87147
  21688842.047 6     23146.910 6     16379.54747  21688838.68447
  23155219.070 5     42752.660 5     24670.79747  23155218.68047
  20253192.875 7      2280.164 7      1587.07049  20253191.28549
  23862719.078 5    110667.566 5     67863.81347  23862715.83247
 20  5 16  1 50 56.0000000  0  8G04G08G09G11G16G26G27G31             0.000149654
  21555488.914 6     -2828.043 6     -2260.16447  21555486.69147
  20577191.438 6   -137886.066 6    -96102.68049  20577191.07849
  22921171.523 5   -126188.785 5    -82193.46548  22921171.08248
  23049917.898 5   -299133.684 5   -213602.30947  23049915.09047
  21688902.617 6     23462.703 6     16625.60947  21688898.76247
  23155366.453 5     43527.582 5     25274.63347  23155366.11347
  20253198.852 7      2311.555 7      1611.52749  20253197.13349
  23863034.031 5    112325.359 5     69155.60246  23863031.86746
 20  5 16  1 50 57.0000000  0  8G04G08G09G11G16G26G27G31             0.000149050
  21555480.180 6     -2874.426 6     -2296.31347  21555477.71147
  20576788.867 6   -140002.508 6    -97751.85249  20576788.71949
  22920802.609 5   -128130.070 5    -83706.15248  22920801.85948
  23049102.953 5   -303416.285 5   -216939.40247  23049099.78547
  21688962.375 6     23778.461 6     16871.65647  21688958.95347
  23155513.781 5     44302.465 5     25878.43447  23155513.99647
  20253205.438 7      2343.418 7      1636.35949  20253203.59449
  23863350.406 5    113983.316 5     70447.52047  23863347.37547
 20  5 16  1 50 58.0000000  0  8G04G08G09G11G16G26G27G31             0.000148447
  21555471.430 6     -2920.359 6     -2332.10547  21555469.38747
  20576386.242 6   -142118.488 6    -99400.66849  20576385.43449
  22920433.117 5   -130070.941 5    -85218.52348  22920432.36748
  23048288.086 5   -307698.840 5   -220276.46147  23048284.61347
  21689022.109 6     24094.148 6     17117.64847  21689018.89547
  23155661.336 5     45077.203 5     26482.10547  23155661.34447
  20253211.148 7      2375.746 7      1661.54349  20253209.77749
  23863665.469 5    115641.406 5     71739.55147  23863662.69947
 20  5 16  1 50 59.0000000  0  8G04G08G09G11G16G26G27G31             0.000147842
  21555462.195 6     -2965.949 6     -2367.62547  21555460.44547
  20575983.453 7   -144234.180 7   -101049.25849  20575983.24649
  22920063.375 5   -132011.395 5    -86730.56648  22920063.03948
  23047473.063 5   -311981.500 5   -223613.59847  23047469.97747
  21689082.609 6     24409.641 6     17363.48047  21689078.96147
  23155808.273 5     45851.711 5     27085.61347  23155808.71547
  20253217.328 7      2408.387 7      1686.97749  20253215.76649
  23863980.930 5    117299.520 5     73031.57047  23863978.21947
 20  5 16  1 51  0.0000000  0  8G04G08G09G11G16G26G27G31             0.000147240
  21555453.883 6     -3011.195 6     -2402.89147  21555451.79347
  20575580.883 6   -146349.535 6   -102697.59049  20575580.46149
  22919694.672 5   -133951.535 5    -88242.37148  22919693.91048
  23046657.938 5   -316264.219 5   -226950.78147  23046654.88747
  21689142.898 6     24724.957 6     17609.17647  21689139.20347
  23155956.102 5     46625.992 5     27688.94147  23155956.03547
  20253223.688 7      2441.332 7      1712.65249  20253222.29749
  23864296.414 5    118957.668 5     74323.63347  23864293.49247
 20  5 16  1 51  1.0000000  0  8G04G08G09G11G16G26G27G31             0.000146635
  21555445.234 6     -3056.059 6     -2437.85247  21555443.41047
  20575178.547 6   -148464.520 6   -104345.62949  20575178.09049
  22919325.328 5   -135891.277 5    -89753.85548  22919324.72748
  23045843.484 5   -320546.984 5   -230288.00447  23045839.82047
  21689202.586 6     25040.148 6     17854.79347  21689198.86347
  23156102.898 5     47400.102 5     28292.14547  23156103.18447
  20253230.070 7      2474.707 7      1738.66049  20253228.25849
  23864611.797 5    120615.895 5     75615.75447  23864609.29347
 20  5 16  1 51  2.0000000  0  8G04G08G09G11G16G26G27G31             0.000146030
  21555437.461 6     -3100.551 6     -2472.52047  21555435.10547
  20574776.227 6   -150579.129 6   -105993.37949  20574775.75849
  22918956.789 5   -137830.648 5    -91265.05948  22918955.68448
  23045028.219 5   -324829.766 5   -233625.24247  23045024.49647
  21689262.969 6     25355.215 6     18100.29747  21689258.78547
  23156250.742 5     48174.008 5     28895.19147  23156250.87147
  20253236.070 7      2508.414 7      1764.92249  20253234.35249
  23864927.516 5    122274.148 5     76907.89546  23864924.66046
 20  5 16  1 51  3.0000000  0  8G04G08G09G11G16G26G27G31             0.000145426
  21555428.797 6     -3144.410 6     -2506.69147  21555426.46147
  20574374.125 6   -152693.105 6   -107640.62949  20574373.49249
  22918587.555 5   -139769.355 5    -92775.73048  22918586.50048
  23044213.031 5   -329112.375 5   -236962.33247  23044210.23447
  21689322.641 6     25670.375 6     18345.87947  21689318.97747
  23156398.203 5     48948.008 5     29498.30947  23156397.63747
  20253242.734 7      2542.746 7      1791.67649  20253241.17649
  23865243.938 5    123932.746 5     78200.30546  23865240.31646
 20  5 16  1 51  4.0000000  0  8G04G08G09G11G16G26G27G31             0.000144823
  21555420.703 6     -3187.813 6     -2540.52047  21555418.68047
  20573971.742 6   -154806.676 6   -109287.56649  20573971.10249
  22918218.648 5   -141707.642 5    -94286.08148  22918218.39148
  23043397.992 5   -333394.957 5   -240299.40247  23043395.35547
  21689382.188 6     25985.445 6     18591.37947  21689379.09447
  23156545.258 5     49721.855 5     30101.31347  23156545.05947
  20253249.266 7      2577.508 7      1818.76649  20253247.42249
  23865559.055 5    125591.473 5     79492.81347  23865555.85547
 20  5 16  1 51  5.0000000  0  8G04G08G09G11G16G26G27G31             0.000144218
  21555412.336 6     -3230.848 6     -2574.05147  21555410.13347
  20573569.680 6   -156919.863 6   -110934.20349  20573569.06349
  22917849.797 5   -143645.523 5    -95796.12148  22917849.25448
  23042583.297 5   -337677.563 5   -243636.49247  23042580.27747
  21689442.617 6     26300.375 6     18836.77747  21689438.84847
  23156692.211 5     50495.512 5     30704.16047  23156692.39847
  20253255.992 7      2612.645 7      1846.14549  20253254.39149
  23865874.688 5    127250.262 5     80785.36347  23865871.84047
 20  5 16  1 51  6.0000000  0  8G04G08G09G11G16G26G27G31             0.000143614
  21555404.867 6     -3273.313 6     -2607.14147  21555402.21947
  20573167.438 6   -159032.500 6   -112580.41049  20573167.02749
  22917481.109 5   -145582.832 5    -97305.71148  22917480.86348
  23041768.211 5   -341960.016 5   -246973.47347  23041765.34047
  21689502.328 6     26615.383 6     19082.23047  21689498.81347
  23156839.867 5     51269.188 5     31307.02347  23156839.41447
  20253263.234 7      2648.301 7      1873.93049  20253261.23849
  23866190.141 5    128909.293 5     82078.11747  23866187.70347
 20  5 16  1 51  7.0000000  0  8G04G08G09G11G16G26G27G31             0.000143009
  21555396.031 6     -3315.379 6     -2639.91847  21555394.08247
  20572765.422 6   -161144.738 6   -114226.31349  20572765.25849
  22917112.773 5   -147519.688 5    -98814.94748  22917112.19548
  23040953.336 5   -346242.512 5   -250310.48047  23040950.39847
  21689561.984 6     26930.250 6     19327.58647  21689558.37547
  23156986.930 5     52042.699 5     31909.75847  23156986.90647
  20253269.898 7      2684.398 7      1902.05549  20253267.97749
  23866506.047 5    130568.418 5     83370.93847  23866503.13747
 20  5 16  1 51  8.0000000  0  8G04G08G09G11G16G26G27G31             0.000142405
  21555388.484 6     -3356.895 6     -2672.26647  21555386.22747
  20572363.438 6   -163256.465 6   -115871.81349  20572363.20749
  22916744.547 5   -149456.047 5   -100323.80148  22916743.23848
  23040138.148 5   -350524.875 5   -253647.38747  23040135.20747
  21689622.008 6     27245.137 6     19572.96147  21689618.48047
  23157133.758 5     52816.160 5     32512.45347  23157133.85547
  20253277.008 7      2720.988 7      1930.56649  20253274.50849
  23866822.086 5    132227.727 5     84663.91047  23866819.13747
 20  5 16  1 51  9.0000000  0  8G04G08G09G11G16G26G27G31             0.000141800
  21555380.789 6     -3397.816 6     -2704.15647  21555378.50047
  20571962.039 6   -165367.566 6   -117516.83649  20571961.87149
  22916375.711 5   -151391.758 5   -101832.15248  22916375.48048
  23039323.469 5   -354807.027 5   -256984.13747  23039320.91047
  21689682.156 6     27560.105 6     19818.39847  21689678.33247
  23157281.258 5     53589.703 5     33115.21147  23157281.56347
  20253284.047 7      2758.199 7      1959.56349  20253282.20749
  23867137.750 5    133887.359 5     85957.13747  23867134.90247
 20  5 16  1 51 10.0000000  0  8G04G08G09G11G16G26G27G31             0.000141195
  21555372.766 6     -3438.215 6     -2735.63747  21555370.30947
  20571560.477 6   -167478.191 6   -119161.46949  20571559.83649
  22916007.172 5   -153326.930 5   -103340.07848  22916006.97348
  23038509.008 5   -359089.105 5   -260320.81647  23038506.17247
  21689742.203 6     27875.098 6     20063.85547  21689737.89847
  23157428.500 4     54363.176 4     33717.92647  23157428.30547
  20253290.984 7      2795.906 7      1988.94549  20253289.37149
  23867453.828 5    135547.230 5     87250.53547  23867450.99247
 20  5 16  1 51 11.0000000  0  8G04G08G09G11G16G26G27G31             0.000140593
  21555365.484 6     -3478.160 6     -2766.77047  21555362.93847
  20571158.625 6   -169588.363 6   -120805.75449  20571158.03149
  22915639.789 5   -155261.695 5   -104847.69148  22915638.88748
  23037693.781 5   -363371.172 5   -263657.47747  23037691.05947
  21689801.859 6     28189.992 6     20309.22747  21689798.47347
  23157576.039 5     55136.559 5     34320.54746  23157575.32846
  20253298.320 7      2834.059 7      2018.67249  20253296.37949
  23867769.477 5    137207.180 5     88543.99647  23867766.94547
 20  5 16  1 51 12.0000000  0  8G04G08G09G11G16G26G27G31             0.000139988
  21555357.500 6     -3517.383 6     -2797.33247  21555355.53547
  20570757.469 6   -171697.824 6   -122449.48049  20570756.85249
  22915271.500 5   -157195.703 5   -106354.72348  22915270.65248
  23036879.156 5   -367652.867 5   -266993.85247  23036876.34447
  21689861.953 6     28505.090 6     20554.75447  21689858.41047
  23157722.953 4     55910.063 4     34923.28946  23157722.94946
  20253305.703 7      2872.895 7      2048.93849  20253303.93049
  23868085.492 6    138867.539 6     89837.77747  23868082.66447
 20  5 16  1 51 13.0000000  0  8G04G08G09G11G16G26G27G31             0.000139383
  21555350.383 6     -3556.203 6     -2827.57847  21555347.75047
  20570356.164 6   -173806.848 6   -124092.87949  20570355.30949
  22914903.766 5   -159129.270 5   -107861.39848  22914902.88748
  23036064.461 5   -371934.598 5   -270330.27347  23036061.42247
  21689921.977 6     28820.109 6     20800.21147  21689918.08647
  23157870.414 4     56683.468 4     35525.94346  23157870.03146
  20253313.313 7      2912.172 7      2079.54349  20253311.60549
  23868401.156 5    140528.020 5     91131.65247  23868398.72347
 20  5 16  1 51 14.0000000  0  8G04G08G09G11G16G26G27G31             0.000138779
  21555343.148 6     -3594.504 6     -2857.41447  21555340.68847
  20569954.789 7   -175915.387 7   -125735.91449  20569954.25849
  22914535.703 5   -161062.332 5   -109367.66448  22914534.98848
  23035249.813 6   -376216.250 6   -273666.64547  23035246.84447
  21689981.898 6     29135.086 6     21045.65647  21689978.29747
  23158017.055 4     57456.785 4     36128.53946  23158017.04746
  20253320.633 7      2951.918 7      2110.51649  20253318.89149
  23868717.117 5    142188.664 5     92425.66447  23868715.13747
 20  5 16  1 51 15.0000000  0  8G04G08G09G11G16G26G27G31             0.000138174
  21555336.148 6     -3632.281 6     -2886.84447  21555333.52347
  20569553.500 6   -178023.426 6   -127378.55149  20569553.15649
  22914168.055 5   -162994.863 5   -110873.50448  22914167.04348
  23034435.242 6   -380497.797 6   -277002.92247  23034432.19947
  21690041.320 6     29450.102 6     21291.12947  21690037.93047
  23158164.102 4     58230.051 4     36731.08646  23158164.44546
  20253328.906 7      2992.211 7      2141.91049  20253327.12549
  23869033.641 5    143849.559 5     93719.87147  23869031.00447
 20  5 16  1 51 16.0000000  0  8G04G08G09G11G16G26G27G31             0.000137569
  21555328.766 6     -3669.426 6     -2915.80147  21555326.65247
  20569152.570 7   -180130.852 7   -129020.71149  20569152.09449
  22913800.508 5   -164926.715 5   -112378.83248  22913799.33248
  23033620.609 5   -384779.137 5   -280339.02747  23033617.37947
  21690101.156 5     29765.258 5     21536.70346  21690098.25446
  23158311.453 3     59003.406 3     37333.69546  23158310.98446
  20253336.523 7      3033.090 7      2173.76249  20253334.30149
  23869348.844 5    145510.738 5     95014.28547  23869346.87547
 20  5 16  1 51 17.0000000  0  8G04G08G09G11G16G26G27G31             0.000136965
  21555321.867 6     -3706.090 6     -2944.39847  21555319.44547
  20568751.953 6   -182237.766 6   -130662.44149  20568751.43049
  22913432.766 5   -166858.129 5   -113883.84848  22913431.37548
  23032805.266 5   -389060.359 5   -283675.04347  23032802.85247
  21690161.906 4     30080.434 4     21782.28946  21690158.03546
  23158460.14811                     37936.27756  23158458.59856
  20253344.313 7      3074.477 7      2206.02749  20253342.45349
  23869665.641 6    147172.094 6     96308.83247  23869662.94147
 20  5 16  1 51 18.0000000  0  8G04G08G09G11G16G26G27G31             0.000136362
  21555315.156 6     -3742.277 6     -2972.62547  21555312.79347
  20568350.945 6   -184344.227 6   -132303.82849  20568350.18849
  22913065.422 5   -168789.043 5   -115388.47348  22913064.09448
  23031990.734 5   -393341.590 5   -287011.07047  23031987.89547
  21690221.500 5     30395.512 5     22027.77746  21690217.93046
  23158607.680 1     60549.750 1     38538.68446  23158605.75846
  20253352.297 7      3116.328 7      2238.64149  20253350.50049
  23869981.805 6    148833.637 6     97603.51647  23869979.50447
 20  5 16  1 51 19.0000000  0  8G04G08G09G11G16G26G27G31             0.000135756
  21555308.602 6     -3777.863 6     -3000.35947  21555306.02047
  20567950.070 6   -186450.090 6   -133944.76249  20567949.69149
  22912698.156 5   -170719.320 5   -116892.59848  22912696.93448
  23031176.234 5   -397622.602 5   -290346.91846  23031173.07846
  21690282.133 5     30710.613 5     22273.30946  21690277.73846
  23158755.375 1     61322.996 1     39141.19946  23158753.46146
  20253360.313 7      3158.766 7      2271.71149  20253358.72749
  23870297.852 6    150495.438 6     98898.42247  23870295.63347
 20  5 16  1 51 20.0000000  0  8G04G08G09G11G16G26G27G31             0.000135151
  21555302.398 6     -3812.914 6     -3027.68447  21555299.30147
  20567549.570 6   -188555.410 6   -135585.27049  20567548.79749
  22912330.289 5   -172649.078 5   -118396.31348  22912329.52748
  23030361.305 5   -401903.520 5   -293682.69546  23030358.62546
  21690342.023 4     31025.766 4     22518.87946  21690338.00846
  23158900.125 1     62096.129 1     39743.60246  23158900.34846
  20253368.547 7      3201.707 7      2305.17249  20253366.93449
  23870614.117 6    152157.473 6    100193.51647  23870611.95747
 20  5 16  1 51 21.0000000  0  8G04G08G09G11G16G26G27G31             0.000134546
  21555295.188 6     -3847.379 6     -3054.53147  21555292.69547
  20567149.086 6   -190660.215 6   -137225.37549  20567148.64149
  22911963.711 5   -174578.168 5   -119899.50048  22911962.68048
  23029546.250 5   -406184.320 5   -297018.37947  23029543.93047
  21690401.875 5     31340.922 5     22764.45346  21690397.87946
  23159047.031 1     62869.289 1     40346.04346  23159047.29346
  20253377.055 6      3245.176 6      2339.03949  20253375.18049
  23870930.852 6    153819.777 6    101488.82047  23870928.28147
 20  5 16  1 51 22.0000000  0  8G04G08G09G11G16G26G27G31             0.000133942
  21555288.555 6     -3881.430 6     -3081.04747  21555286.25447
  20566748.727 7   -192764.551 7   -138865.13749  20566748.05549
  22911596.664 5   -176506.887 5   -121402.40248  22911595.82048
  23028732.023 5   -410465.031 5   -300353.99647  23028729.59847
  21690461.523 5     31655.984 5     23009.96546  21690457.78946
  23159193.734 3     63642.301 3     40948.39846  23159194.56346
  20253385.109 7      3289.102 7      2373.25849  20253383.16049
  23871246.555 6    155482.164 6    102784.19947  23871244.36747
 20  5 16  1 51 23.0000000  0  8G04G08G09G11G16G26G27G31             0.000133337
  21555281.977 6     -3914.961 6     -3107.13747  21555280.07847
  20566348.227 6   -194868.410 6   -140504.52049  20566347.34849
  22911229.523 5   -178435.086 5   -122904.87148  22911228.62148
  23027917.383 5   -414745.664 5   -303689.55547  23027914.78947
  21690521.820 5     31971.066 5     23255.50846  21690517.94546
  23159341.258 4     64415.316 4     41550.75046  23159341.69946
  20253393.359 7      3333.527 7      2407.87549  20253391.13349
  23871563.406 6    157144.781 6    104079.75847  23871560.89547
 20  5 16  1 51 24.0000000  0  8G04G08G09G11G16G26G27G31             0.000132732
  21555275.820 6     -3947.926 6     -3132.79747  21555273.60547
  20565947.984 7   -196971.703 7   -142143.45349  20565947.14149
  22910863.133 5   -180362.715 5   -124406.88748  22910862.05948
  23027103.148 5   -419026.160 5   -307025.00847  23027100.22747
  21690581.305 5     32286.188 5     23501.07046  21690577.78946
  23159488.359 4     65188.320 4     42153.08646  23159488.91846
  20253402.086 7      3378.543 7      2442.94949  20253400.34049
  23871879.922 6    158807.621 6    105375.48447  23871877.46147
 20  5 16  1 51 25.0000000  0  8G04G08G09G11G16G26G27G31             0.000132126
  21555269.820 6     -3980.508 6     -3158.17647  21555267.46147
  20565547.719 6   -199074.676 6   -143782.12949  20565547.35249
  22910496.313 5   -182289.941 5   -125908.60548  22910495.37948
  23026288.938 6   -423306.758 6   -310360.54347  23026285.31347
  21690641.492 5     32601.176 5     23746.51246  21690637.79746
  23159636.102 4     65961.077 4     42755.24346  23159635.98446
  20253410.711 7      3423.863 7      2478.25849  20253408.94149
  23872195.742 6    160470.500 6    106671.23847  23872193.91047
 20  5 16  1 51 26.0000000  0  8G04G08G09G11G16G26G27G31             0.000131521
  21555263.547 6     -4012.617 6     -3183.21547  21555260.96147
  20565147.883 7   -201177.156 7   -145420.42249  20565147.40249
  22910129.367 5   -184216.652 5   -127409.94548  22910128.26648
  23025474.766 6   -427587.230 6   -313695.97347  23025471.25447
  21690701.125 4     32916.160 4     23991.96146  21690697.88346
  23159782.859 3     66733.852 3     43357.40246  23159782.53546
  20253419.695 7      3469.699 7      2513.98049  20253417.75849
  23872511.953 6    162133.539 6    107967.10547  23872510.14847
 20  5 16  1 51 27.0000000  0  8G04G08G09G11G16G26G27G31             0.000130917
  21555257.352 6     -4044.199 6     -3207.84447  21555255.52347
  20564747.852 7   -203279.117 7   -147058.31649  20564747.35949
  22909763.242 5   -186142.855 5   -128910.89848  22909761.94148
  23024659.820 6   -431867.578 6   -317031.30947  23024656.44547
  21690760.984 5     33231.133 5     24237.39846  21690757.87146
  23159929.398 3     67506.512 3     43959.48046  23159929.45746
  20253428.195 7      3516.047 7      2550.10249  20253426.33649
  23872828.797 6    163796.855 6    109263.19147  23872826.94547
 20  5 16  1 51 28.0000000  0  8G04G08G09G11G16G26G27G31             0.000130312
  21555251.648 6     -4075.270 6     -3232.06647  21555249.43447
  20564347.789 7   -205380.605 7   -148695.84449  20564346.91449
  22909396.766 5   -188068.523 5   -130411.41848  22909395.62548
  23023845.258 6   -436147.863 6   -320366.59447  23023842.18047
  21690820.805 5     33546.082 5     24482.81346  21690817.30146
  23160076.969 3     68279.160 3     44561.54746  23160076.64146
  20253437.219 7      3562.867 7      2586.57849  20253435.28949
  23873144.789 5    165460.309 5    110559.37547  23873143.20747
 20  5 16  1 51 29.0000000  0  8G04G08G09G11G16G26G27G31             0.000129705
  21555245.844 6     -4105.902 6     -3255.95347  21555243.25847
  20563948.000 7   -207481.633 7   -150332.99649  20563947.17249
  22909030.273 6   -189993.733 6   -131911.59548  22909029.10248
  23023030.227 5   -440428.090 5   -323701.82847  23023027.60247
  21690881.133 4     33861.132 4     24728.30746  21690877.39546
  23160222.563 1     69051.617 1     45163.46546  23160223.77046
  20253446.609 7      3610.191 7      2623.45749  20253444.52749
  23873461.984 6    167123.945 6    111855.70746  23873459.87946
 20  5 16  1 51 30.0000000  0  8G04G08G09G11G16G26G27G31             0.000129101
  21555240.547 6     -4135.902 6     -3279.35247  21555238.15247
  20563548.469 6   -209582.059 6   -151969.68449  20563547.53949
  22908664.492 6   -191918.313 6   -133411.27748  22908663.00848
  23022216.156 5   -444708.102 5   -327036.90646  23022213.56646
  21690941.547 5     34176.133 5     24973.74246  21690937.51246
  23160370.64811                     45765.50056  23160370.07856
  20253455.578 7      3658.047 7      2660.75449  20253453.42249
  23873779.023 6    168787.867 6    113152.26247  23873776.67247
 20  5 16  1 51 31.0000000  0  8G04G08G09G11G16G26G27G31             0.000128496
  21555234.813 6     -4165.410 6     -3302.34047  21555232.56347
  20563148.953 7   -211681.984 7   -153605.98049  20563148.26649
  22908297.977 5   -193842.406 5   -134910.58648  22908296.77748
  23021401.656 5   -448988.117 5   -330371.98847  23021398.74647
  21691000.969 6     34490.996 6     25219.07446  21690997.31646
  23160517.203 4     70596.594 4     46367.30946  23160517.50846
  20253464.141 7      3706.391 7      2698.42649  20253462.16049
  23874095.578 6    170451.953 6    114448.94947  23874093.43447
 20  5 16  1 51 32.0000000  0  8G04G08G09G11G16G26G27G31             0.000127890
  21555228.758 6     -4194.414 6     -3324.93047  21555227.17247
  20562749.633 7   -213781.359 7   -155241.85249  20562748.53149
  22907932.195 5   -195765.926 5   -136409.45748  22907931.19548
  23020587.195 5   -453267.949 5   -333706.91847  23020583.78147
  21691061.016 5     34805.996 5     25464.53146  21691057.14546
  23160664.680 3     71369.082 3     46969.23846  23160664.47746
  20253473.891 7      3755.266 7      2736.49649  20253472.00449
  23874412.273 6    172116.234 6    115745.79747  23874409.78947
 20  5 16  1 51 33.0000000  0  8G04G08G09G11G16G26G27G31             0.000127285
  21555223.680 6     -4222.891 6     -3347.10247  21555221.81647
  20562349.844 7   -215880.270 7   -156877.37549  20562349.11349
  22907565.984 5   -197688.934 5   -137907.91048  22907565.07848
  23019773.203 5   -457547.715 5   -337041.81347  23019770.00447
  21691120.695 5     35120.953 5     25709.96547  21691117.35247
  23160812.125 4     72141.465 4     47571.10546  23160811.69946
  20253483.313 7      3804.652 7      2774.97749  20253481.54349
  23874728.914 6    173780.734 6    117042.81347  23874727.01647
 20  5 16  1 51 34.0000000  0  8G04G08G09G11G16G26G27G31             0.000126680
  21555218.953 6     -4250.852 6     -3368.88347  21555216.25047
  20561950.406 7   -217978.699 7   -158512.52049  20561949.39549
  22907199.859 5   -199611.469 5   -139405.98448  22907199.46148
  23018957.914 5   -461827.383 5   -340376.61747  23018955.13347
  21691180.930 6     35435.941 6     25955.41047  21691177.46147
  23160958.367 4     72913.766 4     48172.91446  23160958.60246
  20253492.922 7      3854.504 7      2813.82449  20253490.91449
  23875045.453 6    175445.406 6    118339.96547  23875043.31647
 20  5 16  1 51 35.0000000  0  8G04G08G09G11G16G26G27G31             0.000126076
  21555213.406 6     -4278.211 6     -3390.18847  21555210.78547
  20561551.508 6   -220076.500 6   -160147.17249  20561550.75049
  22906833.859 5   -201533.344 5   -140903.51248  22906833.85548
  23018143.656 5   -466106.871 5   -343711.28947  23018140.62147
  21691240.563 5     35750.965 5     26200.88347  21691236.86747
  23161105.570 4     73686.109 4     48774.74246  23161105.76246
  20253502.797 7      3904.961 7      2853.14149  20253500.84449
  23875362.617 5    177110.359 5    119637.33247  23875360.36347
 20  5 16  1 51 36.0000000  0  8G04G08G09G11G16G26G27G31             0.000125469
  21555207.852 6     -4305.059 6     -3411.10247  21555205.81347
  20561152.305 7   -222173.781 7   -161781.41849  20561151.39849
  22906468.305 5   -203454.668 5   -142400.62548  22906467.87948
  23017329.313 5   -470386.246 5   -347045.87147  23017326.28947
  21691300.461 5     36066.066 5     26446.42247  21691296.76647
  23161251.938 5     74458.484 5     49376.60246  23161252.37546
  20253511.586 7      3955.938 7      2892.86349  20253510.13349
  23875678.992 5    178775.531 5    120934.85947  23875677.42247
 20  5 16  1 51 37.0000000  0  8G04G08G09G11G16G26G27G31             0.000124865
  21555202.914 6     -4331.313 6     -3431.59447  21555200.82047
  20560753.086 7   -224270.516 7   -163415.23449  20560752.14549
  22906103.016 5   -205375.414 5   -143897.33649  22906101.87949
  23016515.813 5   -474665.480 5   -350380.33247  23016512.12947
  21691361.141 5     36381.184 5     26691.96946  21691357.05946
  23161399.453 4     75230.832 4     49978.43446  23161399.31646
  20253521.727 7      4007.473 7      2933.02349  20253520.45749
  23875996.211 5    180440.957 5    122232.58247  23875994.22747
 20  5 16  1 51 38.0000000  0  8G04G08G09G11G16G26G27G31             0.000124260
  21555198.234 6     -4357.090 6     -3451.69547  21555196.01647
  20560354.242 7   -226366.703 7   -165048.62949  20560353.81649
  22905737.750 5   -207295.699 5   -145393.68448  22905736.42648
  23015701.078 6   -478944.605 6   -353714.71947  23015697.87947
  21691420.516 5     36696.230 5     26937.45746  21691417.05546
  23161546.906 5     76003.109 5     50580.19946  23161546.70346
  20253531.594 7      4059.504 7      2973.56649  20253530.19549
  23876312.828 5    182106.590 5    123530.46147  23876311.42647
 20  5 16  1 51 39.0000000  0  8G04G08G09G11G16G26G27G31             0.000123653
  21555193.461 6     -4382.289 6     -3471.31647  21555191.16447
  20559955.742 7   -228462.379 7   -166681.62549  20559954.94949
  22905372.039 5   -209215.383 5   -146889.52748  22905371.36348
  23014886.547 6   -483223.586 6   -357048.98447  23014883.86747
  21691480.547 5     37011.348 5     27183.00446  21691476.80146
  23161693.391 5     76775.363 5     51181.94546  23161693.37546
  20253541.711 7      4112.090 7      3014.54349  20253540.22349
  23876630.242 5    183772.461 5    124828.53947  23876628.40647
 20  5 16  1 51 40.0000000  0  8G04G08G09G11G16G26G27G31             0.000123049
