     2.10           OBSERVATION DATA    GPS(GPS)            RINEX VERSION / TYPE
cnvtToRINEX 2.50.0  convertToRINEX OPR  30-May-18 13:32 UTC PGM / RUN BY / DATE 
----------------------------------------------------------- COMMENT             
GE182                                                       MARKER NAME         
GE182                                                       MARKER NUMBER       
GNSS Observer       Trimble                                 OBSERVER / AGENCY   
0220327801          5700                2.32                REC # / TYPE / VERS 
                    TRM39105-00                             ANT # / TYPE
 -2967051.1422  5005393.1686  2603832.9973                  APPROX POSITION XYZ 
        1.4630        1.4213        1.4673                  ANTENNA: DELTA H/E/N
     1     1     0                                          WAVELENGTH FACT L1/2
     4    C1    L1    L2    P2                              # / TYPES OF OBSERV 
  2018     5    30     0    16   25.0000000     GPS         TIME OF FIRST OBS   
  2018     5    30     1    35   20.0000000     GPS         TIME OF LAST OBS    
     0                                                      RCV CLOCK OFFS APPL 
    17                                                      LEAP SECONDS        
    12                                                      # OF SATELLITES     
   G03   542   509   349   349                              PRN / # OF OBS      
   G08   438   437   412   412                              PRN / # OF OBS      
   G14   948   948   948   948                              PRN / # OF OBS      
   G16   948   948   948   948                              PRN / # OF OBS      
   G21   129   109     0     0                              PRN / # OF OBS      
   G22   854   851   854   854                              PRN / # OF OBS      
   G23   451   430   367   367                              PRN / # OF OBS      
   G26   922   912   840   840                              PRN / # OF OBS      
   G27   943   943   943   943                              PRN / # OF OBS      
   G29   250   245   123   123                              PRN / # OF OBS      
   G31   948   948   948   948                              PRN / # OF OBS      
   G32   666   656   518   518                              PRN / # OF OBS      
CARRIER PHASE MEASUREMENTS: PHASE SHIFTS REMOVED            COMMENT             
                                                            END OF HEADER       
 18  5 30  0 16 25.0000000  0  7G14G16G22G26G29G31G32                0.000070141
  20544731.10916     -6749.21516     -4319.59858  20544727.52358
  20761535.25816    -94991.69516    -58745.78958  20761531.18458
  23595615.43815    -11608.43415     -6265.02356  23595610.31356
  20605352.49217    -19667.80917    -12041.40258  20605352.22358
  23458937.15617     44604.54317     26315.39157  23458933.97757
  21601362.75016    -32070.26616    -19900.27056  21601358.40256
  22354527.99216     63400.24616     35002.60956  22354527.40256
 18  5 30  0 16 30.0000000  0  7G14G16G22G26G29G31G32                0.000066135
  20544558.766 6     -7658.461 6     -5028.10548  20544554.70348
  20759432.688 6   -106040.832 6    -67355.50848  20759428.89848
  23595327.430 5    -13117.840 5     -7441.20346  23595322.28546
  20604893.852 7    -22078.051 7    -13919.51648  20604893.20748
  23459890.508 7     49615.793 7     30220.24647  23459887.39547
  21600617.055 6    -35987.191 6    -22952.41446  21600613.02046
  22356086.219 6     71589.367 6     41383.74647  22356085.46547
 18  5 30  0 16 35.0000000  0  7G14G16G22G26G29G31G32                0.000062119
  20544384.695 6     -8573.113 6     -5740.82848  20544381.05148
  20757328.477 6   -117097.340 6    -75970.96548  20757324.77748
  23595038.609 4    -14638.465 4     -8626.09046  23595032.92646
  20604433.250 7    -24499.402 7    -15806.29348  20604432.59448
  23460842.484 7     54619.438 7     34119.19547  23460839.71147
  21599867.961 6    -39921.465 6    -26018.07446  21599864.14146
  22357642.461 5     79767.949 5     47756.65647  22357642.58247
 18  5 30  0 16 40.0000000  0  7G14G16G22G26G29G31G32                0.000058090
  20544210.523 7     -9490.027 7     -6455.30948  20544206.07048
  20755223.813 6   -128158.109 6    -84589.74648  20755219.85248
  23594746.813 4    -16167.125 4     -9817.28146  23594741.68046
  20603971.266 7    -26928.738 7    -17699.28548  20603969.89148
  23461793.602 7     59618.512 7     38014.56347  23461791.17247
  21599117.180 6    -43869.988 6    -29094.85946  21599112.74646
  22359197.273 5     87939.098 5     54123.77746  22359197.74246
 18  5 30  0 16 45.0000000  0  7G14G16G22G26G29G31G32                0.000054052
  20544035.250 7    -10407.629 7     -7170.31648  20544031.44948
  20753118.344 6   -139221.516 6    -93210.58248  20753114.49648
  23594454.484 5    -17702.316 5    -11013.53146  23594448.54746
  20603507.563 7    -29364.477 7    -19597.26648  20603506.71148
  23462744.938 7     64614.602 7     41907.60947  23462741.70347
  21598363.055 6    -47831.145 6    -32181.47346  21598358.55546
  22360750.609 5     96104.402 5     60486.34046  22360751.21546
 18  5 30  0 16 50.0000000  0  8G14G16G22G26G27G29G31G32             0.000050007
  20543861.156 6    -11324.789 6     -7884.99248  20543857.21148
  20751013.039 6   -150286.477 6   -101832.63748  20751008.72748
  23594161.766 5    -19242.797 5    -12213.92246  23594155.75046
  20603043.297 7    -31805.469 7    -21499.34048  20603042.31348
  23150089.80514   -140855.21914    -76848.99656  23150090.38356
  23463695.086 7     69608.922 7     45799.27047  23463692.24247
  21597606.859 6    -51803.793 6    -35277.05946  21597602.61346
  22362304.109 5    104264.973 5     66845.25046  22362304.16446
 18  5 30  0 16 55.0000000  0  8G14G16G22G26G27G29G31G32             0.000045950
  20543686.805 7    -12240.727 7     -8598.72348  20543683.02348
  20748907.273 6   -161352.184 6   -110455.26248  20748903.10548
  23593867.594 5    -20787.805 5    -13417.86746  23593861.84446
  20602577.469 7    -34250.953 7    -23404.92248  20602576.35248
  23145392.805 5   -165539.703 5    -96083.64146  23145393.11746
  23464645.430 7     74602.191 7     49690.14147  23464642.08247
  21596848.891 6    -55787.168 6    -38380.99246  21596844.37946
  22363856.727 5    112421.633 5     73201.06646  22363856.52046
 18  5 30  0 17  0.0000000  0  8G14G16G22G26G27G29G31G32             0.000041887
  20543513.250 7    -13154.855 7     -9311.02748  20543509.14848
  20746801.367 6   -172418.004 6   -119077.98448  20746797.34048
  23593572.461 4    -22336.891 4    -14624.96146  23593566.39146
  20602111.180 7    -36700.332 7    -25313.52348  20602110.74648
  23140693.453 5   -190233.902 5   -115325.85946  23140693.92246
  23465595.227 6     79595.008 6     53580.62147  23465592.85247
  21596089.258 6    -59780.684 6    -41492.82846  21596084.63746
  22365407.352 5    120574.902 5     79554.26246  22365407.60946
 18  5 30  0 17  5.0000000  0  8G14G16G22G26G27G29G31G32             0.000037817
  20543339.211 7    -14067.098 7    -10021.87148  20543335.59848
  20744695.828 6   -183483.906 6   -127700.76248  20744691.92648
  23593277.117 5    -23889.832 5    -15835.05146  23593270.96146
  20601644.297 7    -39153.551 7    -27225.12148  20601643.50848
  23135992.508 5   -214937.734 5   -134575.62147  23135992.89547
  23466545.672 6     84587.480 6     57470.85547  23466542.30947
  21595327.523 6    -63784.215 6    -44612.47746  21595322.73446
  22366958.602 5    128724.855 5     85904.87546  22366958.73046
 18  5 30  0 17 10.0000000  0  8G14G16G22G26G27G29G31G32             0.000033739
  20543166.102 7    -14977.410 7    -10731.20348  20543162.76648
  20742589.281 6   -194549.809 6   -136323.54348  20742586.32048
  23592981.680 5    -25446.727 5    -17048.26246  23592974.66846
  20601176.766 7    -41610.551 7    -29139.67248  20601175.85248
  23131289.266 5   -239651.152 5   -153832.80946  23131289.44546
  23467495.273 6     89579.602 6     61360.82447  23467492.88747
  21594563.016 6    -67797.707 6    -47739.87946  21594559.36746
  22368508.758 5    136871.629 5     92253.00447  22368508.93447
 18  5 30  0 17 15.0000000  0  8G14G16G22G26G27G29G31G32             0.000029652
  20542993.438 7    -15886.070 7    -11439.25448  20542990.00048
  20740483.711 6   -205616.031 6   -144946.56348  20740480.09848
  23592684.945 5    -27007.871 5    -18264.74246  23592678.49646
  20600709.000 7    -44071.637 7    -31057.41048  20600707.75848
  23126584.180 4   -264374.434 4   -173097.69146  23126585.18846
  23468445.445 6     94571.078 6     65250.27747  23468442.68047
  21593797.938 6    -71821.469 6    -50875.28946  21593793.71946
  22370058.422 5    145014.805 5     98598.32047  22370058.71147
 18  5 30  0 17 20.0000000  0  8G14G16G22G26G27G29G31G32             0.000025557
  20542820.625 7    -16792.711 7    -12145.72748  20542816.93048
  20738378.195 6   -216682.199 6   -153569.55948  20738374.91448
  23592387.289 5    -28572.797 5    -19484.19946  23592380.69946
  20600239.547 7    -46536.453 7    -32978.03548  20600238.76648
  23121877.758 4   -289107.152 4   -192369.91846  23121878.32046
  23469395.008 6     99562.273 6     69139.51647  23469393.35247
  21593029.633 6    -75855.121 6    -54018.41446  21593025.43846
  22371607.047 5    153154.832 5    104941.20346  22371607.66846
 18  5 30  0 17 25.0000000  0  8G14G16G22G26G27G29G31G32             0.000021456
  20542648.445 7    -17696.750 7    -12850.16448  20542645.02048
  20736272.508 6   -227747.730 6   -162192.05148  20736269.12148
  23592088.805 5    -30140.973 5    -20706.14546  23592082.55946
  20599769.945 7    -49004.438 7    -34901.15648  20599769.25848
  23117169.461 4   -313848.758 4   -211649.07446  23117169.93846
  23470345.273 6    104553.785 6     73029.00047  23470342.71947
  21592260.508 6    -79898.121 6    -57168.80546  21592256.66446
  22373155.625 5    161292.211 5    111282.00447  22373156.78547
 18  5 30  0 17 30.0000000  0  8G14G16G22G26G27G29G31G32             0.000017347
  20542477.203 7    -18597.398 7    -13551.97748  20542474.02048
  20734166.813 6   -238811.844 6   -170813.43048  20734163.43448
  23591790.461 5    -31711.625 5    -21930.04746  23591783.59846
  20599299.633 7    -51474.762 7    -36826.08648  20599299.37948
  23112460.297 3   -338598.426 3   -230934.53146  23112460.09446
  23471295.211 6    109546.348 6     76919.31347  23471292.68447
  21591489.602 6    -83949.617 6    -60325.81346  21591485.50846
  22374704.133 5    169427.797 5    117621.41847  22374704.69547
 18  5 30  0 17 35.0000000  0  8G14G16G22G26G27G29G31G32             0.000013231
  20542306.578 7    -19494.086 7    -14250.69148  20542303.05148
  20732061.461 6   -249873.961 6   -179433.25848  20732058.36748
  23591491.367 5    -33284.230 5    -23155.45746  23591484.37546
  20598829.750 7    -53946.910 7    -38752.43448  20598828.50448
  23107749.688 3   -363355.598 3   -250225.81646  23107748.47746
  23472245.680 6    114540.551 6     80810.90647  23472243.35547
  21590717.227 6    -88009.063 6    -63489.03946  21590712.95746
  22376251.898 5    177562.121 5    123959.82447  22376252.90247
 18  5 30  0 17 40.0000000  0  8G14G16G22G26G27G29G31G32             0.000009109
  20542136.672 7    -20386.926 7    -14946.42248  20542132.80548
  20729957.508 6   -260934.223 6   -188051.65248  20729953.16848
  23591191.102 6    -34858.867 6    -24382.43046  23591184.63746
  20598358.961 7    -56421.035 7    -40680.32448  20598358.00048
  23103037.750 3   -388120.305 3   -269522.99646  23103036.12946
  23473196.367 6    119536.199 6     84703.61347  23473194.19147
  21589942.969 6    -92076.613 6    -66658.57446  21589938.58246
  22377800.023 5    185694.984 5    130297.12947  22377801.02747
 18  5 30  0 17 45.0000000  0  8G14G16G22G26G27G29G31G32             0.000004980
  20541967.508 7    -21276.324 7    -15639.45748  20541963.59048
  20727852.867 6   -271993.039 6   -196668.90248  20727849.50448
  23590891.188 6    -36435.945 6    -25611.32846  23590884.75446
  20597887.680 7    -58897.477 7    -42610.02048  20597886.75448
  23098322.984 3   -412893.027 3   -288826.41046  23098321.77746
  23474147.219 6    124532.957 6     88597.17647  23474144.96947
  21589167.656 6    -96152.586 6    -69834.66446  21589162.63746
  22379346.664 5    193826.043 5    136632.99647  22379347.84847
 18  5 30  0 17 50.0000000  0  8G14G16G22G26G27G29G31G32             0.000000845
  20541799.305 7    -22161.305 7    -16329.06348  20541795.15648
  20725748.758 6   -283049.426 6   -205284.27748  20725745.38748
  23590590.734 6    -38014.543 6    -26841.37146  23590584.16446
  20597416.477 7    -61375.309 7    -44540.80948  20597415.40248
  23093609.211 2   -437672.691 2   -308135.26246  23093605.85546
  23475098.656 6    129531.754 6     92492.33647  23475096.34447
  21588390.820 6   -100236.051 6    -73016.59046  21588385.89846
  22380894.688 5    201956.250 5    142968.22347  22380895.05147
 18  5 30  0 17 55.0000000  0  8G14G16G22G26G27G29G31G32            -0.000003298
  20541631.453 7    -23042.438 7    -17015.65248  20541627.42648
  20723645.156 6   -294103.957 6   -213898.19148  20723641.44148
  23590290.078 5    -39595.180 5    -28073.03946  23590283.25046
  20596944.625 7    -63855.102 7    -46473.12148  20596943.61348
  23088892.969 1   -462459.879 1   -327449.96146  23088889.31346
  23476050.180 6    134531.996 6     96388.62547  23476048.05147
  21587612.492 6   -104327.547 6    -76204.77046  21587607.52046
  22382440.844 5    210085.039 5    149302.32447  22382441.59447
 18  5 30  0 18  0.0000000  0  8G14G16G22G26G27G29G31G32            -0.000007446
  20541464.703 7    -23919.207 7    -17698.85548  20541460.31648
  20721541.961 6   -305156.129 6   -222510.27348  20721538.45348
  23589988.492 5    -41177.465 5    -29305.97746  23589982.19546
  20596472.508 7    -66336.355 7    -48406.57048  20596471.57048
  23084175.125 1   -487254.125 1   -346770.16846  23084170.57446
  23477001.680 6    139534.215 6    100286.44947  23476999.90247
  21586832.188 6   -108426.574 6    -79398.82446  21586827.49246
  22383987.945 5    218212.902 5    155635.73047  22383988.14547
 18  5 30  0 18  5.0000000  0  8G14G16G22G26G27G29G31G32            -0.000011600
  20541298.688 7    -24790.859 7    -18378.07448  20541294.45348
  20719439.438 7   -316205.156 7   -231119.91048  20719435.42248
  23589687.469 5    -42760.500 5    -30539.51246  23589681.26246
  20595999.945 7    -68818.285 7    -50340.54748  20595999.08648
  23079455.789 2   -512054.547 2   -366095.19946  23079451.43446
  23477954.320 7    144539.191 7    104186.43447  23477951.96547
  21586050.648 6   -112532.348 6    -82598.12146  21586046.38746
  22385534.750 5    226340.641 5    161969.01647  22385534.75447
 18  5 30  0 18 10.0000000  0  8G14G16G22G26G27G29G31G32            -0.000015762
  20541133.445 7    -25658.977 7    -19054.53548  20541129.41848
  20717337.500 7   -327252.676 7   -239728.37148  20717332.87948
  23589384.891 5    -44346.020 5    -31774.96946  23589379.69546
  20595527.352 7    -71302.543 7    -52276.33648  20595526.52348
  23074734.734 3   -536862.871 3   -385426.37146  23074730.50846
  23478906.367 7    149545.270 7    108087.26247  23478904.96147
  21585267.430 6   -116646.441 6    -85803.91846  21585263.57846
  22387081.156 5    234466.555 5    168300.88747  22387080.99247
 18  5 30  0 18 15.0000000  0  8G14G16G22G26G27G29G31G32            -0.000019928
  20540969.070 7    -26522.188 7    -19727.16448  20540965.42248
  20715235.703 7   -338297.285 7   -248334.55148  20715230.88748
  23589083.180 5    -45932.535 5    -33011.23446  23589078.08246
  20595054.250 7    -73787.688 7    -54212.81648  20595052.87548
  23070013.516 4   -561677.523 4   -404762.45346  23070008.66446
  23479859.898 7    154553.863 7    111990.05947  23479858.14147
  21584483.594 6   -120767.469 6    -89015.11346  21584479.56346
  22388627.508 6    242592.137 6    174632.49247  22388627.45347
 18  5 30  0 18 20.0000000  0  8G14G16G22G26G27G29G31G32            -0.000024103
  20540805.719 7    -27380.324 7    -20395.85548  20540801.98048
  20713134.414 6   -349338.750 6   -256938.30548  20713129.45348
  23588780.375 5    -47519.898 5    -34248.14846  23588776.40646
  20594581.195 7    -76273.590 7    -56149.87948  20594580.32848
  23065289.766 4   -586498.395 4   -424103.38746  23065286.07046
  23480813.273 7    159565.172 7    115894.97347  23480811.54347
  21583697.672 6   -124895.258 6    -92231.58646  21583694.38346
  22390173.352 6    250717.508 6    180963.93847  22390173.32847
 18  5 30  0 18 25.0000000  0  8G14G16G22G26G27G29G31G32            -0.000028282
  20540643.430 7    -28233.961 7    -21061.02748  20540639.28548
  20711033.570 6   -360377.723 6   -265540.10948  20711028.82848
  23588478.891 5    -49108.754 5    -35486.22346  23588473.85546
  20594108.211 7    -78760.793 7    -58087.96548  20594107.44548
  23060565.227 5   -611326.086 5   -443449.63746  23060561.50446
  23481767.633 6    164578.566 6    119801.50447  23481765.71147
  21582911.180 6   -129030.430 6    -95453.79346  21582907.82446
  22391719.805 6    258842.082 6    187294.75447  22391719.43847
 18  5 30  0 18 30.0000000  0  8G14G16G22G26G27G29G31G32            -0.000032467
  20540482.070 7    -29081.578 7    -21721.51248  20540478.20348
  20708933.930 6   -371412.727 6   -274138.81348  20708928.64148
  23588176.602 4    -50697.539 4    -36724.26646  23588172.09446
  20593634.469 7    -81247.918 7    -60025.98048  20593633.56348
  23055839.164 5   -636159.031 5   -462799.96547  23055835.32447
  23482722.031 6    169595.531 6    123710.83247  23482720.49647
  21582122.789 6   -133171.480 6    -98680.59446  21582119.47746
  22393265.750 6    266967.266 6    193626.06347  22393265.71147
 18  5 30  0 18 35.0000000  0  7G14G16G22G26G27G29G31               -0.000036657
  20540321.523 7    -29923.242 7    -22377.36348  20540317.94148
  20706835.172 6   -382443.746 6   -282734.42648  20706830.02348
  23587875.008 5    -52286.406 5    -37962.37546  23587869.53946
  20593161.016 6    -83734.934 6    -61963.91448  20593160.34848
  23051117.344 5   -660997.168 5   -482154.22746  23051109.91846
  23483677.648 6    174615.977 6    127622.85947  23483675.95747
  21581333.719 6   -137318.387 6   -101911.93046  21581330.27346
 18  5 30  0 18 40.0000000  0  8G14G16G22G26G27G29G31G32            -0.000040854
  20540162.703 7    -30758.789 7    -23028.44148  20540159.00448
  20704736.531 6   -393470.750 6   -291326.88348  20704731.58248
  23587572.664 5    -53875.133 5    -39200.35246  23587567.57446
  20592687.727 7    -86221.723 7    -63901.67648  20592686.80548
  23046384.031 5   -685840.711 5   -501512.98047  23046382.37547
  23484633.922 6    179640.082 6    131537.73847  23484632.01647
  21580543.977 6   -141471.070 6   -105147.82846  21580540.07846
  22396358.11716      9425.68416    202743.27157  22396358.46157
 18  5 30  0 18 45.0000000  0  8G14G16G22G26G27G29G31G32            -0.000045053
  20540004.938 7    -31588.215 7    -23674.76248  20540001.07048
  20702638.766 7   -404493.625 7   -299916.13748  20702633.72748
  23587270.070 5    -55463.766 5    -40438.25046  23587265.38346
  20592214.789 6    -88708.266 6    -65839.23848  20592214.06648
  23041656.070 5   -710689.250 5   -520875.41847  23041653.61747
  23485590.258 6    184667.883 6    135455.51247  23485589.08647
  21579752.789 6   -145629.453 6   -108388.12546  21579748.32846
  22397904.742 6     17553.086 6    209076.28547  22397904.60547
 18  5 30  0 18 50.0000000  0  8G14G16G22G26G27G29G31G32            -0.000049259
  20539848.750 7    -32410.656 7    -24315.63348  20539844.73848
  20700542.172 7   -415511.492 7   -308501.49248  20700537.35948
  23586968.227 5    -57051.426 5    -41675.40646  23586963.56646
  20591741.563 6    -91193.676 6    -67775.91848  20591741.06648
  23036925.930 5   -735541.996 5   -540241.18847  23036924.44547
  23486547.859 6    189700.219 6    139376.80547  23486546.23447
  21578960.656 7   -149792.645 7   -111632.18446  21578956.53946
  22399451.859 5     25682.090 5    215410.55947  22399451.54347
 18  5 30  0 18 55.0000000  0  8G14G16G22G26G27G29G31G32            -0.000053469
  20539693.313 7    -33226.488 7    -24951.35248  20539689.24248
  20698446.180 7   -426524.785 7   -317083.28148  20698441.29348
  23586666.188 5    -58638.516 5    -42912.09847  23586662.02747
  20591269.094 7    -93678.402 7    -69712.06648  20591268.35548
  23032195.961 5   -760399.336 5   -559610.53547  23032194.09047
  23487506.242 6    194736.703 6    143301.32847  23487504.59847
  21578167.461 7   -153961.063 7   -114880.30946  21578162.86346
  22400998.656 5     33812.332 5    221745.80547  22400999.20347
 18  5 30  0 19  0.0000000  0  8G14G16G22G26G27G29G31G32            -0.000057686
  20539539.391 7    -34036.918 7    -25582.86348  20539535.64148
  20696351.445 7   -437534.688 7   -325662.43048  20696346.50848
  23586363.898 6    -60226.254 6    -44149.30947  23586360.26247
  20590796.031 7    -96163.625 7    -71648.60548  20590795.43448
  23027464.906 5   -785262.445 5   -578984.37547  23027463.18847
  23488465.711 6    199776.082 6    147228.12547  23488463.61347
  21577372.664 6   -158135.887 6   -118133.41846  21577367.96546
  22402545.898 5     41942.570 5    228081.05547  22402546.38347
 18  5 30  0 19  5.0000000  0  8G14G16G22G26G27G29G31G32            -0.000061907
  20539386.188 7    -34840.637 7    -26209.14548  20539382.35548
  20694257.000 7   -448539.832 7   -334237.87148  20694252.55948
  23586062.141 6    -61813.297 6    -45385.94947  23586058.19147
  20590323.047 7    -98648.023 7    -73584.49648  20590322.69548
  23022732.711 6   -810130.016 6   -598361.68447  23022730.96547
  23489424.953 6    204819.699 6    151158.19947  23489423.78147
  21576577.563 7   -162315.816 7   -121390.52046  21576572.41846
  22404093.211 5     50074.184 5    234417.35947  22404093.61747
 18  5 30  0 19 10.0000000  0  8G14G16G22G26G27G29G31G32            -0.000066133
  20539234.719 7    -35637.039 7    -26829.73048  20539231.14548
  20692163.828 7   -459539.668 7   -342809.17648  20692159.26248
  23585760.469 6    -63399.074 6    -46621.62947  23585756.66447
  20589850.797 6   -101131.012 6    -75519.30148  20589850.22348
  23017999.781 6   -835001.398 6   -617741.99247  23017998.44147
  23490386.055 6    209868.148 6    155092.04747  23490384.29347
  21575780.852 7   -166500.207 7   -124651.07846  21575775.97746
  22405640.914 5     58207.773 5    240755.22747  22405641.23047
 18  5 30  0 19 15.0000000  0  8G14G16G22G26G27G29G31G32            -0.000070364
  20539084.039 7    -36426.121 7    -27444.60548  20539080.64548
  20690071.563 7   -470534.223 7   -351376.35948  20690067.60948
  23585459.414 6    -64983.594 6    -47856.32047  23585455.18447
  20589378.242 7   -103612.586 7    -77452.99248  20589378.29348
  23013265.430 5   -859876.578 5   -637125.23047  23013264.70747
  23491347.352 6    214921.430 6    159029.66847  23491345.19147
  21574984.336 6   -170689.098 6   -127915.16846  21574978.91846
  22407189.516 5     66343.207 5    247094.52047  22407189.12147
 18  5 30  0 19 20.0000000  0  8G14G16G22G26G27G29G31G32            -0.000074598
  20538935.398 7    -37209.133 7    -28054.75448  20538931.98448
  20687980.211 6   -481524.727 6   -359940.39148  20687976.27748
  23585157.727 6    -66568.094 6    -49091.00047  23585153.18047
  20588906.008 6   -106094.055 6    -79386.61348  20588905.51648
  23008531.156 5   -884756.848 5   -656512.45747  23008529.93847
  23492309.891 6    219978.227 6    162970.02747  23492307.55947
  21574185.742 6   -174883.746 6   -131183.74246  21574181.05946
  22408737.625 5     74479.309 5    253434.34047  22408737.44547
 18  5 30  0 19 25.0000000  0  8G14G16G22G26G27G29G31G32            -0.000078838
  20538787.367 7    -37985.879 7    -28660.01648  20538784.42648
  20685889.391 7   -492510.980 7   -368501.10948  20685885.94548
  23584855.703 6    -68152.422 6    -50325.54747  23584851.34047
  20588433.938 7   -108575.184 7    -81319.95748  20588433.79748
  23003795.992 5   -909641.953 5   -675903.44947  23003794.75047
  23493272.695 6    225038.797 6    166913.30947  23493270.37547
  21573386.875 6   -179083.902 6   -134456.59446  21573381.85946
  22410285.977 5     82616.313 5    259774.84847  22410285.53147
 18  5 30  0 19 30.0000000  0  8G14G16G22G26G27G29G31G32            -0.000083084
  20538641.344 7    -38754.430 7    -29258.89548  20538637.98048
  20683800.156 7   -503491.105 7   -377057.05148  20683796.55548
  23584554.891 6    -69734.613 6    -51558.41446  23584549.40646
  20587962.242 7   -111054.051 7    -83251.54348  20587962.19148
  22999060.148 5   -934529.910 5   -695296.65247  22999058.45747
  23494237.227 6    230105.047 6    170861.03946  23494234.30946
  21572586.688 6   -183287.641 6   -137732.23046  21572582.04346
  22411834.758 6     90756.078 6    266117.51247  22411835.13347
 18  5 30  0 19 35.0000000  0  8G14G16G22G26G27G29G31G32            -0.000087332
  20538496.156 7    -39515.566 7    -29851.99648  20538493.10248
  20681711.789 7   -514465.766 7   -385608.73048  20681707.86348
  23584253.438 6    -71315.484 6    -52790.27347  23584248.43447
  20587491.008 7   -113531.395 7    -85181.94148  20587490.76648
  22994323.516 5   -959421.500 5   -714692.69947  22994321.84847
  23495201.703 6    235176.230 6    174812.59046  23495198.78946
  21571785.984 6   -187495.711 6   -141011.26247  21571781.27747
  22413383.891 5     98897.848 5    272461.74647  22413384.40247
 18  5 30  0 19 40.0000000  0  8G14G16G22G26G27G29G31G32            -0.000091587
  20538352.602 7    -40270.270 7    -30440.07048  20538349.22748
  20679624.102 7   -525436.004 7   -394156.95748  20679620.41448
  23583952.383 5    -72896.008 5    -54021.85946  23583947.45746
  20587019.422 7   -116008.242 7    -87111.96548  20587019.88348
  22989586.523 5   -984317.676 5   -734092.32047  22989583.97347
  23496167.711 6    240251.313 6    178767.21946  23496164.47346
  21570984.297 6   -191709.121 6   -144294.44547  21570979.98447
  22414933.766 5    107040.637 5    278806.75047  22414933.94147
 18  5 30  0 19 45.0000000  0  8G14G16G22G26G27G29G31G32            -0.000095844
  20538210.680 7    -41017.094 7    -31022.01248  20538207.44948
  20677537.539 7   -536400.465 7   -402700.69548  20677533.85548
  23583651.219 5    -74474.773 5    -55252.08246  23583646.75446
  20586548.336 7   -118483.238 7    -89040.53148  20586548.46148
  22984848.305 5  -1009217.066 5   -753494.44147  22984845.48447
  23497134.781 6    245331.688 6    182725.93846  23497131.08646
  21570181.766 6   -195926.449 6   -147580.68847  21570177.39847
  22416484.063 5    115185.836 5    285153.65246  22416483.50846
 18  5 30  0 19 50.0000000  0  9G03G14G16G22G26G27G29G31G32         -0.000100107
  23727450.14112    -40613.59412                
  20538070.180 7    -41755.898 7    -31597.71148  20538066.77048
  20675452.031 6   -547358.898 6   -411239.73848  20675448.58648
  23583350.797 5    -76051.688 5    -56480.84446  23583346.60246
  20586077.922 6   -120956.160 6    -90967.48848  20586078.28948
  22980110.352 5  -1034119.449 5   -772898.89547  22980106.86747
  23498102.211 6    250417.535 6    186688.94546  23498098.87946
  21569377.859 6   -200147.523 6   -150869.83247  21569373.79347
  22418034.000 5    123333.668 5    291502.59846  22418034.20346
 18  5 30  0 19 55.0000000  0  9G03G14G16G22G26G27G29G31G32         -0.000104374
  23726414.031 2    -46048.711 2                
  20537930.898 7    -42487.488 7    -32167.79348  20537927.62548
  20673367.891 6   -558312.191 6   -419774.77348  20673364.30148
  23583050.930 5    -77627.539 5    -57708.80946  23583046.60946
  20585607.492 6   -123427.895 6    -92893.51648  20585607.58248
  22975370.406 5  -1059025.660 5   -792306.33647  22975366.74247
  23499071.125 6    255508.008 6    190655.51646  23499067.57446
  21568574.477 6   -204373.141 6   -154162.53147  21568570.19547
  22419584.969 5    131483.172 5    297852.84047  22419585.11347
 18  5 30  0 20  0.0000000  0  9G03G14G16G22G26G27G29G31G32         -0.000108644
  23725380.344 1    -51478.141 1                
  20537793.320 7    -43211.223 7    -32731.74248  20537790.01248
  20671284.383 6   -569259.668 6   -428305.27348  20671281.50448
  23582751.148 4    -79201.641 4    -58935.37546  23582746.87946
  20585137.313 6   -125897.727 6    -94818.06348  20585137.79748
  22970631.477 6  -1083935.008 6   -811716.21147  22970627.48847
  23500040.359 6    260603.762 6    194626.23046  23500037.40646
  21567769.367 6   -208602.695 6   -157458.28947  21567765.38747
  22421135.477 5    139635.043 5    304204.96546  22421136.12546
 18  5 30  0 20  5.0000000  0  9G03G14G16G22G26G27G29G31G32         -0.000112921
  23724346.063 1    -56903.270 1                
  20537656.695 7    -43928.625 7    -33290.76648  20537653.39148
  20669202.086 7   -580202.836 7   -436832.41848  20669198.64548
  23582452.633 4    -80775.547 4    -60161.83246  23582447.23446
  20584667.531 6   -128367.242 6    -96742.35948  20584668.02748
  22965889.797 6  -1108849.031 6   -831129.74247  22965886.12947
  23501010.883 6    265703.289 6    198599.87546  23501007.75846
  21566963.672 6   -212837.684 6   -160758.29746  21566959.76246
  22422687.000 5    147787.793 5    310557.73847  22422687.49247
 18  5 30  0 20 10.0000000  0  9G03G14G16G22G26G27G29G31G32         -0.000117203
  23723314.148 1    -62322.867 1                
  20537521.898 7    -44638.340 7    -33843.78948  20537518.47348
  20667121.047 6   -591140.348 6   -445355.16448  20667117.34048
  23582154.727 4    -82347.898 4    -61387.05946  23582148.43046
  20584197.609 6   -130835.086 6    -98665.34848  20584197.87548
  22961148.172 6  -1133766.316 6   -850545.80947  22961144.64847
  23501983.000 6    270807.898 6    202577.50447  23501979.81647
  21566156.742 6   -217076.715 6   -164061.44946  21566152.62546
  22424238.984 5    155942.723 5    316912.22647  22424239.41847
 18  5 30  0 20 15.0000000  0  9G03G14G16G22G26G27G29G31G32         -0.000121485
  23722281.97711                                
  20537388.305 7    -45340.887 7    -34391.23448  20537384.59448
  20665040.789 6   -602072.699 6   -453873.88348  20665037.04348
  23581855.281 4    -83919.289 4    -62611.54746  23581849.62946
  20583728.672 6   -133301.730 6   -100587.41048  20583728.50848
  22956405.969 6  -1158687.398 6   -869964.84047  22956401.96147
  23502954.359 6    275917.105 6    206558.69146  23502952.44546
  21565348.984 6   -221320.324 6   -167368.16446  21565344.89146
  22425792.219 5    164099.410 5    323268.08246  22425791.66046
 18  5 30  0 20 20.0000000  0  8G14G16G22G26G27G29G31G32            -0.000125774
  20537256.227 7    -46035.629 7    -34932.59448  20537252.03948
  20662961.367 6   -612999.262 6   -462388.08648  20662957.50448
  23581557.445 5    -85489.047 5    -63834.74646  23581550.72346
  20583259.586 6   -135766.563 6   -102508.05148  20583259.17648
  22951663.172 6  -1183611.563 6   -889386.27047  22951659.36747
  23503927.555 6    281031.457 6    210543.88746  23503925.26246
  21564540.297 6   -225567.840 6   -170677.91846  21564536.54346
  22427344.188 4    172258.375 4    329625.69546  22427344.25046
 18  5 30  0 20 25.0000000  0  8G14G16G22G26G27G29G31G32            -0.000130068
  20537125.266 7    -46721.582 7    -35467.11348  20537121.48048
  20660883.328 6   -623919.047 6   -470897.00848  20660879.69948
  23581259.508 5    -87056.152 5    -65055.87546  23581253.01246
  20582790.961 6   -138228.629 6   -104426.54748  20582791.01648
  22946919.352 6  -1208537.840 6   -908809.35547  22946916.26647
  23504902.625 6    286152.008 6    214533.91046  23504899.96146
  21563732.320 6   -229818.324 6   -173989.98446  21563727.70346
  22428897.867 5    180420.648 5    335985.88346  22428897.29746
 18  5 30  0 20 30.0000000  0  8G14G16G22G26G27G29G31G32            -0.000134363
  20536996.852 7    -47399.250 7    -35995.15248  20536992.68848
  20658806.977 6   -634832.594 6   -479401.07048  20658802.85248
  23580960.820 5    -88621.199 5    -66275.34446  23580955.48446
  20582322.664 6   -140688.453 6   -106343.29748  20582323.00448
  22942176.172 6  -1233466.801 6   -928234.45347  22942172.84847
  23505878.578 6    291278.199 6    218528.32846  23505875.70346
  21562922.719 6   -234072.285 6   -177304.75446  21562918.15646
  22430451.32815                                
 18  5 30  0 20 35.0000000  0  8G14G16G22G26G27G29G31G32            -0.000138664
  20536868.969 7    -48069.441 7    -36517.38348  20536864.76648
  20656730.977 7   -645740.730 7   -487900.90248  20656727.27748
  23580663.211 5    -90184.953 5    -67493.89847  23580657.39547
  20581855.219 6   -143146.813 6   -108258.90248  20581854.95348
  22937431.867 6  -1258399.090 6   -947662.25847  22937428.58247
  23506855.125 6    296409.199 6    222526.51646  23506852.43046
  21562111.922 6   -238330.414 6   -180622.78547  21562107.76247
  22432005.438 5    196752.637 5    348457.09056  22432004.66056
 18  5 30  0 20 40.0000000  0  8G14G16G22G26G27G29G31G32            -0.000142969
  20536742.891 7    -48731.387 7    -37033.19548  20536738.82448
  20654656.609 7   -656642.664 7   -496395.92648  20654652.19548
  23580366.500 5    -91746.641 5    -68710.81646  23580360.34446
  20581387.578 6   -145602.980 6   -110172.80548  20581387.60248
  22932686.063 6  -1283334.070 6   -967092.13747  22932683.64547
  23507832.195 6    301545.828 6    226529.06346  23507830.38746
  21561300.820 6   -242592.043 6   -183943.53146  21561296.64846
  22433559.695 5    204922.316 5    354823.07446  22433559.45346
 18  5 30  0 20 45.0000000  0  8G14G16G22G26G27G29G31G32            -0.000147278
  20536618.586 7    -49386.195 7    -37543.43848  20536614.53948
  20652583.086 6   -667539.520 6   -504886.98048  20652578.77048
  23580069.445 5    -93307.402 5    -69926.99246  23580063.16046
  20580920.352 6   -148058.066 6   -112085.86348  20580920.30948
  22927941.203 6  -1308272.711 6   -986524.82847  22927938.14147
  23508810.664 6    306686.969 6    230535.14847  23508808.76247
  21560489.258 6   -246858.176 6   -187267.79746  21560484.92246
  22435114.773 5    213093.582 5    361190.28547  22435114.30547
 18  5 30  0 20 50.0000000  0  8G14G16G22G26G27G29G31G32            -0.000151590
  20536495.656 7    -50032.707 7    -38047.21948  20536491.66048
  20650510.695 6   -678430.117 6   -513373.15248  20650506.09448
  23579772.766 5    -94866.121 5    -71141.57046  23579766.19946
  20580453.469 6   -150510.902 6   -113997.16048  20580453.64548
  22923194.125 6  -1333213.863 6  -1005959.49647  22923192.13347
  23509789.898 6    311833.715 6    234545.59446  23509788.31346
  21559676.516 6   -251127.719 6   -190594.72346  21559672.34846
  22436670.461 5    221267.668 5    367559.68046  22436669.77046
 18  5 30  0 20 55.0000000  0  8G14G16G22G26G27G29G31G32            -0.000155907
  20536374.188 7    -50669.703 7    -38543.58248  20536370.34048
  20648439.773 6   -689313.301 6   -521853.55548  20648435.02048
  23579476.570 5    -96421.582 5    -72353.61346  23579470.06346
  20579987.461 6   -152960.320 6   -115905.80548  20579987.78548
  22918447.172 6  -1358156.383 6  -1025395.23047  22918445.97347
  23510770.773 6    316987.270 6    238561.34046  23510768.93846
  21558864.219 6   -255399.480 6   -193923.37146  21558859.37146
  22438226.047 5    229445.617 5    373932.10546  22438226.44146
 18  5 30  0 21  0.0000000  0  8G14G16G22G26G27G29G31G32            -0.000160227
  20536254.664 7    -51297.875 7    -39033.06348  20536251.21948
  20646369.891 6   -700189.727 6   -530328.68848  20646365.29748
  23579180.945 6    -97974.492 6    -73563.68446  23579174.41046
  20579521.547 7   -155406.973 7   -117812.28948  20579522.00848
  22913700.609 6  -1383100.863 6  -1044832.48847  22913699.51247
  23511752.563 6    322146.961 6    242581.87546  23511750.57446
  21558050.406 6   -259674.148 6   -197254.28946  21558045.61746
  22439782.570 5    237626.863 5    380307.08647  22439782.81647
 18  5 30  0 21  5.0000000  0  8G14G16G22G26G27G29G31G32            -0.000164551
  20536136.656 7    -51918.309 7    -39516.52048  20536133.02748
  20644301.172 6   -711060.445 6   -538799.37948  20644296.59048
  23578885.016 5    -99525.898 5    -74772.56346  23578879.18046
  20579056.758 6   -157851.934 6   -119717.46148  20579056.98448
  22908953.438 6  -1408048.379 6  -1064272.10947  22908952.10547
  23512735.242 6    327311.758 6    246606.39146  23512733.30546
  21557236.313 6   -263952.703 6   -200588.23046  21557231.43046
  22441339.656 5    245810.273 5    386683.74247  22441340.19947
 18  5 30  0 21 10.0000000  0  8G14G16G22G26G27G29G31G32            -0.000168879
  20536019.805 7    -52531.484 7    -39994.32848  20536016.18848
  20642233.297 7   -721925.980 7   -547266.03148  20642228.43848
  23578590.063 5   -101076.340 5    -75980.69146  23578584.10246
  20578591.859 6   -160295.711 6   -121621.71148  20578591.57448
  22904204.695 6  -1432999.387 6  -1083714.44947  22904204.60247
  23513718.867 6    332481.121 6    250634.44946  23513716.79346
  21556421.477 6   -268235.707 6   -203925.62146  21556416.44146
  22442897.797 5    253995.418 5    393061.75046  22442897.72346
 18  5 30  0 21 15.0000000  0  8G14G16G22G26G27G29G31G32            -0.000173212
  20535904.680 7    -53135.527 7    -40465.00848  20535901.38348
  20640166.867 7   -732784.391 7   -555727.12548  20640162.54748
  23578295.836 5   -102623.832 5    -77186.51246  23578289.28546
  20578127.070 6   -162736.441 6   -123523.57448  20578127.07448
  22899456.078 6  -1457952.000 6  -1103158.04747  22899456.39547
  23514703.789 6    337656.957 6    254667.55946  23514701.60246
  21555605.891 6   -272521.215 6   -207265.00046  21555600.40646
  22444456.578 5    262184.098 5    399442.52746  22444456.69946
 18  5 30  0 21 20.0000000  0  8G14G16G22G26G27G29G31G32            -0.000177547
  20535791.375 7    -53730.918 7    -40928.95748  20535787.62148
  20638101.977 6   -743636.258 6   -564183.13348  20638097.36748
  23578000.953 5   -104168.988 5    -78390.54746  23577995.87946
  20577663.133 6   -165174.637 6   -125423.46548  20577663.00848
  22894707.094 6  -1482906.707 6  -1122603.28947  22894708.00047
  23515689.820 6    342838.750 6    258705.32446  23515687.85946
  21554790.039 6   -276809.762 6   -210606.71547  21554784.27047
  22446015.320 5    270375.828 5    405825.66446  22446015.59046
 18  5 30  0 21 25.0000000  0  8G14G16G22G26G27G29G31G32            -0.000181887
  20535679.422 7    -54317.758 7    -41386.24248  20535676.14148
  20636038.266 7   -754481.609 7   -572634.05948  20636033.76248
  23577706.820 5   -105711.867 5    -79592.79746  23577702.31346
  20577199.461 6   -167610.391 6   -127321.46548  20577199.40648
  22889958.109 6  -1507863.605 6  -1142050.23847  22889958.82047
  23516677.117 6    348026.344 6    262747.61346  23516674.93446
  21553972.898 6   -281101.445 6   -213950.87146  21553967.16446
  22447574.836 4    278570.492 4    412211.11747  22447574.59847
 18  5 30  0 21 30.0000000  0  8G14G16G22G26G27G29G31G32            -0.000186230
  20535569.289 7    -54896.602 7    -41837.28548  20535566.05548
  20633975.484 7   -765321.078 7   -581080.41048  20633971.22748
  23577413.461 5   -107253.070 5    -80793.73846  23577409.20746
  20576737.000 6   -170044.266 6   -129217.98448  20576736.74248
  22885208.570 5  -1532823.207 5  -1161499.28947  22885208.99247
  23517665.258 6    353219.188 6    266793.97346  23517663.68446
  21553155.969 6   -285396.793 6   -217297.91846  21553150.41046
  22449135.016 4    286767.570 4    418598.43846  22449135.14846
 18  5 30  0 21 35.0000000  0  8G14G16G22G26G27G29G31G32            -0.000190577
  20535461.125 7    -55466.414 7    -42281.30948  20535457.31348
  20631914.133 7   -776153.605 7   -589521.35248  20631910.05148
  23577120.945 5   -108791.543 5    -81992.57446  23577116.16446
  20576273.992 6   -172475.250 6   -131112.25048  20576273.38348
  22880458.781 5  -1557784.469 5  -1180949.64147  22880459.18047
  23518654.719 6    358418.359 6    270845.29346  23518652.53146
  21552337.891 6   -289694.758 6   -220646.98046  21552331.97346
  22450695.531 4    294968.016 4    424988.38346  22450695.70746
 18  5 30  0 21 40.0000000  0  8G14G16G22G26G27G29G31G32            -0.000194925
  20535354.102 7    -56027.934 7    -42718.85948  20535350.41048
  20629854.031 7   -786979.875 7   -597957.39548  20629850.03948
  23576829.211 5   -110327.988 5    -83189.81346  23576823.52746
  20575811.883 6   -174904.012 6   -133004.79748  20575811.52748
  22875708.422 5  -1582748.082 5  -1200401.82047  22875708.61747
  23519645.016 6    363623.070 6    274900.89547  23519643.51647
  21551519.352 6   -293996.082 6   -223998.64546  21551513.73046
  22452256.734 4    303171.125 4    431380.41846  22452256.68446
 18  5 30  0 21 45.0000000  0  8G14G16G22G26G27G29G31G32            -0.000199280
  20535248.977 7    -56580.945 7    -43149.78548  20535245.39848
  20627794.914 7   -797799.715 7   -606388.44148  20627790.97748
  23576537.875 5   -111862.277 5    -84385.37547  23576531.87947
  20575350.172 6   -177330.430 6   -134895.52348  20575349.82848
  22870957.773 5  -1607713.895 5  -1219855.71547  22870957.59047
  23520636.586 6    368833.531 6    278961.00046  23520635.37946
  21550700.719 6   -298300.535 6   -227352.78546  21550694.62946
  22453818.203 4    311377.168 4    437774.73447  22453818.39547
 18  5 30  0 21 50.0000000  0  8G14G16G22G26G27G29G31G32            -0.000203638
  20535145.414 7    -57124.914 7    -43573.65648  20535141.89148
  20625737.484 7   -808612.563 7   -614814.05148  20625733.49248
  23576246.992 5   -113393.836 5    -85578.82047  23576241.05147
  20574889.023 6   -179753.941 6   -136783.96948  20574888.16848
  22866205.813 5  -1632681.242 5  -1239310.78947  22866206.08647
  23521629.648 6    374050.309 6    283026.00846  23521627.96146
  21549881.039 6   -302607.531 6   -230708.88346  21549875.27346
  22455379.930 4    319586.586 4    444171.65246  22455380.37946
 18  5 30  0 21 55.0000000  0  8G14G16G22G26G27G29G31G32            -0.000207998
  20535043.758 7    -57660.777 7    -43991.21548  20535039.72348
  20623681.133 6   -819419.371 6   -623234.94148  20623677.27748
  23575955.781 6   -114923.625 6    -86770.86347  23575949.85247
  20574428.445 6   -182175.484 6   -138670.87948  20574427.43848
  22861454.688 5  -1657651.148 5  -1258767.87147  22861454.84847
  23522623.086 6    379272.434 6    287095.18446  23522621.54746
  21549060.586 6   -306918.055 6   -234067.73446  21549054.93046
  22456942.820 4    327798.457 4    450570.51246  22456943.27046
 18  5 30  0 22  0.0000000  0  8G14G16G22G26G27G29G31G32            -0.000212364
  20534943.000 7    -58188.270 7    -44402.25448  20534939.84048
  20621625.766 6   -830219.898 6   -631650.94148  20621621.57848
  23575665.469 6   -116451.461 6    -87961.40647  23575659.54747
  20573967.945 6   -184594.855 6   -140556.10948  20573967.00448
  22856702.531 6  -1682623.305 6  -1278226.69947  22856702.34847
  23523617.727 6    384500.133 6    291168.74646  23523616.08246
  21548239.734 6   -311231.859 6   -237429.12946  21548234.18846
  22458506.422 4    336012.945 4    456971.44546  22458506.44946
 18  5 30  0 22  5.0000000  0  8G14G16G22G26G27G29G31G32            -0.000216732
  20534844.664 7    -58705.625 7    -44805.39148  20534841.46548
  20619571.750 6   -841012.395 6   -640060.68048  20619568.45748
  23575375.242 6   -117975.504 6    -89148.97347  23575369.09047
  20573508.094 6   -187010.199 6   -142438.19948  20573507.23848
  22851949.922 5  -1707595.941 5  -1297685.92247  22851950.18847
  23524613.867 6    389735.219 6    295247.98446  23524611.82446
  21547418.648 6   -315547.148 6   -240791.69947  21547413.22747
  22460070.250 4    344232.043 4    463375.89146  22460070.46146
 18  5 30  0 22 10.0000000  0  8G14G16G22G26G27G29G31G32            -0.000221104
  20534747.758 7    -59214.328 7    -45201.79748  20534744.62948
  20617519.297 7   -851798.316 7   -648465.28148  20617515.71948
  23575085.977 6   -119497.242 6    -90334.77047  23575079.83647
  20573049.023 6   -189423.109 6   -144318.39148  20573048.48448
  22847197.852 6  -1732570.492 6  -1317146.62547  22847197.44147
  23525611.320 6    394976.117 6    299331.79746  23525609.05146
  21546596.938 6   -319865.383 6   -244156.55547  21546591.35247
  22461634.547 5    352454.077 5    469782.65146  22461635.05546
 18  5 30  0 22 15.0000000  0  8G14G16G22G26G27G29G31G32            -0.000225479
  20534652.914 7    -59715.254 7    -45592.14148  20534649.44948
  20615467.625 7   -862578.547 7   -656865.46948  20615464.10548
  23574796.023 6   -121017.621 6    -91519.49247  23574790.53147
  20572590.063 6   -191834.379 6   -146197.31348  20572589.39848
  22842445.164 5  -1757547.805 5  -1336609.46547  22842444.59447
  23526609.367 6    400222.074 6    303419.52346  23526607.09046
  21545774.625 7   -324187.422 7   -247524.38747  21545768.91847
  22463199.172 5    360678.146 5    476191.00746  22463199.62146
 18  5 30  0 22 20.0000000  0  8G14G16G22G26G27G29G31G32            -0.000229858
  20534558.797 7    -60206.836 7    -45975.19548  20534556.12148
  20613417.773 6   -873351.508 6   -665259.98048  20613414.18048
  23574507.164 6   -122535.020 6    -92701.89847  23574501.48847
  20572132.117 6   -194242.520 6   -148073.78148  20572131.11748
  22837691.555 5  -1782526.340 5  -1356073.25847  22837691.62147
  23527608.992 6    405474.547 6    307512.38746  23527606.55946
  21544951.781 7   -328511.641 7   -250893.91047  21544946.79747
  22464765.156 4    368905.957 4    482602.26246  22464765.53546
 18  5 30  0 22 25.0000000  0  9G03G14G16G22G26G27G29G31G32         -0.000234240
  23695918.59411    -18561.88711                
  20534467.094 7    -60689.531 7    -46351.31648  20534464.42248
  20611369.031 7   -884117.656 7   -673649.18448  20611364.88748
  23574218.828 5   -124049.879 5    -93882.28547  23574212.92647
  20571674.445 6   -196647.910 6   -149948.11348  20571673.45348
  22832937.797 5  -1807506.461 5  -1375538.29347  22832937.27047
  23528609.961 6    410733.105 6    311609.92646  23528606.79346
  21544128.609 7   -332838.574 7   -254265.54747  21544123.43047
  22466331.539 5    377136.957 5    489016.00846  22466331.74646
 18  5 30  0 22 30.0000000  0  9G03G14G16G22G26G27G29G31G32         -0.000238613
  23694921.617 2    -23806.539 2                
  20534377.273 7    -61163.051 7    -46720.29748  20534374.38748
  20609321.742 6   -894876.715 6   -682032.85948  20609317.62548
  23573931.844 5   -125561.977 5    -95060.57046  23573925.25446
  20571217.070 6   -199050.320 6   -151820.13348  20571216.57448
  22828183.891 5  -1832487.895 5  -1395004.32047  22828184.15247
  23529611.930 6    415997.969 6    315712.39546  23529608.56346
  21543304.391 7   -337168.016 7   -257639.13747  21543299.16847
  22467898.773 5    385371.434 5    495432.46546  22467898.53146
 18  5 30  0 22 35.0000000  0  9G03G14G16G22G26G27G29G31G32         -0.000243002
  23693924.938 1    -29043.898 1                
  20534288.813 7    -61627.059 7    -47081.86748  20534285.84448
  20607276.289 7   -905628.328 7   -690410.74648  20607271.72348
  23573643.984 4   -127070.961 4    -96236.41446  23573638.06346
  20570760.711 6   -201449.434 6   -153689.56648  20570759.74648
  22823429.430 5  -1857470.367 5  -1414471.21547  22823429.83647
  23530614.766 6    421269.516 6    319820.08646  23530611.21946
  21542479.852 6   -341499.539 6   -261014.34447  21542475.21147
  22469465.836 5    393609.734 5    501851.91046  22469466.55146
 18  5 30  0 22 40.0000000  0  9G03G14G16G22G26G27G29G31G32         -0.000247393
  23692927.586 1    -34274.285 1                
  20534202.133 7    -62081.801 7    -47436.21548  20534199.28548
  20605231.594 7   -916372.715 7   -698782.99248  20605227.29748
  23573356.852 5   -128577.035 5    -97409.98046  23573351.32446
  20570304.828 6   -203845.414 6   -155556.57048  20570304.28148
  22818675.297 5  -1882453.379 5  -1433938.20347  22818675.83247
  23531618.711 6    426547.512 6    323932.79346  23531615.20746
  21541655.797 7   -345833.348 7   -264391.35247  21541650.71947
  22471034.703 5    401851.590 5    508274.12147  22471034.43847
 18  5 30  0 22 45.0000000  0  9G03G14G16G22G26G27G29G31G32         -0.000251789
  23691932.023 1    -39497.914 1                
  20534117.594 6    -62527.531 6    -47783.54748  20534114.12148
  20603188.406 7   -927110.215 7   -707149.87548  20603184.11748
  23573070.281 4   -130080.559 4    -98581.56346  23573065.06346
  20569849.172 6   -206238.645 6   -157421.42648  20569848.83248
  22813920.281 5  -1907438.434 5  -1453407.03947  22813921.38747
  23532624.414 6    431831.660 6    328050.32446  23532620.51646
  21540830.016 6   -350169.762 6   -267770.37947  21540825.57847
  22472603.617 4    410096.691 4    514698.87947  22472603.27047
 18  5 30  0 22 50.0000000  0  9G03G14G16G22G26G27G29G31G32         -0.000256199
  23690935.93011                                
  20534034.180 7    -62963.898 7    -48123.57448  20534031.12948
  20601146.508 7   -937840.500 7   -715511.14148  20601142.16448
  23572784.453 4   -131581.172 4    -99750.89146  23572779.37946
  20569394.703 6   -208628.777 6   -159283.86348  20569394.01248
  22809166.391 5  -1932424.586 5  -1472876.72347  22809166.43047
  23533631.539 6    437122.246 6    332172.83246  23533627.58246
  21540005.047 6   -354508.414 6   -271151.15247  21540000.37947
  22474174.375 4    418345.410 4    521126.44147  22474173.14147
 18  5 30  0 22 55.0000000  0  8G14G16G22G26G27G29G31G32            -0.000260601
  20533952.891 7    -63390.906 7    -48456.31648  20533949.85248
  20599106.031 7   -948563.480 7   -723866.71548  20599101.99248
  23572500.188 3   -133078.898 3   -100917.97346  23572494.94546
  20568940.281 6   -211015.738 6   -161143.82448  20568939.55148
  22804411.359 5  -1957411.844 5  -1492347.30147  22804412.11347
  23534639.203 6    442419.410 6    336300.46546  23534635.39146
  21539178.391 6   -358849.215 6   -274533.58647  21539174.23847
  22475744.211 4    426597.762 4    527556.82846  22475743.69146
 18  5 30  0 23  0.0000000  0  8G14G16G22G26G27G29G31G32            -0.000265007
  20533873.367 6    -63809.113 6    -48782.19548  20533870.50048
  20597066.969 7   -959279.770 7   -732217.07048  20597062.86348
  23572215.320 4   -134574.273 4   -102083.20746  23572210.24646
  20568486.594 6   -213400.164 6   -163001.82048  20568485.58248
  22799655.734 4  -1982400.723 4  -1511819.14847  22799656.67647
  23535648.453 6    447722.453 6    340432.71146  23535644.70746
  21538351.883 6   -363192.805 6   -277918.21547  21538347.35547
  22477315.117 5    434853.156 5    533989.59847  22477314.30147
 18  5 30  0 23  5.0000000  0  9G03G14G16G22G26G27G29G31G32         -0.000269415
  23687971.78911                                
  20533795.477 6    -64218.121 6    -49100.91048  20533792.96148
  20595028.852 7   -969988.961 7   -740561.89848  20595024.45748
  23571931.945 4   -136066.883 4   -103246.30546  23571926.62546
  20568033.250 6   -215781.621 6   -164857.50048  20568032.87148
  22794900.422 4  -2007390.793 4  -1531291.92647  22794900.78947
  23536659.031 6    453031.840 6    344569.85546  23536655.42646
  21537524.922 6   -367538.707 6   -281304.63347  21537520.19947
  22478886.992 5    443111.953 5    540425.02747  22478885.76647
 18  5 30  0 23 10.0000000  0  9G03G14G16G22G26G27G29G31G32         -0.000273813
  23686982.898 2    -65515.863 2                
  20533719.867 6    -64616.898 6    -49411.64848  20533716.82048
  20592992.469 7   -980690.008 7   -748900.37148  20592988.44148
  23571648.164 5   -137555.727 5   -104406.42647  23571643.21947
  20567580.727 6   -218159.082 6   -166710.06648  20567580.22348
  22790145.477 4  -2032380.984 4  -1550764.80947  22790145.78147
  23537670.297 6    458348.551 6    348712.76646  23537667.71546
  21536697.297 6   -371885.973 6   -284692.12147  21536693.80147
  22480459.258 5    451375.328 5    546864.01246  22480457.44146
 18  5 30  0 23 15.0000000  0  9G03G14G16G22G26G27G29G31G32         -0.000278227
  23685997.969 1    -70697.551 1                
  20533645.414 6    -65006.961 6    -49715.60248  20533642.51248
  20590957.625 7   -991384.445 7   -757233.70748  20590953.06648
  23571365.750 5   -139042.344 5   -105564.83646  23571360.33646
  20567128.766 6   -220534.074 6   -168560.70748  20567127.85948
  22785389.484 4  -2057372.859 4  -1570239.00047  22785390.25047
  23538683.055 6    463671.117 6    352860.21146  23538680.55946
  21535869.461 6   -376236.043 6   -288081.78947  21535866.07447
  22482032.430 5    459641.590 5    553305.23447  22482030.85247
 18  5 30  0 23 20.0000000  0  9G03G14G16G22G26G27G29G31G32         -0.000282644
  23685013.875 1    -75871.523 1                
  20533573.352 6    -65386.965 6    -50011.71948  20533570.57448
  20588924.094 7  -1002070.941 7   -765560.84848  20588919.92248
  23571083.742 5   -140525.344 5   -106720.41047  23571078.37547
  20566677.602 6   -222905.273 6   -170408.40648  20566676.48448
  22780633.672 4  -2082365.008 4  -1589713.41447  22780634.79347
  23539696.969 6    469000.824 6    357013.21946  23539695.16046
  21535041.008 6   -380587.582 6   -291472.59447  21535037.74647
  22483605.719 6    467912.125 6    559749.80947  22483604.81647
 18  5 30  0 23 25.0000000  0  9G03G14G16G22G26G27G29G31G32         -0.000287066
  23684028.898 1    -81038.480 1                
  20533502.742 6    -65757.602 6    -50300.53148  20533499.32448
  20586891.617 7  -1012750.148 7   -773882.30948  20586887.14148
  23570801.789 5   -142005.527 5   -107873.81347  23570796.94947
  20566226.961 6   -225273.355 6   -172253.66048  20566225.85548
  22775877.883 4  -2107358.109 4  -1609188.54747  22775878.87947
  23540712.742 5    474336.988 5    361171.25446  23540710.23846
  21534212.531 6   -384941.266 6   -294865.09447  21534209.40647
  22485180.016 6    476186.234 6    566197.15247  22485179.51647
 18  5 30  0 23 30.0000000  0  9G03G14G16G22G26G27G29G31G32         -0.000291500
  23683045.82011                                
  20533434.070 6    -66118.445 6    -50581.71548  20533430.61748
  20584861.250 7  -1023421.734 7   -782197.83648  20584856.76248
  23570520.742 5   -143482.391 5   -109024.60547  23570516.13347
  20565777.141 6   -227637.953 6   -174096.21148  20565776.09848
  22771121.875 4  -2132351.738 4  -1628664.11747  22771122.90247
  23541729.266 5    479679.980 5    365334.63745  23541727.05945
  21533383.414 6   -389296.707 6   -298258.94947  21533380.05947
  22486755.594 6    484464.348 6    572647.61347  22486754.75847
 18  5 30  0 23 35.0000000  0  9G03G14G16G22G26G27G29G31G32         -0.000295927
  23682067.85211                                
  20533367.266 6    -66469.734 6    -50855.45748  20533363.95748
  20582831.633 7  -1034085.855 7   -790507.54348  20582827.61748
  23570240.414 5   -144956.191 5   -110173.02047  23570235.57447
  20565327.859 6   -229999.313 6   -175936.23048  20565326.75848
  22766365.648 4  -2157346.160 4  -1648140.29746  22766366.53146
  23542747.211 5    485029.570 5    369503.14845  23542744.77745
  21532554.680 6   -393654.148 6   -301654.35947  21532551.10247
  22488332.180 6    492746.188 6    579100.98047  22488330.98447
 18  5 30  0 23 40.0000000  0  9G03G14G16G22G26G27G29G31G32         -0.000300356
  23681082.82811    -96495.45311                
  20533302.109 6    -66811.801 6    -51122.00848  20533298.87548
  20580803.711 7  -1044742.816 7   -798811.66048  20580799.32848
  23569960.781 5   -146427.328 5   -111319.36347  23569955.59847
  20564878.898 6   -232357.668 6   -177773.91448  20564877.85548
  22761608.578 3  -2182341.566 3  -1667617.25447  22761609.89147
  23543767.211 5    490385.543 5    373676.62945  23543764.21945
  21531725.102 6   -398013.789 6   -305051.47747  21531721.71547
  22489908.602 6    501031.484 6    585557.04347  22489907.43447
 18  5 30  0 23 45.0000000  0  8G14G16G22G26G27G29G31G32            -0.000304789
  20533238.805 6    -67144.492 6    -51381.25848  20533235.29748
  20578776.914 7  -1055392.559 7   -807110.16848  20578772.47748
  23569680.891 5   -147895.645 5   -112463.50447  23569676.19547
  20564430.977 6   -234712.984 6   -179609.23048  20564429.28948
  22756851.672 4  -2207337.910 4  -1687094.93046  22756853.09046
  23544787.258 5    495747.855 5    377855.07045  23544784.32845
  21530895.328 6   -402375.590 6   -308450.29747  21530891.26247
  22491486.055 6    509320.305 6    592015.85547  22491484.93847
 18  5 30  0 23 50.0000000  0  8G14G16G22G26G27G29G31G32            -0.000309225
  20533177.438 6    -67468.227 6    -51633.52748  20533174.22348
  20576751.328 7  -1066035.469 7   -815403.33648  20576747.19548
  23569402.008 5   -149361.543 5   -113605.77347  23569397.64847
  20563982.961 6   -237065.648 6   -181442.47748  20563982.08648
  22752094.531 4  -2232335.570 4  -1706573.62146  22752096.41446
  23545809.250 5    501116.250 5    382038.22345  23545805.66445
  21530065.180 6   -406739.930 6   -311851.10247  21530061.34847
  22493064.008 6    517612.250 6    598477.08647  22493063.02747
 18  5 30  0 23 55.0000000  0  8G14G16G22G26G27G29G31G32            -0.000313663
  20533117.492 6    -67783.109 6    -51878.89548  20533114.26648
  20574727.469 6  -1076671.613 6   -823691.24248  20574723.31648
  23569123.680 5   -150825.082 5   -114746.21547  23569118.83247
  20563535.570 6   -239415.742 6   -183273.72348  20563534.69548
  22747337.680 4  -2257334.578 4  -1726053.36746  22747339.21146
  23546832.172 5    506490.570 5    386225.99645  23546828.21945
  21529234.359 6   -411106.875 6   -315253.91847  21529230.50847
  22494642.438 6    525907.246 6    604940.72347  22494641.68447
 18  5 30  0 24  0.0000000  0  8G14G16G22G26G27G29G31G32            -0.000318106
  20533059.156 6    -68088.531 6    -52116.89548  20533055.83248
  20572705.219 7  -1087300.449 7   -831973.44948  20572700.76648
  23568845.484 5   -152285.727 5   -115884.37147  23568840.96147
  20563089.672 6   -241762.684 6   -185102.50848  20563088.02348
  22742580.547 5  -2282334.336 5  -1745533.69946  22742581.13746
  23547855.875 5    511871.371 5    390418.85945  23547852.19945
  21528402.453 6   -415475.852 6   -318658.31647  21528398.60947
  22496221.453 5    534205.836 5    611407.13347  22496220.92247
 18  5 30  0 24  5.0000000  0  8G14G16G22G26G27G29G31G32            -0.000322552
  20533002.750 6    -68384.789 6    -52347.75048  20532999.68448
  20570683.609 7  -1097922.227 7   -840250.15648  20570679.58248
  23568567.203 5   -153743.785 5   -117020.53946  23568562.94546
  20562643.500 6   -244106.770 6   -186929.07448  20562641.87948
  22737822.664 5  -2307335.156 5  -1765014.85246  22737823.33246
  23548881.578 5    517258.352 5    394616.47745  23548877.08245
  21527570.984 7   -419847.137 7   -322064.52047  21527567.02747
  22497801.039 5    542507.770 5    617876.16447  22497800.69147
 18  5 30  0 24 10.0000000  0  8G14G16G22G26G27G29G31G32            -0.000327000
  20532948.445 6    -68670.410 6    -52570.32048  20532945.53148
  20568664.016 7  -1108535.469 7   -848520.21948  20568660.14848
  23568290.625 5   -155197.695 5   -118153.46546  23568286.16046
  20562197.891 6   -246446.535 6   -188752.27048  20562196.64148
  22733065.570 5  -2332335.461 5  -1784495.61746  22733066.25846
  23549907.906 5    522653.063 5    398820.13345  23549903.59845
  21526738.523 7   -424219.211 7   -325471.33247  21526735.47347
  22499381.523 5    550814.492 5    624348.92247  22499381.53147
 18  5 30  0 24 15.0000000  0  8G14G16G22G26G27G29G31G32            -0.000331450
  20532895.797 6    -68945.992 6    -52785.07048  20532892.90648
  20566645.906 6  -1119140.789 6   -856784.10948  20566641.81348
  23568015.227 5   -156648.219 5   -119283.76646  23568010.01646
  20561753.164 6   -248782.617 6   -190572.58248  20561752.49648
  22728307.586 5  -2357335.949 5  -1803976.49646  22728308.27046
