     2.10           OBSERVATION DATA    GPS(GPS)            RINEX VERSION / TYPE
cnvtToRINEX 2.50.0  convertToRINEX OPR  30-May-18 13:31 UTC PGM / RUN BY / DATE 
----------------------------------------------------------- COMMENT             
GG201                                                       MARKER NAME         
GG201                                                       MARKER NUMBER       
GNSS Observer       Trimble                                 OBSERVER / AGENCY   
0220379195          5700                2.32                REC # / TYPE / VERS 
                    TRM39105-00                             ANT # / TYPE
 -2965768.9569  5006108.2420  2603954.8067                  APPROX POSITION XYZ 
        1.4820        1.4403        1.4863                  ANTENNA: DELTA H/E/N
     1     1     0                                          WAVELENGTH FACT L1/2
     4    C1    L1    L2    P2                              # / TYPES OF OBSERV 
  2018     5    30     0    28   55.0000000     GPS         TIME OF FIRST OBS   
  2018     5    30     1    35   55.0000000     GPS         TIME OF LAST OBS    
     0                                                      RCV CLOCK OFFS APPL 
    17                                                      LEAP SECONDS        
    12                                                      # OF SATELLITES     
   G03   797   790   734   734                              PRN / # OF OBS      
   G08   440   439   439   439                              PRN / # OF OBS      
   G14   805   805   805   805                              PRN / # OF OBS      
   G16   805   805   805   805                              PRN / # OF OBS      
   G21   348   328   152   152                              PRN / # OF OBS      
   G22   696   696   696   696                              PRN / # OF OBS      
   G23   805   805   805   805                              PRN / # OF OBS      
   G26   805   805   805   805                              PRN / # OF OBS      
   G27   805   805   805   805                              PRN / # OF OBS      
   G29   268   256    78    78                              PRN / # OF OBS      
   G31   805   805   805   805                              PRN / # OF OBS      
   G32   532   525   501   501                              PRN / # OF OBS      
CARRIER PHASE MEASUREMENTS: PHASE SHIFTS REMOVED            COMMENT             
                                                            END OF HEADER       
 18  5 30  0 28 55.0000000  0  8G03G14G16G23G26G27G31G32            -0.000452623
  23660541.08616    -55010.47716    -30509.20757  23660540.23857
  20573085.79717    -25695.43017    -14224.20359  20573081.38759
  20494916.41416    -94701.63716    -51104.15258  20494911.10258
  24183438.47715   -175232.23815    -73243.60556  24183432.18856
  20577397.40617    -39712.60217    -22424.58659  20577394.91859
  22501552.93016   -179045.96916    -99150.32458  22501550.34458
  21519261.89816    -57779.42216    -39272.04757  21519256.80957
  22631155.83616     26914.70716     17341.93858  22631153.47758
 18  5 30  0 29  0.0000000  0  8G03G14G16G23G26G27G31G32            -0.000460087
  23658795.172 5    -64182.906 5    -37656.56647  23658794.84047
  20572285.023 6    -29905.031 6    -17504.41048  20572280.19948
  20492126.422 6   -109363.672 6    -62529.12548  20492120.87948
  24177982.859 5   -203900.895 5    -95582.82447  24177976.88747
  20576134.047 7    -46351.023 7    -27597.38349  20576131.26249
  22495941.594 6   -208531.918 6   -122126.39847  22495939.10547
  21517559.359 6    -66725.863 6    -46243.30147  21517554.36747
  22631922.945 6     30944.852 6     20482.31348  22631920.82848
 18  5 30  0 29  5.0000000  0  8G03G14G16G23G26G27G31G32            -0.000467550
  23657051.375 5    -73348.227 5    -44798.35247  23657050.72347
  20571486.313 7    -34104.953 7    -20777.07048  20571481.16448
  20489337.148 7   -124018.152 7    -73948.19548  20489331.94148
  24172527.164 6   -232570.563 6   -117922.88747  24172520.88347
  20574871.633 7    -52986.363 7    -32767.78149  20574868.71949
  22490331.164 6   -238017.230 6   -145101.89548  22490328.19548
  21515857.180 6    -75673.629 6    -53215.60247  21515851.47347
  22632690.586 7     34978.492 7     23625.32048  22632688.20348
 18  5 30  0 29 10.0000000  0  8G03G14G16G23G26G27G31G32            -0.000475016
  23655308.984 5    -82500.516 5    -51930.01647  23655308.55147
  20570689.688 7    -38289.242 7    -24037.59048  20570684.54748
  20486551.633 7   -138659.219 7    -85356.81648  20486545.46548
  24167072.031 5   -261235.262 5   -140258.98046  24167066.23846
  20573610.422 7    -59612.770 7    -37931.21148  20573608.37948
  22484721.328 6   -267495.984 6   -168072.48048  22484718.77348
  21514154.977 5    -84616.734 5    -60184.24247  21514149.51247
  22633459.539 6     39021.395 6     26775.73847  22633457.50447
 18  5 30  0 29 15.0000000  0  8G03G14G16G23G26G27G31G32            -0.000482475
  23653571.359 5    -91634.707 5    -59047.57447  23653570.04747
  20569897.188 7    -42452.836 7    -27281.94548  20569892.18848
  20483768.867 7   -153281.809 7    -96751.04748  20483762.68448
  24161618.859 5   -289890.000 5   -162587.32447  24161613.19547
  20572351.961 7    -66225.113 7    -43083.69548  20572350.09448
  22479114.227 6   -296963.281 6   -191033.98448  22479111.44148
  21512454.672 6    -93550.262 6    -67145.44547  21512449.56347
  22634231.734 6     43078.773 6     29937.28947  22634229.03947
 18  5 30  0 29 20.0000000  0 10G03G14G16G22G23G26G27G29G31G32      -0.000489925
  23651837.297 6   -100748.145 6    -66149.02747  23651835.68447
  20569109.797 7    -46593.043 7    -30508.09848  20569104.16448
  20480990.102 7   -167883.219 7   -108128.77348  20480984.30948
  23586465.16415    -33065.54715    -23505.94556  23586458.40656
  24156169.172 6   -318532.125 6   -184905.86346  24156162.92246
  20571096.938 7    -72820.777 7    -48223.18849  20571094.68849
  22473510.070 6   -326416.305 6   -213984.35248  22473507.07848
  23652371.25812      8472.08212                
  21510756.992 6   -102471.500 6    -74097.07447  21510751.60947
  22635007.047 6     47153.266 6     33112.17648  22635004.71948
 18  5 30  0 29 25.0000000  0 10G03G14G16G22G23G26G27G29G31G32      -0.000497372
  23650107.734 6   -109838.488 6    -73232.39847  23650105.99647
  20568326.656 7    -50707.469 7    -33714.14148  20568321.50048
  20478215.828 6   -182461.031 6   -119488.10948  20478210.40248
  23585378.273 6    -38777.691 6    -27956.96546  23585371.31346
  24150721.734 5   -347159.137 5   -207212.61346  24150715.91446
  20569845.547 7    -79397.340 7    -53347.77749  20569843.43449
  22467908.266 6   -355852.617 6   -236921.73448  22467905.27748
  23652631.273 1      9831.941 1                
  21509061.898 6   -111377.941 6    -81037.16047  21509056.66447
  22635785.609 6     51247.219 6     36302.24248  22635783.75048
 18  5 30  0 29 29.9990000  0 10G03G14G16G22G23G26G27G29G31G32       0.000495192
  23648382.542 5   -118902.594 5    -80295.35947  23648381.19847
  20567548.698 6    -54794.004 6    -36898.46948  20567543.51948
  20475447.370 7   -197011.070 7   -130825.81348  20475441.56548
  23584295.964 6    -44468.707 6    -32391.52746  23584288.55846
  24145278.534 5   -375764.043 5   -229502.16846  24145272.06246
  20568598.237 7    -85952.227 7    -58455.49249  20568595.70649
  22462311.339 6   -385265.020 6   -259840.48448  22462308.76948
  23652893.097 1     11215.156 1                
  21507370.526 6   -120266.539 6    -87963.34847  21507365.20247
  22636568.831 6     55361.109 6     39507.87148  22636566.92948
 18  5 30  0 29 34.9990000  0 10G03G14G16G22G23G26G27G29G31G32       0.000487761
  23646661.917 5   -127942.961 5    -87339.77347  23646661.12447
  20566776.503 6    -58853.250 6    -40061.51248  20566771.31248
  20472683.261 7   -211538.066 7   -142145.55548  20472677.30048
  23583216.573 6    -50139.773 6    -36810.53946  23583209.85546
  24139837.495 5   -404357.141 5   -251782.49646  24139831.35146
  20567354.636 7    -92486.949 7    -63547.49649  20567352.48049
  22456716.519 6   -414664.188 6   -282748.93448  22456714.08148
  23653159.01911                                
  21505682.230 6   -129139.805 6    -94877.57847  21505676.70247
  22637355.855 6     59497.660 6     42731.14848  22637353.99148
 18  5 30  0 29 39.9990000  0 10G03G14G16G22G23G26G27G29G31G32       0.000480339
  23644947.409 5   -136957.461 5    -94364.07447  23644945.39747
  20566009.433 7    -62883.941 7    -43202.32848  20566004.09348
  20469923.831 6   -226038.738 6   -153444.78548  20469917.87448
  23582141.034 6    -55789.422 6    -41212.85946  23582135.05446
  24134399.917 5   -432932.313 5   -274048.85946  24134393.67946
  20566115.409 7    -98999.855 7    -68622.48449  20566112.90149
  22451125.667 6   -444043.871 6   -305642.21148  22451123.62048
  23653433.78411                                
  21503996.722 6   -137995.512 6   -101778.13347  21503991.57747
  22638147.167 6     63656.445 6     45971.73848  22638145.39748
 18  5 30  0 29 44.9990000  0 10G03G14G16G22G23G26G27G29G31G32       0.000472929
  23643236.237 6   -145945.938 6   -101368.08247  23643235.09747
  20565247.933 6    -66885.938 6    -46320.77348  20565242.73748
  20467169.269 7   -240512.941 7   -164723.38748  20467163.47248
  23581070.644 6    -61417.504 6    -45598.37947  23581064.39747
  24128965.550 5   -461489.449 5   -296301.18047  24128958.98347
  20564880.237 7   -105490.777 7    -73680.35249  20564878.19049
  22445538.417 6   -473403.883 6   -328520.13348  22445536.76548
  23653708.82311                                
  21502314.761 6   -146833.523 6   -108664.91047  21502309.98347
  22638943.026 6     67837.594 6     49229.74648  22638941.12848
 18  5 30  0 29 49.9990000  0 10G03G14G16G22G23G26G27G29G31G32       0.000465530
  23641530.206 5   -154908.379 5   -108351.80947  23641529.38647
  20564491.667 6    -70859.262 6    -49416.87148  20564486.67148
  20464419.800 6   -254960.676 6   -175981.34848  20464414.39048
  23580003.956 6    -67023.934 6    -49967.04347  23579997.04647
  24123534.862 5   -490028.488 5   -318539.36346  24123528.25746
  20563648.886 7   -111959.754 7    -78721.10949  20563646.83149
  22439955.026 6   -502744.238 6   -351382.74647  22439952.99547
  23653993.87011     16998.82811                
  21500636.745 6   -155653.797 6   -115537.85947  21500631.05447
  22639743.136 6     72041.066 6     52505.17647  22639741.11247
 18  5 30  0 29 54.9990000  0 10G03G14G16G22G23G26G27G29G31G32       0.000458136
  23639830.175 5   -163845.859 5   -115316.08647  23639828.89747
  20563740.823 6    -74804.984 6    -52491.46948  20563735.71848
  20461675.448 6   -269383.035 6   -187219.55948  20461669.91748
  23578940.456 6    -72609.883 6    -54319.73847  23578934.49147
  24118107.222 5   -518550.488 5   -340764.31646  24118101.34346
  20562422.261 7   -118407.805 7    -83745.56649  20562420.02249
  22434375.401 6   -532065.961 6   -374230.83648  22434373.30048
  23654281.78411     18506.64511                
  21498961.347 6   -164457.426 6   -122397.84447  21498956.00747
  22640546.628 6     76265.727 6     55797.09448  22640544.84748
 18  5 30  0 29 59.9990000  0 10G03G14G16G22G23G26G27G29G31G32       0.000450750
  23638133.581 5   -172758.582 5   -122261.08247  23638132.81247
  20562995.183 7    -78723.250 7    -55544.67248  20562990.32748
  20458935.855 7   -283780.160 7   -198438.10248  20458929.76548
  23577881.472 6    -78175.445 6    -58656.54347  23577875.57347
  24112682.894 5   -547055.621 5   -362976.10246  24112676.58946
  20561198.987 7   -124835.125 7    -88753.87149  20561197.12449
  22428798.753 5   -561369.141 5   -397064.46547  22428797.57347
  23654571.69011                                
  21497289.230 6   -173244.566 6   -129244.95747  21497284.03047
  22641354.511 6     80511.621 6     59105.57448  22641353.12048
 18  5 30  0 30  4.9990000  0 10G03G14G16G22G23G26G27G29G31G32       0.000443375
  23636442.620 5   -181647.309 5   -129187.36747  23636440.48347
  20562254.776 7    -82614.906 7    -58577.13748  20562249.67948
  20456201.136 7   -298152.824 7   -209637.57848  20456194.72648
  23576826.417 6    -83721.512 6    -62978.15646  23576820.19846
  24107261.714 5   -575544.637 5   -385175.34446  24107254.74146
  20559979.800 7   -131242.555 7    -93746.68049  20559977.75349
  22423225.917 5   -590654.660 5   -419884.35547  22423224.48347
  23654864.44011                                
  21495619.987 6   -182016.043 6   -136079.89147  21495614.88647
  22642166.495 6     84777.766 6     62429.82848  22642164.89748
 18  5 30  0 30  9.9990000  0 10G03G14G16G22G23G26G27G29G31G32       0.000436007
  23634755.894 6   -190513.180 6   -136095.86347  23634753.35847
  20561519.167 7    -86481.012 7    -61589.69948  20561513.92548
  20453470.284 7   -312502.176 7   -220818.88748  20453464.19848
  23575774.097 6    -89249.145 6    -67285.39847  23575768.15947
  24101843.464 5   -604018.688 5   -407362.84446  24101836.26546
  20558763.784 7   -137631.164 7    -98724.80949  20558762.04249
  22417656.980 6   -619923.574 6   -442691.30547  22417654.97247
  23655168.62011     23167.00411                
  21493953.581 6   -190772.891 6   -142903.42647  21493948.27647
  22642982.073 6     89063.094 6     65769.03548  22642980.19048
 18  5 30  0 30 14.9990000  0  9G03G14G16G22G23G26G27G31G32          0.000428644
  23633072.456 5   -199356.293 5   -142986.54346  23633070.49946
  20560788.128 6    -90321.676 6    -64582.40648  20560782.80848
  20450743.784 6   -326828.313 6   -231982.11748  20450737.85848
  23574725.823 6    -94758.449 6    -71578.35246  23574719.84746
  24096427.620 5   -632477.746 5   -429538.74246  24096420.55046
  20557551.628 7   -144001.078 7   -103688.38748  20557549.86648
  22412089.847 6   -649175.926 6   -465485.32847  22412087.78047
  21492290.612 6   -199515.254 6   -149715.65647  21492285.09747
  22643801.917 6     93367.578 6     69123.14548  22643799.75348
 18  5 30  0 30 19.9990000  0 10G03G14G16G22G23G26G27G29G31G32       0.000421289
  23631394.495 6   -208177.207 6   -149860.03147  23631392.01147
  20560062.112 6    -94137.504 6    -67555.78548  20560057.24948
  20448022.378 6   -341131.785 6   -243127.67248  20448015.83548
  23573680.933 6   -100250.055 6    -75857.55147  23573674.99547
  24091015.003 6   -660922.613 6   -451703.62546  24091007.62846
  20556343.144 7   -150352.879 7   -108637.85249  20556341.30049
  22406526.612 6   -678412.324 6   -488266.92248  22406525.15948
  23655776.90911     26384.62911                
  21490629.440 6   -208243.746 6   -156517.07447  21490623.84347
  22644624.026 6     97690.457 6     72491.62147  22644622.15947
 18  5 30  0 30 24.9990000  0 10G03G14G16G22G23G26G27G29G31G32       0.000413940
  23629720.050 6   -216977.016 6   -156717.02047  23629717.71047
  20559340.261 6    -97929.504 6    -70510.59848  20559335.66348
  20445304.331 6   -355413.625 6   -254256.37948  20445298.50748
  23572639.347 6   -105724.984 6    -80123.74247  23572633.19447
  24085604.073 6   -689354.094 6   -473858.02746  24085596.93346
  20555137.550 7   -156687.559 7   -113573.97749  20555136.14449
  22400966.394 6   -707633.750 6   -511036.87148  22400964.63648
  23656091.339 1     28024.914 1                
  21488970.972 6   -216959.320 6   -163308.43047  21488965.31247
  22645450.073 6    102030.844 6     75873.71547  22645447.85847
 18  5 30  0 30 29.9990000  0 10G03G14G16G22G23G26G27G29G31G32       0.000406599
  23628049.464 5   -225754.941 5   -163556.97747  23628047.08147
  20558623.245 6   -101696.953 6    -73446.27748  20558618.51548
  20442591.230 6   -369673.152 6   -265367.69148  20442584.78848
  23571600.683 6   -111182.500 6    -84376.34447  23571594.49947
  24080196.089 5   -717771.520 5   -496001.47346  24080189.37846
  20553935.472 7   -163004.492 7   -118496.26249  20553934.31949
  22395408.987 6   -736839.512 6   -533794.60248  22395406.71048
  23656408.581 1     29686.262 1                
  21487314.565 6   -225661.285 6   -170089.19547  21487309.32747
  22646279.378 6    106389.391 6     79269.98047  22646277.75347
 18  5 30  0 30 34.9990000  0 10G03G14G16G22G23G26G27G29G31G32       0.000399261
  23626382.612 5   -234512.578 5   -170381.13347  23626380.48347
  20557910.917 6   -105441.418 6    -76364.04748  20557905.85148
  20439881.362 6   -383911.930 6   -276462.84448  20439875.49948
  23570564.933 6   -116624.188 6    -88616.62547  23570558.94447
  24074791.487 6   -746176.473 6   -518135.18446  24074784.33146
  20552736.823 7   -169305.184 7   -123405.90649  20552735.04249
  22389853.206 6   -766031.078 6   -556541.26647  22389851.75747
  23656729.19811                                
  21485660.901 6   -234351.191 6   -176860.54347  21485655.32747
  22647111.948 6    110764.484 6     82679.10948  22647110.62448
 18  5 30  0 30 39.9990000  0 10G03G14G16G22G23G26G27G29G31G32       0.000391932
  23624720.292 6   -243251.172 6   -177190.41846  23624717.38646
  20557202.808 6   -109164.113 6    -79264.85248  20557198.09748
  20437175.487 6   -398131.184 6   -287542.78148  20437169.93348
  23569532.511 6   -122051.270 6    -92845.53547  23569526.52247
  24069388.667 5   -774570.145 5   -540260.13346  24069381.36246
  20551540.769 7   -175590.898 7   -128303.86749  20551538.86649
  22384301.128 6   -795209.762 6   -579277.89847  22384299.37047
  23657052.44811     33065.90211                
  21484009.706 6   -243030.309 6   -183623.49247  21484004.41347
  22647947.175 6    115154.949 6     86100.24648  22647945.81248
 18  5 30  0 30 44.9990000  0 10G03G14G16G22G23G26G27G29G31G32       0.000384605
  23623060.909 6   -251970.324 6   -183984.55146  23623057.99546
  20556498.526 6   -112864.648 6    -82148.38348  20556493.42948
  20434473.386 6   -412330.461 6   -298607.15648  20434467.42948
  23568502.776 6   -127463.355 6    -97062.73847  23568496.39747
  24063987.581 5   -802952.066 5   -562375.91046  24063980.10146
  20550347.472 7   -181861.215 7   -133189.83249  20550345.77249
  22378751.034 6   -824375.031 6   -602004.07447  22378749.25347
  23657378.815 1     34783.422 1                
  21482359.737 6   -251698.137 6   -190377.65247  21482355.06947
  22648785.753 6    119561.176 6     89533.66847  22648784.28447
 18  5 30  0 30 49.9990000  0 10G03G14G16G22G23G26G27G29G31G32       0.000377285
  23621405.542 6   -260669.625 6   -190763.22346  23621402.32346
  20555798.542 6   -116542.641 6    -85014.36348  20555793.65948
  20431775.214 6   -426509.422 6   -309655.70348  20431769.29648
  23567475.605 6   -132860.090 6   -101268.02747  23567468.61647
  24058588.480 5   -831321.867 5   -584482.25046  24058581.38646
  20549157.175 7   -188115.750 7   -138063.49649  20549156.20649
  22373203.128 6   -853526.574 6   -624719.56647  22373201.54247
  23657710.183 1     36519.953 1                
  21480712.620 6   -260354.320 6   -197122.74247  21480707.19047
  22649627.745 6    123983.566 6     92979.68847  22649625.82747
 18  5 30  0 30 54.9990000  0 10G03G14G16G22G23G26G27G29G31G32       0.000369968
  23619753.339 6   -269349.293 6   -197526.62546  23619750.52246
  20555102.565 6   -120198.309 6    -87862.94548  20555098.27648
  20429081.167 7   -440668.301 7   -320688.59048  20429075.72248
  23566451.651 6   -138241.719 6   -105461.49247  23566444.52247
  24053191.675 5   -859679.707 5   -606579.25846  24053184.84746
  20547970.003 7   -194354.719 7   -142925.04749  20547968.50349
  22367658.917 6   -882664.512 6   -647424.46147  22367656.91347
  23658044.956 1     38275.160 1                
  21479068.245 6   -268999.027 6   -203858.88747  21479062.59747
  22650471.620 6    128421.867 6     96438.07448  22650470.81548
 18  5 30  0 30 59.9990000  0 10G03G14G16G22G23G26G27G29G31G32       0.000362659
  23618105.620 5   -278009.762 5   -204275.02746  23618102.58146
  20554411.300 7   -123832.012 7    -90694.40648  20554406.40148
  20426390.042 6   -454807.434 6   -331706.09448  20426384.84348
  23565430.394 6   -143608.598 6   -109643.48847  23565423.49147
  24047798.276 5   -888026.035 5   -628667.31346  24047791.19046
  20546785.667 7   -200578.551 7   -147774.78149  20546784.39049
  22362116.300 6   -911789.223 6   -670119.04347  22362114.39747
  23658381.120 1     40048.664 1                
  21477425.097 6   -277632.652 6   -210586.38747  21477420.11647
  22651319.300 6    132875.691 6     99908.57847  22651318.42547
 18  5 30  0 31  4.9990000  0 10G03G14G16G22G23G26G27G29G31G32       0.000355354
  23616461.105 5   -286650.871 5   -211008.37146  23616458.17546
  20553724.315 7   -127443.672 7    -93508.68848  20553719.31548
  20423703.105 6   -468926.715 6   -342708.14148  20423697.94448
  23564411.792 6   -148960.629 6   -113813.90647  23564404.75347
  24042406.605 5   -916360.684 5   -650746.24246  24042398.91346
  20545604.237 7   -206787.086 7   -152612.60249  20545602.58949
  22356576.745 6   -940900.672 6   -692803.28947  22356574.39747
  23658721.323 1     41840.688 1                
  21475784.237 6   -286255.082 6   -217305.16447  21475779.30047
  22652169.995 6    137345.129 6    103391.25447  22652168.96047
 18  5 30  0 31  9.9990000  0 10G03G14G16G22G23G26G27G29G31G32       0.000348053
  23614820.136 5   -295272.980 5   -217726.89846  23614817.67146
  20553041.026 7   -131033.602 7    -96306.04748  20553036.24948
  20421020.651 6   -483026.504 6   -353694.97748  20421014.53848
  23563396.136 6   -154298.094 6   -117972.97347  23563389.07347
  24037016.511 5   -944683.891 5   -672816.28546  24037009.14746
  20544425.792 7   -212980.684 7   -157438.78949  20544424.49549
  22351039.401 6   -969999.027 6   -715477.33647  22351037.19847
  23659065.769 1     43650.797 1                
  21474145.347 6   -294866.633 6   -224015.47347  21474140.16747
  22653023.425 6    141829.922 6    106885.85947  22653022.45247
 18  5 30  0 31 14.9990000  0 10G03G14G16G22G23G26G27G29G31G32       0.000340757
  23613182.534 5   -303876.266 5   -224430.77346  23613180.61646
  20552362.198 6   -134601.965 6    -99086.59848  20552357.61648
  20418341.065 6   -497106.961 6   -364666.76248  20418334.80448
  23562383.269 6   -159621.254 6   -122120.89847  23562376.03847
  24031628.558 5   -972995.887 5   -694877.60246  24031621.31246
  20543249.487 7   -219159.520 7   -162253.46949  20543248.64049
  22345504.769 6   -999084.523 6   -738141.34847  22345502.66347
  23659413.409 1     45479.027 1                
  21472509.065 6   -303467.469 6   -230717.42247  21472504.14747
  22653879.862 6    146329.789 6    110392.23847  22653878.58147
 18  5 30  0 31 19.9990000  0 10G03G14G16G22G23G26G27G29G31G32       0.000333466
  23611550.081 5   -312460.340 5   -231119.68046  23611547.28446
  20551687.097 7   -138148.422 7   -101850.07848  20551682.47648
  20415665.198 6   -511167.715 6   -375623.19148  20415659.23748
  23561372.925 6   -164929.711 6   -126257.34847  23561365.65547
  24026243.237 5  -1001296.293 5   -716929.85546  24026236.03046
  20542076.761 7   -225323.254 7   -167056.39149  20542075.33549
  22339972.394 6  -1028156.785 6   -760795.05547  22339970.08547
  23659763.698 1     47325.340 1                
  21470874.480 6   -312057.207 6   -237410.73847  21470869.41347
  22654738.417 6    150845.137 6    113910.66447  22654737.50347
 18  5 30  0 31 24.9990000  0 10G03G14G16G22G23G26G27G29G31G32       0.000326180
  23609919.886 5   -321025.766 5   -237794.01646  23609917.01546
  20551016.636 7   -141673.379 7   -104596.80548  20551012.08948
  20412993.386 6   -525209.215 6   -386564.62148  20412987.24148
  23560365.495 6   -170223.938 6   -130382.73447  23560357.97647
  24020860.245 5  -1029585.516 5   -738973.40246  24020853.03046
  20540906.612 7   -231472.301 7   -171847.85949  20540905.45649
  22334442.503 6  -1057216.199 6   -783438.76247  22334440.50747
  23660118.386 1     49189.566 1                
  21469241.769 6   -320636.395 6   -244095.81347  21469236.72247
  22655600.776 6    155375.500 6    117440.81347  22655599.44847
 18  5 30  0 31 29.9990000  0 10G03G14G16G22G23G26G27G29G31G32       0.000318899
  23608293.292 5   -329572.328 5   -244453.70746  23608290.80046
  20550349.800 7   -145176.832 7   -107326.77348  20550344.98048
  20410325.261 7   -539231.461 7   -397491.05548  20410319.30048
  23559361.409 6   -175503.898 6   -134496.97747  23559353.87847
  24015478.698 5  -1057863.500 5   -761008.19146  24015472.04246
  20539739.230 7   -237606.656 7   -176627.88349  20539737.55049
  22328915.589 6  -1086262.746 6   -806072.42647  22328912.92547
  23660477.237 1     51071.641 1                
  21467611.230 6   -329204.801 6   -250772.48847  21467606.57347
  22656466.011 6    159920.945 6    120982.69947  22656464.85147
 18  5 30  0 31 34.9990000  0 10G03G14G16G22G23G26G27G29G31G32       0.000311623
  23606670.573 5   -338100.629 5   -251099.10246  23606668.03846
  20549686.862 7   -148659.266 7   -110040.36748  20549681.86248
  20407660.206 6   -553234.875 6   -408402.80548  20407653.83948
  23558359.120 6   -180770.016 6   -138600.46947  23558352.05047
  24010099.605 5  -1086130.766 5   -783034.62146  24010093.29646
  20538574.675 7   -243726.777 7   -181396.80949  20538573.15549
  22323390.386 6  -1115296.863 6   -828696.43048  22323388.15148
  23660839.284 1     52971.117 1                
  21465982.776 6   -337763.047 6   -257441.27047  21465977.53447
  22657333.198 6    164480.895 6    124535.89847  22657332.54247
 18  5 30  0 31 39.9990000  0  9G03G14G16G22G23G26G27G31G32          0.000304348
  23605050.948 5   -346610.133 5   -257729.93446  23605048.46446
  20549028.245 6   -152120.133 6   -112737.16848  20549023.67548
  20404999.089 6   -567218.918 6   -419299.45748  20404993.22248
  23557359.472 6   -186021.809 6   -142692.78947  23557352.65147
  24004722.019 5  -1114386.663 5   -805052.22646  24004716.18746
  20537412.901 7   -249832.145 7   -186154.23849  20537411.41749
  22317867.315 6  -1144317.941 6   -851310.27047  22317865.44047
  21464356.878 6   -346310.445 6   -264101.55547  21464351.31947
  22658204.120 6    169056.098 6    128100.97747  22658203.15947
 18  5 30  0 31 44.9990000  0  9G03G14G16G22G23G26G27G31G32          0.000297083
  23603436.144 5   -355100.535 5   -264345.72346  23603432.68746
  20548374.206 7   -155559.184 7   -115416.94148  20548369.19448
  20402341.620 6   -581183.422 6   -430180.91848  20402335.91748
  23556362.636 6   -191259.133 6   -146773.81347  23556356.26947
  23999347.714 5  -1142631.090 5   -827060.80946  23999341.02646
  20536254.026 7   -255922.547 7   -190900.00448  20536252.30448
  22312347.980 6  -1173325.871 6   -873913.87147  22312345.65947
  21462731.909 6   -354846.957 6   -270753.39147  21462726.54647
  22659078.128 6    173646.441 6    131677.87947  22659076.46447
 18  5 30  0 31 49.9990000  0  9G03G14G16G22G23G26G27G31G32          0.000289820
  23601824.433 5   -363572.395 5   -270947.24246  23601820.69846
  20547723.558 7   -158976.910 7   -118080.11348  20547718.83548
  20399687.894 7   -595128.840 7   -441047.48448  20399682.12848
  23555368.667 6   -196482.410 6   -150843.86347  23555362.80447
  23993975.815 5  -1170864.340 5   -849060.82447  23993968.37447
  20535097.987 7   -261998.441 7   -195634.47748  20535096.26948
  22306829.644 5  -1202320.980 5   -896507.37947  22306827.80447
  21461108.706 5   -363372.879 5   -277396.98046  21461104.20646
  22659953.909 6    178251.734 6    135266.35248  22659952.71048
 18  5 30  0 31 54.9990000  0  9G03G14G16G22G23G26G27G31G32          0.000282562
  23600214.784 5   -372024.930 5   -277533.61746  23600212.02246
  20547077.706 7   -162372.574 7   -120726.09448  20547072.50748
  20397037.964 6   -609054.418 6   -451898.58648  20397032.10148
  23554377.698 6   -201690.809 6   -154902.40647  23554371.59347
  23988604.839 5  -1199085.754 5   -871051.44546  23988598.00346
  20533944.542 7   -268059.074 7   -200357.05948  20533943.02648
  22301314.386 6  -1231302.531 6   -919090.48847  22301312.55847
  21459488.847 6   -371887.512 6   -284031.77347  21459483.41347
  22660833.558 6    182872.621 6    138867.09047  22660832.38647
 18  5 30  0 31 59.9990000  0  9G03G14G16G22G23G26G27G31G32          0.000275311
  23598610.667 5   -380458.496 5   -284105.27046  23598607.31546
  20546435.526 6   -165746.500 6   -123355.11348  20546430.33148
  20394392.011 6   -622960.547 6   -462734.50448  20394386.03048
  23553389.573 6   -206884.758 6   -158949.67247  23553383.31247
  23983236.370 5  -1227295.672 5   -893033.25046  23983230.04246
  20532794.050 7   -274104.828 7   -205068.05549  20532792.29649
  22295802.276 6  -1260270.934 6   -941663.21147  22295800.38647
  21457871.190 6   -380391.254 6   -290658.03547  21457865.18347
  22661715.886 6    187508.688 6    142479.54347  22661714.07747
 18  5 30  0 32  4.9990000  0 10G03G14G16G22G23G26G27G29G31G32       0.000268063
  23597009.636 5   -388872.906 5   -290661.96946  23597006.28446
  20545797.784 6   -169098.430 6   -125967.01648  20545792.98348
  20391749.144 6   -636846.887 6   -473555.04748  20391743.62448
  23552403.714 6   -212064.004 6   -162985.46547  23552397.27247
  23977870.933 5  -1255493.750 5   -915005.76246  23977864.61646
  20531646.120 7   -280135.426 7   -209767.21949  20531644.76549
  22290291.800 6  -1289225.859 6   -964225.50447  22290290.22247
  23663080.05012      3063.85512                
  21456254.503 6   -388883.727 6   -297275.56647  21456249.07347
  22662600.628 6    192160.258 6    146104.15247  22662599.18347
 18  5 30  0 32  9.9990000  0 10G03G14G16G22G23G26G27G29G31G32       0.000260822
  23595411.448 5   -397267.777 5   -297203.43446  23595408.83946
  20545164.253 7   -172428.098 7   -128561.57848  20545158.92548
  20389110.855 6   -650713.195 6   -484359.95348  20389104.82748
  23551421.167 6   -217228.277 6   -167009.57047  23551414.30447
  23972507.362 5  -1283679.762 5   -936968.89846  23972500.96846
  20530502.019 7   -286150.629 7   -214454.38749  20530500.14049
  22284785.308 6  -1318166.949 6   -986776.98847  22284782.87447
  23663465.526 1      5090.414 1                
  21454641.230 6   -397364.676 6   -303884.09047  21454635.60547
  22663488.886 6    196827.641 6    149741.05147  22663487.72247
 18  5 30  0 32 14.9990000  0 10G03G14G16G22G23G26G27G29G31G32       0.000253586
  23593817.761 5   -405642.935 5   -303729.54646  23593815.32746
  20544534.128 7   -175735.227 7   -131138.56348  20544529.76548
  20386476.026 6   -664559.215 6   -495149.05948  20386470.07348
  23550441.503 6   -222377.332 6   -171021.81647  23550434.16747
  23967145.847 5  -1311853.336 5   -958922.32046  23967139.52646
  20529359.995 7   -292150.164 7   -219129.35949  20529358.15549
  22279280.308 5  -1347093.992 5  -1009317.53947  22279278.60147
  23663855.644 2      7135.840 2       897.00056  23663847.96056
  21453029.589 6   -405833.863 6   -310483.46947  21453024.55847
  22664380.597 6    201510.969 6    153390.39147  22664378.97247
 18  5 30  0 32 19.9990000  0 10G03G14G16G22G23G26G27G29G31G32       0.000246355
  23592227.089 4   -413997.945 4   -310239.94546  23592225.92546
  20543909.815 7   -179019.441 7   -133697.69948  20543904.53448
  20383844.839 6   -678384.566 6   -505922.06348  20383838.97648
  23549463.980 6   -227510.793 6   -175021.92247  23549457.07347
  23961787.690 5  -1340014.184 5   -980865.84046  23961781.01946
  20528221.323 7   -298133.633 7   -223791.80949  20528219.50349
  22273778.019 5  -1376006.613 5  -1031846.84047  22273776.59347
  23664247.894 2      9200.469 2      2505.82845  23664241.62845
  21451420.573 6   -414290.895 6   -317073.36747  21451415.28047
  22665274.472 6    206210.668 6    157052.47747  22665273.06947
 18  5 30  0 32 24.9990000  0 10G03G14G16G22G23G26G27G29G31G32       0.000239130
  23590641.558 5   -422332.727 5   -316734.56646  23590639.42546
  20543289.136 6   -182280.684 6   -136238.93048  20543284.17148
  20381218.050 6   -692189.121 6   -516678.85248  20381212.04248
  23548490.409 6   -232628.586 6   -179009.82047  23548483.22247
  23956430.362 5  -1368162.148 5  -1002799.31646  23956424.34746
  20527085.956 7   -304100.949 7   -228441.66449  20527084.38649
  22268279.355 6  -1404904.598 6  -1054364.74647  22268277.32747
  23664645.644 3     11284.418 3      4129.64545  23664639.10545
  21449813.347 6   -422735.605 6   -323653.66448  21449808.11648
  22666172.292 6    210926.902 6    160727.45347  22666170.48347
 18  5 30  0 32 29.9990000  0 10G03G14G16G22G23G26G27G29G31G32       0.000231911
  23589059.417 5   -430647.293 5   -323213.45346  23589057.15946
  20542672.769 6   -185518.875 6   -138762.19548  20542668.10548
  20378595.190 6   -705972.914 6   -527419.47348  20378589.29248
  23547519.472 6   -237730.707 6   -182985.48847  23547512.35547
  23951077.237 5  -1396297.168 5  -1024722.69946  23951071.45246
  20525953.730 7   -310052.109 7   -233078.94549  20525951.85849
  22262782.519 6  -1433787.977 6  -1076871.26647  22262780.90547
  23665044.886 3     13387.691 3      5768.48845  23665039.42545
  21448208.581 6   -431168.023 6   -330224.39148  21448203.67548
  22667072.190 6    215659.617 6    164415.26247  22667071.22247
 18  5 30  0 32 34.9990000  0 10G03G14G16G22G23G26G27G29G31G32       0.000224699
  23587481.253 5   -438940.813 5   -329675.93046  23587479.08146
  20542061.433 6   -188733.230 6   -141266.89848  20542056.26548
  20375976.550 6   -719735.105 6   -538143.26648  20375970.33548
  23546551.651 6   -242816.250 6   -186948.27347  23546544.35547
  23945725.276 5  -1424418.402 5  -1046635.33646  23945719.64746
  20524824.081 7   -315986.270 7   -237702.96949  20524822.38249
  22257289.284 6  -1462655.867 6  -1099365.73447  22257287.17547
  23665449.487 3     15511.102 3      7423.09045  23665443.81245
  21446605.792 6   -439587.285 6   -336784.86747  21446601.31547
  22667976.886 6    220409.656 6    168116.58247  22667975.03047
 18  5 30  0 32 39.9990000  0 10G03G14G16G22G23G26G27G29G31G32       0.000217493
  23585906.706 4   -447213.250 4   -336121.96946  23585905.11246
  20541454.503 6   -191923.668 6   -143752.96548  20541449.33948
  20373362.058 7   -733475.637 7   -548850.17648  20373355.60848
  23545587.253 6   -247885.230 6   -190898.14147  23545579.74947
  23940376.612 5  -1452525.840 5  -1068537.24646  23940371.37046
  20523698.198 7   -321903.418 7   -242313.73849  20523696.46049
  22251799.081 6  -1491508.246 6  -1121848.10247  22251796.85547
  23665857.503 4     17654.645 4      9093.37145  23665852.19845
  21445006.675 6   -447993.391 6   -343335.07447  21445001.64747
  22668883.628 6    225177.066 6    171831.42247  22668882.15547
 18  5 30  0 32 44.9990000  0 10G03G14G16G22G23G26G27G29G31G32       0.000210293
  23584336.901 4   -455463.945 4   -342551.09446  23584334.58146
  20540851.534 6   -195089.535 6   -146219.87548  20540846.73348
  20370750.808 6   -747193.844 6   -559539.68848  20370745.12048
  23544625.550 5   -252937.031 5   -194834.61747  23544618.52647
  23935030.940 5  -1480618.820 5  -1090427.88346  23935025.38646
  20522575.753 7   -327802.902 7   -246910.74249  20522573.80049
  22246311.636 5  -1520344.438 5  -1144317.85547  22246309.09747
  23666268.901 3     19819.000 3     10779.89145  23666264.21045
  21443409.925 6   -456385.664 6   -349874.51648  21443404.64748
  22669794.823 6    229962.465 6    175560.29347  22669792.91347
 18  5 30  0 32 49.9990000  0 10G03G14G16G22G23G26G27G29G31G32       0.000203100
  23582771.276 4   -463692.043 4   -348962.57446  23582768.89446
  20540254.011 7   -198230.051 7   -148667.03548  20540249.03448
  20368145.245 6   -760888.934 6   -570211.19148  20368139.21048
  23543668.105 6   -257970.848 6   -198757.07447  23543660.19847
  23929688.308 5  -1508696.484 5  -1112306.58647  23929682.21847
  20521456.526 7   -333683.910 7   -251493.34049  20521454.94449
  22240827.276 6  -1549163.578 6  -1166774.34447  22240825.60547
  23666685.237 3     22004.977 3     12483.20345  23666679.99145
  21441815.714 6   -464763.258 6   -356402.53147  21441810.58147
  22670708.995 6    234766.598 6    179303.77047  22670707.33147
 18  5 30  0 32 54.9990000  0 10G03G14G16G22G23G26G27G29G31G32       0.000195915
  23581209.690 4   -471897.270 4   -355356.26646  23581207.88246
  20539660.940 6   -201344.852 6   -151094.16448  20539656.63248
  20365543.487 6   -774560.566 6   -580864.41048  20365537.65148
  23542713.597 6   -262986.281 6   -202665.20347  23542706.16347
  23924347.792 5  -1536758.438 5  -1134173.03146  23924342.49946
  20520341.136 7   -339546.090 7   -256061.28549  20520339.31249
  22235346.815 6  -1577965.332 6  -1189217.25847  22235344.79247
  23667105.112 3     24212.879 3     14203.66845  23667100.52645
  21440224.448 6   -473125.840 6   -362918.82447  21440218.81547
  22671626.870 6    239589.957 6    183062.21147  22671624.72247
 18  5 30  0 32 59.9990000  0 10G03G14G16G22G23G26G27G29G31G32       0.000188738
  23579652.940 4   -480078.051 4   -361730.89146  23579650.58946
  20539073.972 6   -204432.359 6   -153500.01648  20539068.94448
  20362946.456 7   -788207.184 7   -591498.14148  20362940.59748
  23541762.769 6   -267981.816 6   -206557.84447  23541755.40547
  23919011.511 5  -1564803.094 5  -1156026.02046  23919005.67546
  20519229.214 7   -345387.914 7   -260613.36349  20519227.48749
  22229869.862 6  -1606748.109 6  -1211645.39547  22229867.07747
  23667530.605 3     26444.316 3     15942.36745  23667525.76945
  21438636.284 6   -481471.820 6   -369422.19147  21438631.03047
  22672548.698 6    244433.961 6    186836.74647  22672546.84347
 18  5 30  0 33  4.9990000  0 10G03G14G16G22G23G26G27G29G31G32       0.000181570
  23578101.034 4   -488233.918 4   -368086.10546  23578099.15946
  20538491.433 6   -207492.109 6   -155884.25048  20538486.62048
  20360354.480 6   -801828.313 6   -602112.00448  20360348.98048
  23540816.120 6   -272956.988 6   -210434.61747  23540808.97647
  23913678.284 5  -1592829.965 5  -1177865.13746  23913672.51146
  20518121.769 7   -351208.871 7   -265149.17249  20518119.75349
  22224396.519 6  -1635511.418 6  -1234058.36347  22224393.88247
  23667959.386 3     28699.648 3     17699.78945  23667954.74545
  21437051.464 6   -489800.680 6   -375912.22347  21437045.80847
  22673474.901 6    249299.176 6    190627.80147  22673473.06547
 18  5 30  0 33  9.9990000  0 10G03G14G16G22G23G26G27G29G31G32       0.000174412
  23576554.690 5   -496363.285 5   -374420.69546  23576552.42946
  20537914.800 6   -210522.563 6   -158245.65248  20537910.04648
  20357767.636 7   -815422.367 7   -612704.77748  20357762.14748
  23539873.683 6   -277910.262 6   -214294.32047  23539866.44447
  23908348.683 5  -1620837.535 5  -1199689.19547  23908342.98047
  20517017.870 7   -357007.438 7   -269667.53549  20517016.69449
  22218926.776 6  -1664253.680 6  -1256454.93447  22218924.31247
  23668393.347 3     30980.477 3     19477.04345  23668389.33145
  21435470.105 6   -498110.836 6   -382387.67647  21435464.61247
  22674404.839 6    254187.090 6    194436.54747  22674403.19847
 18  5 30  0 33 14.9990000  0 10G03G14G16G22G23G26G27G29G31G32       0.000167265
  23575012.347 5   -504465.344 5   -380733.98446  23575010.72246
  20537344.042 6   -213522.879 6   -160583.56648  20537339.14048
  20355185.886 6   -828988.535 6   -623275.82048  20355180.23048
  23538935.636 6   -282840.750 6   -218136.26247  23538928.62447
  23903022.987 5  -1648824.898 5  -1221497.54746  23903017.07346
  20515919.417 7   -362782.742 7   -274167.77349  20515917.39049
  22213461.362 6  -1692974.035 6  -1278834.42647  22213458.62047
  23668831.823 3     33287.734 3     21274.91445  23668828.90145
  21433892.230 6   -506401.477 6   -388847.92647  21433886.62847
  22675339.636 6    259098.535 6    198263.63747  22675337.84347
 18  5 30  0 33 19.9990000  0 10G03G14G16G22G23G26G27G29G31G32       0.000160128
  23573476.823 5   -512538.660 5   -387024.89846  23573474.49146
  20536778.753 6   -216491.664 6   -162896.91448  20536773.86248
  20352610.386 7   -842525.414 7   -633824.04348  20352604.47248
  23538001.925 6   -287747.113 6   -221959.41847  23537995.12047
  23897701.597 5  -1676790.660 5  -1243289.04347  23897695.09747
  20514824.909 7   -368533.418 7   -278648.82449  20514822.68749
  22208000.628 6  -1721671.074 6  -1301195.74247  22207998.16747
  23669277.339 3     35622.754 3     23094.33645  23669273.40545
  21432318.011 6   -514671.285 6   -395291.93847  21432312.72647
  22676278.097 6    264034.980 6    202110.20747  22676277.07747
 18  5 30  0 33 24.9990000  0 10G03G14G16G22G23G26G27G29G31G32       0.000153004
  23571945.511 5   -520581.578 5   -393292.10246  23571943.87046
  20536220.058 6   -219427.168 6   -165184.32048  20536215.42948
  20350040.120 6   -856031.277 6   -644348.09448  20350034.47648
  23537072.948 6   -292627.523 6   -225762.34047  23537066.18347
  23892384.206 5  -1704733.020 5  -1265062.31347  23892377.79247
  20513735.417 7   -374257.719 7   -283109.31649  20513733.22649
  22202544.370 6  -1750343.016 6  -1323537.51247  22202542.30847
  23669726.925 3     37987.250 3     24936.76245  23669723.73045
  21430749.222 6   -522918.445 6   -401718.29347  21430743.15147
  22677223.214 6    268998.133 6    205977.57047  22677221.91347
 18  5 30  0 33 29.9990000  0 10G03G14G16G22G23G26G27G29G31G32       0.000145893
  23570421.276 5   -528592.574 5   -399534.46146  23570419.46846
  20535668.761 6   -222327.922 6   -167444.65648  20535663.80848
  20347476.190 6   -869504.633 6   -654846.80948  20347470.62848
  23536149.722 6   -297480.617 6   -229543.98847  23536142.63647
  23887072.058 5  -1732650.477 5  -1286816.17646  23887065.15146
  20512651.651 7   -379954.203 7   -287548.14549  20512649.01549
  22197093.706 6  -1778988.387 6  -1345858.57847  22197090.95647
  23670182.300 2     40382.719 2     26803.38345  23670179.44045
  21429184.472 6   -531141.488 6   -408125.86347  21429178.78847
  22678172.831 6    273989.367 6    209866.82047  22678171.69847
 18  5 30  0 33 34.9990000  0 10G03G14G16G22G23G26G27G29G31G32       0.000138798
  23568903.269 5   -536569.875 5   -405750.54746  23568901.03846
  20535123.323 6   -225192.133 6   -169676.51248  20535118.71048
  20344918.894 6   -882943.699 6   -665318.81648  20344913.31548
  23535231.776 6   -302304.594 6   -233302.94547  23535224.35547
  23881764.230 5  -1760541.395 5  -1308549.35246  23881757.55846
  20511573.120 7   -385621.090 7   -291963.89849  20511570.91349
  22191647.823 6  -1807605.391 6  -1368157.54747  22191645.56547
  23670644.636 2     42810.961 2     28695.48045  23670641.82345
  21427624.480 6   -539338.750 6   -414513.34447  21427618.54647
  22679128.417 6    279010.543 6    213779.41447  22679127.17947
 18  5 30  0 33 39.9990000  0 10G03G14G16G22G23G26G27G29G31G32       0.000131716
  23567392.620 5   -544512.406 5   -411939.54746  23567390.65946
  20534585.636 6   -228018.719 6   -171879.05548  20534580.53448
  20342368.112 6   -896347.359 6   -675763.23448  20342362.19448
  23534319.612 6   -307098.355 6   -237038.33247  23534312.37847
  23876462.550 5  -1788404.531 5  -1330260.88746  23876455.69046
  20510500.706 7   -391257.273 7   -296355.72749  20510498.13249
  22186208.292 6  -1836192.938 6  -1390433.54747  22186205.36247
  23671112.526 1     45272.945 1     30613.92245  23671110.63645
  21426069.769 6   -547508.941 6   -420879.73047  21426064.05847
  22680089.862 6    284062.723 6    217716.16047  22680088.52247
 18  5 30  0 33 44.9990000  0 10G03G14G16G22G23G26G27G29G31G32       0.000124651
  23565887.917 5   -552418.664 5   -418100.27346  23565885.17546
  20534054.956 6   -230806.188 6   -174051.11748  20534050.01148
  20339824.378 7   -909714.164 7   -686178.93048  20339818.42148
  23533413.230 6   -311860.457 6   -240749.07047  23533406.38647
  23871166.105 5  -1816238.410 5  -1351949.62946  23871158.77246
  20509434.042 7   -396861.246 7   -300722.46149  20509432.06949
  22180773.948 6  -1864749.461 6  -1412685.38747  22180771.39447
  23671587.378 1     47770.285 1     32559.87145  23671585.84745
  21424520.565 6   -555650.602 6   -427223.88747  21424514.75347
  22681057.300 6    289147.395 6    221678.23047  22681055.72647
 18  5 30  0 33 49.9990000  0 10G03G14G16G22G23G26G27G29G31G32       0.000117601
  23564390.690 5   -560287.395 5   -424231.75847  23564388.08547
  20533532.409 6   -233553.199 6   -176191.65248  20533527.49548
  20337288.425 7   -923042.813 7   -696564.88748  20337282.31248
  23532513.534 6   -316589.547 6   -244434.07847  23532506.82747
  23865875.058 5  -1844041.691 5  -1373614.50447  23865868.19047
  20508373.917 7   -402431.723 7   -305063.09849  20508371.92549
  22175345.651 6  -1893273.648 6  -1434912.02047  22175343.21447
  23672069.737 1     50304.180 1     34534.35545  23672068.11245
  21422976.839 6   -563762.367 6   -433544.74647  21422971.01947
  22682031.151 6    294265.879 6    225666.63347  22682029.78847
 18  5 30  0 33 54.9990000  0 10G03G14G16G22G23G26G27G29G31G32       0.000110571
  23562900.503 5   -568117.379 5   -430333.04746  23562898.47246
  20533017.222 6   -236258.676 6   -178299.82048  20533012.31248
  20334759.464 6   -936332.141 6   -706920.20348  20334753.45648
  23531619.425 6   -321284.500 6   -248092.49647  23531612.84747
  23860590.831 5  -1871813.289 5  -1395254.69547  23860583.08147
  20507320.831 7   -407967.582 7   -309376.75449  20507318.35549
  22169924.144 6  -1921764.406 6  -1457112.61347  22169921.56247
  23672559.230 2     52875.809 2     36538.28145  23672557.63245
  21421439.355 6   -571843.148 6   -439841.47747  21421433.82747
  22683012.331 6    299419.266 6    229682.24647  22683011.13647
 18  5 30  0 33 59.9990000  0 10G03G14G16G22G23G26G27G29G31G32       0.000103558
  23561418.011 5   -575907.953 5   -436403.64146  23561415.36246
  20532510.495 6   -238921.824 6   -180375.00048  20532505.99548
  20332237.862 6   -949581.410 6   -717244.30948  20332232.34748
  23530732.605 6   -325944.633 6   -251723.78947  23530725.57747
  23855311.995 6  -1899552.340 6  -1416869.50447  23855304.69847
  20506274.097 7   -413468.082 7   -313662.86749  20506271.80849
  22164509.167 6  -1950220.953 6  -1479286.53947  22164506.73747
  23673056.339 2     55485.938 2     38572.14145  23673054.44845
  21419907.480 6   -579892.203 6   -446113.46147  21419902.01947
  22683999.784 6    304608.336 6    233725.65647  22683998.21847
 18  5 30  0 34  4.9990000  0 10G03G14G16G22G23G26G27G29G31G32       0.000096563
  23559943.628 5   -583658.715 5   -442443.19146  23559940.62446
  20532011.761 6   -241542.250 6   -182416.89548  20532007.27248
  20329724.464 6   -962790.238 6   -727536.91048  20329718.68348
  23529853.198 6   -330569.488 6   -255327.57847  23529846.37847
  23850039.612 6  -1927258.473 6  -1438458.69547  23850032.04247
  20505233.972 7   -418932.855 7   -317921.13749  20505231.58549
  22159100.480 6  -1978642.785 6  -1501433.42247  22159098.23347
  23673559.620 2     58134.867 2     40636.18045  23673558.81545
  21418381.667 6   -587909.109 6   -452360.41047  21418376.56247
  22684994.198 6    309833.453 6    237797.17247  22684992.60147
 18  5 30  0 34  9.9990000  0 10G03G14G16G22G23G26G27G29G31G32       0.000089588
  23558475.878 5   -591369.055 5   -448451.26646  23558473.75746
  20531521.784 6   -244119.367 6   -184425.03948  20531516.85548
  20327218.526 6   -975958.035 6   -737797.52748  20327213.20248
  23528979.667 6   -335158.488 6   -258903.43047  23528973.32747
  23844773.948 6  -1954931.129 6  -1460021.80147  23844766.13647
  20504201.206 7   -424361.266 7   -322151.06349  20504198.35549
  22153699.065 6  -2007029.363 6  -1523552.82847  22153696.76147
  23674070.769 3     60823.219 3     42731.09845  23674070.22645
  21416862.292 6   -595893.273 6   -458581.85547  21416857.18347
  22685995.237 6    315095.188 6    241897.21147  22685994.11647
 18  5 30  0 34 14.9990000  0 10G03G14G16G22G23G26G27G29G31G32       0.000082630
  23557015.745 5   -599039.230 5   -454428.02346  23557014.43346
  20531039.480 6   -246653.465 6   -186399.66448  20531034.70248
  20324720.651 6   -989085.043 6   -748026.36348  20324715.14448
  23528112.808 6   -339711.938 6   -262451.57847  23528106.69047
  23839514.425 6  -1982570.496 6  -1481558.97746  23839506.61246
  20503175.292 7   -429753.598 7   -326352.88749  20503172.68349
  22148303.401 6  -2035380.961 6  -1545644.98447  22148301.33147
  23674590.058 1     63550.816 1     44856.43045  23674589.41345
  21415349.081 6   -603844.934 6   -464777.96547  21415344.26947
  22687003.784 6    320393.301 6    246025.58647  22687002.12847
 18  5 30  0 34 19.9990000  0 10G03G14G16G22G23G26G27G29G31G32       0.000075691
  23555563.628 5   -606670.133 5   -460374.17646  23555561.69046
  20530565.097 6   -249145.406 6   -188341.44548  20530560.31548
  20322230.464 7  -1002172.184 7   -758224.13348  20322224.52248
  23527253.612 6   -344230.727 6   -265972.73847  23527246.71847
  23834260.417 6  -2010177.449 6  -1503070.85546  23834252.93346
  20502155.550 7   -435110.730 7   -330527.28949  20502153.20649
  22142914.776 6  -2063698.348 6  -1567710.46547  22142912.90547
  23675117.230 3     66316.645 3     47011.67245  23675115.56545
  21413842.362 6   -611764.953 6   -470949.39847  21413836.98747
  22688018.519 6    325726.906 6    250181.62547  22688016.93347
 18  5 30  0 34 24.9990000  0 10G03G14G16G22G23G26G27G29G31G32       0.000068768
  23554118.722 5   -614262.680 5   -466290.43846  23554117.00746
  20530098.644 6   -251596.086 6   -190251.05948  20530093.86248
  20319747.386 6  -1015220.273 6   -768391.48048  20319741.76948
  23526400.198 6   -348715.680 6   -269467.49647  23526393.52247
  23829013.198 6  -2037752.840 6  -1524558.18446  23829005.05846
  20501142.573 7   -440433.566 7   -334674.95349  20501140.17949
  22137532.589 6  -2091982.469 6  -1589750.04747  22137530.63247
  23675651.105 3     69119.934 3     49196.00045  23675649.01145
  21412341.190 6   -619654.227 6   -477096.89847  21412335.76947
  22689039.769 6    331095.117 6    254364.62947  22689038.41347
 18  5 30  0 34 29.9990000  0 10G03G14G16G22G23G26G27G29G31G32       0.000061863
  23552681.464 5   -621818.500 5   -472178.09446  23552680.01946
  20529639.940 6   -254007.156 6   -192129.81648  20529635.10848
  20317271.425 6  -1028231.027 6   -778529.72748  20317265.90148
  23525553.300 6   -353168.539 6   -272937.26647  23525545.99547
  23823771.519 6  -2065298.332 6  -1546022.17647  23823763.55447
  20500135.987 7   -445723.758 7   -338797.18449  20500133.74549
  22132156.065 6  -2120234.918 6  -1611764.93047  22132154.28447
  23676191.058 2     71958.898 2     51408.15645  23676188.86645
  21410845.339 6   -627514.430 6   -483221.71547  21410839.61247
  22690067.847 6    336496.281 6    258573.31647  22690066.37447
 18  5 30  0 34 34.9990000  0 10G03G14G16G22G23G26G27G29G31G32       0.000054974
  23551250.417 5   -629338.555 5   -478037.88346  23551248.75346
  20529188.339 6   -256379.547 6   -193978.43448  20529183.24548
  20314802.167 7  -1041205.402 7   -788639.64548  20314796.61648
  23524711.331 6   -357590.277 6   -276382.77047  23524704.31247
  23818535.300 6  -2092814.879 6  -1567463.62547  23818527.24547
  20499135.214 7   -450982.285 7   -342894.74249  20499132.68749
  22126785.714 6  -2148456.633 6  -1633755.87547  22126783.84747
  23676738.269 4     74832.609 4     53647.40645  23676736.31945
  21409355.065 6   -635346.500 6   -489324.63347  21409348.97647
  22691101.753 6    341929.375 6    262806.87147  22691100.10147
 18  5 30  0 34 39.9990000  0 10G03G14G16G22G23G26G27G29G31G32       0.000048098
  23549825.112 5   -636824.613 5   -483871.18446  23549824.02246
  20528743.917 6   -258715.078 6   -195798.33248  20528739.03848
  20312340.097 7  -1054145.121 7   -798722.55148  20312334.17148
  23523875.495 6   -361982.590 6   -279805.34847  23523868.71847
  23813304.394 6  -2120304.211 6  -1588883.87947  23813296.18347
  20498140.261 7   -456210.867 7   -346968.96949  20498137.65149
  22121421.058 6  -2176649.352 6  -1655724.21147  22121419.11247
  23677291.847 4     77739.363 4     55912.43045  23677288.55845
  21407869.394 6   -643152.145 6   -495406.95347  21407863.60147
  22692140.980 6    347392.719 6    267064.01247  22692139.41347
 18  5 30  0 34 44.9990000  0 10G03G14G16G22G23G26G27G29G31G32       0.000041237
  23548407.011 5   -644278.500 5   -489679.41846  23548406.01146
  20528306.542 6   -261015.480 6   -197590.85548  20528301.04248
  20309883.901 6  -1067052.082 6   -808779.93048  20309878.14448
  23523045.034 6   -366347.344 6   -283206.47747  23523038.21447
  23808078.159 6  -2147768.121 6  -1610284.32046  23808069.85546
  20497150.730 7   -461411.391 7   -351021.32449  20497147.81549
  22116061.315 6  -2204814.938 6  -1677671.41447  22116059.62847
  23677850.651 4     80677.254 4     58201.69145  23677847.85845
  21406388.456 6   -650933.227 6   -501470.14147  21406382.33147
  22693186.003 6    352884.414 6    271343.23847  22693184.61247
 18  5 30  0 34 49.9990000  0 10G03G14G16G22G23G26G27G29G31G32       0.000034388
  23546994.370 6   -651702.086 6   -495464.03547  23546992.66747
  20527874.784 6   -263282.688 6   -199357.51648  20527869.74948
  20307433.823 6  -1079928.078 6   -818813.17248  20307427.84748
  23522218.925 6   -370686.434 6   -286587.60247  23522212.66747
  23802856.206 6  -2175208.430 6  -1631666.36747  23802848.43347
  20496166.159 7   -466585.680 7   -355053.23849  20496163.33549
  22110706.722 6  -2232955.184 6  -1699598.86748  22110704.63648
  23678414.636 3     83644.473 3     60513.77745  23678412.06545
  21404911.972 6   -658691.555 6   -507515.60247  21404906.27647
  22694235.847 6    358402.617 6    275643.11347  22694234.41347
 18  5 30  0 34 54.9990000  0 10G03G14G16G22G23G26G27G29G31G32       0.000027550
  23545587.526 5   -659096.867 5   -501226.19546  23545585.96446
  20527449.440 6   -265518.141 6   -201099.43448  20527444.17948
  20304989.128 7  -1092774.594 7   -828823.44948  20304983.31948
  23521398.261 6   -375001.254 6   -289949.80147  23521391.89447
  23797638.440 6  -2202626.645 6  -1653031.21146  23797630.49146
  20495186.237 7   -471735.234 7   -359065.88349  20495183.41749
  22105356.331 6  -2261071.523 6  -1721507.69548  22105354.38648
  23678984.019 3     86639.516 3     62847.55145  23678981.73745
  21403439.800 6   -666428.602 6   -513544.48047  21403434.39747
  22695290.230 6    363945.832 6    279962.48447  22695289.67547
 18  5 30  0 34 59.9990000  0 10G03G14G16G22G23G26G27G29G31G32       0.000020721
  23544185.534 5   -666464.762 5   -506967.42247  23544183.86247
  20527029.792 6   -267723.809 6   -202818.13748  20527024.75348
  20302550.097 7  -1105593.578 7   -838812.27748  20302544.16348
  23520581.175 6   -379293.844 6   -293294.68447  23520574.79247
  23792424.237 6  -2230024.656 6  -1674380.29346  23792416.78046
  20494210.831 7   -476861.973 7   -363060.75449  20494207.97249
  22100010.136 6  -2289165.906 6  -1743399.42248  22100008.12848
  23679560.261 3     89660.457 3     65201.53945  23679557.06545
  21401971.503 6   -674146.328 6   -519558.30547  21401965.33147
  22696350.120 6    369512.160 6    284299.85547  22696348.58147
 18  5 30  0 35  4.9990000  0 10G03G14G16G22G23G26G27G29G31G32       0.000013903
  23542788.269 6   -673807.074 6   -512688.71146  23542786.74946
  20526615.386 6   -269900.953 6   -204514.61348  20526610.49948
  20300115.472 7  -1118386.367 7   -848780.68448  20300109.68748
  23519767.690 6   -383565.465 6   -296623.23447  23519761.98047
  23787214.269 6  -2257403.734 6  -1695714.64147  23787206.86647
  20493239.214 7   -481967.219 7   -367038.87149  20493236.49949
  22094668.206 6  -2317239.645 6  -1765275.05148  22094665.86648
  23680139.308 3     92705.926 3     67574.60245  23680136.35845
  21400506.456 6   -681845.984 6   -525558.03547  21400500.44047
  22697413.495 6    375100.262 6    288654.20347  22697411.93347
 18  5 30  0 35  9.9990000  0 10G03G14G16G22G23G26G27G29G31G32       0.000007092
  23541395.987 6   -681125.547 6   -518391.42646  23541393.81546
  20526206.534 6   -272051.375 6   -206190.27348  20526201.51148
  20297685.714 7  -1131154.598 7   -858729.95348  20297679.96448
  23518958.597 5   -387817.863 5   -299936.80147  23518952.88247
  23782008.112 5  -2284765.652 5  -1717035.60946  23781999.93346
  20492271.401 7   -487052.684 7   -371001.56649  20492268.21449
  22089329.480 6  -2345294.422 6  -1787135.90648  22089327.02248
  23680723.417 3     95774.289 3     69965.53945  23680720.06545
  21399044.159 6   -689529.277 6   -531545.03547  21399038.56947
  22698481.230 6    380708.371 6    293024.14847  22698479.26147
 18  5 30  0 35 14.9990000  0 10G03G14G16G22G23G26G27G29G31G32       0.000000290
  23540007.730 5   -688421.379 5   -524076.51247  23540006.30847
  20525802.081 6   -274176.230 6   -207846.01248  20525797.18348
  20295260.323 7  -1143899.570 7   -868661.09848  20295254.65148
  23518152.753 6   -392052.184 6   -303236.28547  23518147.06547
  23776803.800 5  -2312111.613 5  -1738344.14547  23776796.45647
  20491307.222 7   -492119.617 7   -374949.83249  20491304.21449
  22083993.784 6  -2373331.375 6  -1808982.88348  22083991.92548
  23681311.167 3     98864.297 3     72373.31345  23681307.78445
  21397585.065 6   -697197.480 6   -537520.25447  21397579.45647
  22699552.159 6    386335.340 6    297408.78547  22699549.80447
 18  5 30  0 35 19.9990000  0 10G03G14G16G22G23G26G27G29G31G32      -0.000006508
  23538623.292 5   -695696.105 5   -529745.14547  23538621.67947
  20525402.167 7   -276277.055 7   -209483.01648  20525397.00748
  20292839.776 7  -1156622.777 7   -878575.29348  20292833.94848
  23517350.644 6   -396270.047 6   -306522.93847  23517344.34347
  23771603.151 5  -2339443.063 5  -1759641.36746  23771595.10146
  20490345.948 7   -497169.520 7   -378884.82049  20490343.27649
  22078661.792 6  -2401352.086 6  -1830817.20348  22078659.38248
  23681903.214 3    101974.309 3     74796.71945  23681899.94845
  21396128.800 6   -704852.078 6   -543484.87147  21396123.22247
  22700625.425 6    391979.598 6    301806.89547  22700624.12447
 18  5 30  0 35 24.9990000  0 10G03G14G16G22G23G26G27G29G31G32      -0.000013296
  23537242.261 5   -702950.523 5   -535397.93047  23537241.28847
  20525006.964 6   -278354.637 6   -211101.91048  20525001.85148
  20290421.909 6  -1169324.953 6   -888473.09848  20290416.37448
  23516550.870 5   -400472.184 5   -309797.32047  23516544.48747
  23766404.472 5  -2366760.723 5  -1780927.85946  23766396.93746
  20489388.144 7   -502203.141 7   -382807.12949  20489385.34749
  22073332.745 6  -2429357.246 6  -1852639.39848  22073330.28848
  23682499.222 3    105103.730 3     77235.20745  23682495.58945
  21394674.347 6   -712493.855 6   -549439.50847  21394668.98747
  22701702.980 6    397640.375 6    306217.87147  22701701.01147
 18  5 30  0 35 29.9990000  0 10G03G14G16G22G23G26G27G29G31G32      -0.000020082
  23535865.605 6   -710185.297 6   -541035.42246  23535864.50346
  20524615.909 6   -280409.629 6   -212703.21148  20524610.75748
  20288008.894 6  -1182006.859 6   -898355.10248  20288002.76148
  23515754.019 5   -404659.273 5   -313059.99647  23515747.86647
  23761209.026 5  -2394065.359 5  -1802204.16046  23761200.76546
  20488433.519 7   -507221.215 7   -386717.32049  20488430.62049
  22068006.253 6  -2457347.578 6  -1874450.04747  22068003.71447
  23683097.394 3    108251.742 3     79688.21545  23683094.74945
  21393223.206 6   -720123.453 6   -555384.66047  21393216.92547
  22702783.105 6    403316.984 6    310641.19547  22702781.68347
 18  5 30  0 35 34.9990000  0 10G03G14G16G22G23G26G27G29G31G32      -0.000026861
  23534492.565 6   -717401.430 6   -546658.39146  23534491.37846
  20524228.480 6   -282443.016 6   -214287.67648  20524223.26148
  20285599.159 6  -1194669.449 6   -908222.05948  20285592.98048
  23514960.097 5   -408832.410 5   -316311.80147  23514953.89047
  23756014.808 5  -2421357.875 5  -1823471.05546  23756007.71846
  20487481.097 7   -512224.723 7   -390616.15649  20487478.24949
