     2.10           OBSERVATION DATA    Mixed(MIXED)        RINEX VERSION / TYPE
cnvtToRINEX 3.07.0  convertToRINEX OPR  19-May-20 12:34 UTC PGM / RUN BY / DATE 
----------------------------------------------------------- COMMENT             
98N0                                                        MARKER NAME         
98N0                                                        MARKER NUMBER       
GNSS Observer       Trimble                                 OBSERVER / AGENCY   
5319436542          TRIMBLE R5          4.85                REC # / TYPE / VERS 
                    UNKNOWN EXT                             ANT # / TYPE        
 -3050380.7427  4928080.5766  2653811.4443                  APPROX POSITION XYZ 
        0.0000        0.0000        0.0000                  ANTENNA: DELTA H/E/N
     1     1     0                                          WAVELENGTH FACT L1/2
     4    C1    L1    L2    P2                              # / TYPES OF OBSERV 
     1.000                                                  INTERVAL            
  2020     5    16     0    21   28.0000000     GPS         TIME OF FIRST OBS   
  2020     5    16     1    33   55.0000000     GPS         TIME OF LAST OBS    
     0                                                      RCV CLOCK OFFS APPL 
    18                                                      LEAP SECONDS        
     9                                                      # OF SATELLITES     
   G04  4327  4327  4327  4327                              PRN / # OF OBS      
   G08  4297  4297  4297  4297                              PRN / # OF OBS      
   G09  2917  2917  2917  2917                              PRN / # OF OBS      
   G14  2467  2407  2375  2375                              PRN / # OF OBS      
   G16  4333  4333  4333  4333                              PRN / # OF OBS      
   G21  1537  1328    57    57                              PRN / # OF OBS      
   G26  4327  4322  4322  4322                              PRN / # OF OBS      
   G27  4327  4327  4327  4327                              PRN / # OF OBS      
   G31  3375  3187  2814  2814                              PRN / # OF OBS      
CARRIER PHASE MEASUREMENTS: PHASE SHIFTS REMOVED            COMMENT             
                                                            END OF HEADER       
 20  5 16  0 21 28.0000000  0  0                                    
 20  5 16  0 21 29.0000000  0  0                                    -0.000298491
 20  5 16  0 21 30.0000000  0  0                                    -0.000298529
 20  5 16  0 21 31.0000000  0  0                                    -0.000298569
 20  5 16  0 21 32.0000000  0  0                                    -0.000298609
 20  5 16  0 21 33.0000000  0  0                                    -0.000298647
 20  5 16  0 21 34.0000000  0  0                                    -0.000298687
 20  5 16  0 21 35.0000000  0  0                                    -0.000298725
 20  5 16  0 21 36.0000000  0  0                                    -0.000298763
 20  5 16  0 21 37.0000000  0  1G14                                 -0.000298801
  22353300.500 6 117467385.96716  91533050.05857  22353306.71947
 20  5 16  0 21 38.0000000  0  1G14                                 -0.000298841
  22353903.781 6 117470554.459 6  91535519.00747  22353909.54747
 20  5 16  0 21 39.0000000  0  1G14                                 -0.000298878
  22354506.516 6 117473723.563 6  91537988.43747  22354512.71147
 20  5 16  0 21 40.0000000  0  1G14                                 -0.000298916
  22355109.258 6 117476893.326 6  91540458.37747  22355115.75447
 20  5 16  0 21 41.0000000  0  1G14                                 -0.000298954
  22355713.141 6 117480063.790 6  91542928.87447  22355719.03947
 20  5 16  0 21 42.0000000  0  1G14                                 -0.000298990
  22356316.500 6 117483234.970 6  91545399.93047  22356322.66447
 20  5 16  0 21 43.0000000  0  2G14G16                              -0.000299028
  22356919.906 6 117486406.813 6  91547871.49647  22356926.04747
  20561865.875 6 108053329.36316  84197427.18258  20561872.10548
 20  5 16  0 21 44.0000000  0  2G14G16                              -0.000394741
  22357523.695 6 117489579.386 6  91550343.63347  22357529.73847
  20561931.992 6 108053679.420 6  84197699.95348  20561938.41848
 20  5 16  0 21 45.0000000  0  2G14G16                              -0.000394768
  22358127.555 6 117492752.753 6  91552816.38747  22358133.81347
  20561999.000 6 108054030.304 6  84197973.36649  20562005.52049
 20  5 16  0 21 46.0000000  0  2G14G16                              -0.000394793
  22358731.273 6 117495926.885 6  91555289.73346  22358737.80946
  20562065.672 6 108054381.932 6  84198247.36048  20562072.66048
 20  5 16  0 21 47.0000000  0  2G14G16                              -0.000394817
  22359335.477 6 117499101.729 6  91557763.63647  22359341.72747
  20562132.656 6 108054734.283 6  84198521.92048  20562139.68448
 20  5 16  0 21 48.0000000  0  2G14G16                              -0.000394842
  22359940.070 6 117502277.347 6  91560238.14047  22359946.00447
  20562199.938 6 108055087.402 6  84198797.07648  20562206.60548
 20  5 16  0 21 49.0000000  0  6G04G14G16G26G27G31                  -0.000394867
  22137111.633 5 116331300.85415  90647802.71058  22137119.91048
  22360544.344 6 117505453.742 6  91562713.24846  22360550.37146
  20562267.305 6 108055441.363 6  84199072.89648  20562274.28148
  21266373.898 6 111755550.18416  87082287.25759  21266384.19549
  20809292.078 6 109353568.09516  85210608.50759  20809300.80549
  21816871.883 5 114648436.81215  89336464.02757  21816878.68447
 20  5 16  0 21 50.0000000  0  6G04G14G16G26G27G31                  -0.000394934
  22136671.563 6 116328990.330 6  90646002.29948  22136680.31648
  22361148.680 6 117508630.981 6  91565189.01947  22361154.74247
  20562334.578 6 108055796.121 6  84199349.33348  20562342.05548
  21266669.328 6 111757101.720 6  87083496.24649  21266679.39149
  20808831.852 6 109351151.504 6  85208725.45349  20808841.10549
  21817075.203 5 114649503.387 5  89337295.12947  21817081.46147
 20  5 16  0 21 51.0000000  0  6G04G14G16G26G27G31                  -0.000394957
  22136232.070 6 116326680.661 6  90644202.55548  22136240.73048
  22361753.813 6 117511808.866 6  91567665.29847  22361759.89147
  20562402.500 6 108056151.564 6  84199626.30048  20562408.98448
  21266964.906 6 111758653.725 6  87084705.59949  21266974.67249
  20808372.758 6 109348735.808 6  85206843.09249  20808381.42649
  21817277.914 5 114650570.581 5  89338126.70847  21817284.69147
 20  5 16  0 21 52.0000000  0  6G04G14G16G26G27G31                  -0.000394981
  22135792.813 6 116324371.971 6  90642403.57048  22135801.62148
  22362358.438 6 117514987.554 6  91570142.19447  22362364.60947
  20562470.109 6 108056507.813 6  84199903.89348  20562477.26648
  21267260.219 6 111760206.334 6  87085915.42349  21267270.16449
  20807912.703 6 109346321.132 6  85204961.52749  20807921.69549
  21817481.563 5 114651638.504 5  89338958.85147  21817487.84447
 20  5 16  0 21 53.0000000  0  6G04G14G16G26G27G31                  -0.000395004
  22135353.703 6 116322064.157 6  90640605.27848  22135362.27348
  22362963.438 6 117518166.977 6  91572619.67147  22362969.57447
  20562538.172 6 108056864.820 6  84200182.08148  20562544.96548
  21267555.875 6 111761759.472 6  87087125.66249  21267565.71549
  20807453.469 6 109343907.469 6  85203080.75449  20807462.51649
  21817684.758 5 114652707.089 5  89339791.51247  21817691.23047
 20  5 16  0 21 54.0000000  0  6G04G14G16G26G27G31                  -0.000395027
  22134914.984 6 116319757.375 6  90638807.78348  22134923.59048
  22363568.914 6 117521347.251 6  91575097.80347  22363575.12147
  20562606.508 6 108057222.648 6  84200460.91048  20562612.70348
  21267851.633 6 111763313.236 6  87088336.38049  21267861.53949
  20806994.539 6 109341494.864 6  85201200.80749  20807003.42649
  21817888.148 5 114653776.517 5  89340624.83347  21817894.57847
 20  5 16  0 21 55.0000000  0  6G04G14G16G26G27G31                  -0.000395050
  22134475.984 6 116317451.518 6  90637011.00948  22134484.52748
  22364173.938 6 117524528.263 6  91577576.51147  22364180.26647
  20562674.367 6 108057581.250 6  84200740.34348  20562681.01248
  21268146.711 6 111764867.558 6  87089547.54349  21268157.07049
  20806535.461 6 109339083.273 6  85199321.64249  20806544.82849
  21818091.109 5 114654846.587 5  89341458.66047  21818098.61747
 20  5 16  0 21 56.0000000  0  6G04G14G16G26G27G31                  -0.000395071
  22134037.133 6 116315146.578 6  90635214.95448  22134046.03948
  22364779.414 6 117527710.027 6  91580055.80547  22364785.43847
  20562742.766 6 108057940.612 6  84201020.36448  20562749.68448
  21268442.781 6 111766422.396 6  87090759.10449  21268453.19549
  20806076.602 6 109336672.629 6  85197443.21449  20806085.96549
  21818294.945 5 114655917.372 5  89342293.03347  21818302.07047
 20  5 16  0 21 57.0000000  0  6G04G14G16G26G27G31                  -0.000395094
  22133599.039 6 116312842.644 6  90633419.68048  22133607.39548
  22365385.422 6 117530892.627 6  91582535.75547  22365391.52347
  20562811.672 6 108058300.810 6  84201301.04148  20562818.00848
  21268738.969 6 111767977.887 6  87091971.16849  21268749.05949
  20805618.492 6 109334263.079 6  85195565.64449  20805627.68049
  21818499.734 5 114656988.922 5  89343128.01347  21818506.37947
 20  5 16  0 21 58.0000000  0  6G04G14G16G26G27G31                  -0.000395115
  22133161.031 6 116310539.663 6  90631625.14948  22133169.25848
  22365990.805 6 117534076.006 6  91585016.30947  22365997.23847
  20562880.422 6 108058661.796 6  84201582.32948  20562887.00848
  21269035.500 6 111769533.943 6  87093183.68149  21269045.29349
  20805159.555 6 109331854.564 6  85193688.87849  20805168.94949
  21818702.953 5 114658061.197 5  89343963.55547  21818710.18847
 20  5 16  0 21 59.0000000  0  6G04G14G16G26G27G31                  -0.000395136
  22132722.227 6 116308237.525 6  90629831.27748  22132731.01648
  22366596.422 5 117537260.058 5  91587497.39147  22366603.21147
  20562948.852 6 108059023.438 6  84201864.13248  20562955.63348
  21269331.258 6 111771090.449 6  87094396.54349  21269341.39849
  20804701.766 6 109329446.938 6  85191812.80549  20804710.94149
  21818907.922 5 114659134.068 5  89344799.55247  21818914.17647
 20  5 16  0 22  0.0000000  0  6G04G14G16G26G27G31                  -0.000395157
  22132284.797 6 116305936.449 6  90628038.22948  22132293.38748
  22367203.156 6 117540445.033 6  91589979.19047  22367209.54347
  20563017.977 6 108059386.042 6  84202146.67948  20563024.46948
  21269627.594 6 111772647.648 6  87095609.94349  21269637.34049
  20804243.938 6 109327040.449 6  85189937.62649  20804252.89549
  21819111.727 5 114660207.895 5  89345636.28547  21819118.49247
 20  5 16  0 22  1.0000000  0  6G04G14G16G26G27G31                  -0.000395176
  22131846.867 6 116303636.184 6  90626245.81048  22131855.49248
  22367809.039 6 117543630.622 6  91592461.46747  22367815.33647
  20563087.328 6 108059749.264 6  84202429.71048  20563093.55948
  21269923.906 6 111774205.310 6  87096823.70849  21269934.07449
  20803786.070 6 109324634.871 6  85188063.14749  20803795.58249
  21819316.102 4 114661282.146 4  89346473.37047  21819323.05147
 20  5 16  0 22  2.0000000  0  6G04G14G16G26G27G31                  -0.000395197
  22131409.336 6 116301337.052 6  90624454.28148  22131418.07848
  22368415.445 6 117546817.160 6  91594944.48647  22368421.99247
  20563156.945 6 108060113.424 6  84202713.47248  20563162.95348
  21270220.742 6 111775763.668 6  87098038.01449  21270230.86349
  20803328.766 6 109322230.454 6  85186189.57849  20803337.80549
  21819521.078 4 114662357.355 4  89347311.20447  21819527.90247
 20  5 16  0 22  3.0000000  0  6G04G14G16G26G27G31                  -0.000395216
  22130971.914 6 116299038.944 6  90622663.55148  22130980.78148
  22369021.305 6 117550004.563 6  91597428.17747  22369028.29747
  20563226.219 6 108060478.472 6  84202997.91948  20563232.60548
  21270517.250 6 111777322.722 6  87099252.85849  21270527.66849
  20802871.453 6 109319827.155 6  85184316.88049  20802880.81349
  21819725.727 4 114663433.400 4  89348149.68947  21819732.50847
 20  5 16  0 22  4.0000000  0  6G04G14G16G26G27G31                  -0.000395237
  22130534.695 6 116296741.799 6  90620873.56848  22130543.55148
  22369628.398 6 117553192.744 6  91599912.47047  22369635.39547
  20563295.617 6 108060844.309 6  84203282.99148  20563301.83248
  21270813.758 6 111778882.305 6  87100468.12149  21270823.87949
  20802414.242 6 109317424.848 6  85182444.95049  20802423.48849
  21819930.375 4 114664510.100 4  89348988.67447  21819937.44947
 20  5 16  0 22  5.0000000  0  6G04G14G16G26G27G31                  -0.000395256
  22130097.945 6 116294445.558 6  90619084.29548  22130106.38748
  22370235.477 6 117556381.676 6  91602397.35447  22370241.93447
  20563365.258 7 108061210.883 7  84203568.63148  20563371.87548
  21271110.766 6 111780442.460 6  87101683.82249  21271120.79349
  20801957.305 6 109315023.546 6  85180573.81049  20801966.51649
  21820135.523 4 114665587.585 4  89349828.27047  21820142.55147
 20  5 16  0 22  6.0000000  0  6G04G14G16G26G27G31                  -0.000395275
  22129661.109 6 116292150.200 6  90617295.70548  22129669.87948
  22370842.555 6 117559571.303 6  91604882.77047  22370848.93447
  20563435.359 6 108061578.188 6  84203854.84448  20563441.63348
  21271407.695 6 111782003.116 6  87102899.91949  21271417.90249
  20801500.641 6 109312623.198 6  85178703.40649  20801509.94949
  21820340.320 4 114666665.669 4  89350668.33647  21820347.45747
 20  5 16  0 22  7.0000000  0  6G04G14G16G26G27G31                  -0.000395294
  22129223.945 6 116289855.825 6  90615507.88348  22129233.04348
  22371449.320 6 117562761.743 6  91607368.82547  22371456.07447
  20563505.375 7 108061946.290 7  84204141.67548  20563511.57048
  21271704.727 6 111783564.338 6  87104116.45549  21271714.89549
  20801043.477 6 109310223.907 6  85176833.83049  20801053.21549
  21820545.500 4 114667744.507 4  89351508.98747  21820553.28547
 20  5 16  0 22  8.0000000  0  6G04G14G16G26G27G31                  -0.000395311
  22128787.805 6 116287562.483 6  90613720.86748  22128796.32048
  22372056.883 6 117565953.027 6  91609855.53247  22372063.48447
  20563575.477 7 108062315.264 7  84204429.19148  20563581.73848
  21272002.570 6 111785126.236 6  87105333.51349  21272012.17649
  20800587.055 6 109307825.683 6  85174965.08949  20800597.13749
  21820750.758 4 114668824.165 4  89352350.27247  21820758.32047
 20  5 16  0 22  9.0000000  0  6G04G14G16G26G27G31                  -0.000395330
  22128351.922 6 116285270.040 6  90611934.55148  22128360.69148
  22372664.109 6 117569145.054 6  91612342.81547  22372670.90247
  20563645.781 7 108062684.989 7  84204717.28948  20563651.93448
  21272299.438 6 111786688.644 6  87106550.97249  21272309.75449
  20800131.445 6 109305428.441 6  85173097.10749  20800140.51649
  21820956.539 4 114669904.487 4  89353192.08147  21820964.03147
 20  5 16  0 22 10.0000000  0  6G04G14G16G26G27G31                  -0.000395348
  22127915.297 6 116282978.622 6  90610149.02848  22127924.25848
  22373272.398 6 117572337.912 6  91614830.76047  22373278.51647
  20563716.141 7 108063055.558 7  84205006.04248  20563722.98848
  21272596.539 6 111788251.714 6  87107768.94749  21272607.08249
  20799674.938 6 109303032.317 6  85171229.99749  20799684.69149
  21821162.852 4 114670985.609 4  89354034.50947  21821169.89847
 20  5 16  0 22 11.0000000  0  6G04G14G16G26G27G31                  -0.000395367
  22127479.234 6 116280688.167 6  90608364.26048  22127488.29748
  22373879.641 6 117575531.560 6  91617319.31747  22373886.74647
  20563787.297 7 108063426.908 7  84205295.40748  20563792.85948
  21272894.414 6 111789815.326 6  87108987.34649  21272904.51249
  20799219.773 6 109300637.199 6  85169363.67049  20799228.94949
  21821368.508 4 114672067.449 4  89354877.49947  21821375.45347
 20  5 16  0 22 12.0000000  0  6G04G14G16G26G27G31                  -0.000395384
  22127043.867 6 116278398.686 6  90606580.24248  22127052.67648
  22374487.820 6 117578726.025 6  91619808.51247  22374494.56347
  20563857.641 7 108063799.107 7  84205585.42748  20563864.00848
  21273192.063 6 111791379.586 6  87110206.24949  21273202.10249
  20798764.008 6 109298243.140 6  85167498.17049  20798773.57049
  21821574.211 4 114673150.066 4  89355721.10947  21821581.48847
 20  5 16  0 22 13.0000000  0  6G04G14G16G26G27G31                  -0.000395401
  22126608.422 6 116276110.251 6  90604797.04948  22126617.24648
  22375095.383 6 117581921.330 6  91622298.35947  22375102.57447
  20563928.508 7 108064172.149 7  84205876.11048  20563935.03548
  21273489.570 6 111792944.474 6  87111425.64649  21273499.72749
  20798308.422 6 109295850.167 6  85165633.51949  20798318.16449
  21821780.055 3 114674233.435 3  89356565.30147  21821787.84447
 20  5 16  0 22 14.0000000  0  6G04G14G16G26G27G31                  -0.000395416
  22126173.102 6 116273822.668 6  90603014.51148  22126181.71548
  22375703.836 6 117585117.350 6  91624788.76047  22375710.64847
  20564000.000 7 108064545.892 7  84206167.33748  20564006.00448
  21273787.984 6 111794509.847 6  87112645.41649  21273797.98449
  20797853.313 6 109293458.134 6  85163769.59049  20797863.09449
  21821986.195 3 114675317.498 3  89357410.02947  21821994.41447
 20  5 16  0 22 15.0000000  0  6G04G14G16G26G27G31                  -0.000395433
  22125738.227 6 116271536.046 6  90601232.72948  22125746.94148
  22376312.242 6 117588314.095 6  91627279.72047  22376318.98447
  20564071.070 7 108064920.408 7  84206459.16848  20564077.68048
  21274086.031 6 111796075.782 6  87113865.62449  21274096.07049
  20797398.398 6 109291067.113 6  85161906.45949  20797408.02749
  21822193.273 3 114676402.261 3  89358255.29547  21822200.81347
 20  5 16  0 22 16.0000000  0  6G04G14G16G26G27G31                  -0.000395449
  22125302.945 6 116269250.413 6  90599451.71548  22125311.82848
  22376921.102 6 117591511.699 6  91629771.35947  22376927.87147
  20564142.414 7 108065295.789 7  84206751.67648  20564149.00448
  21274383.984 6 111797642.355 6  87115086.32749  21274393.88349
  20796943.789 6 109288677.182 6  85160044.17749  20796953.15649
  21822400.227 3 114677487.812 3  89359101.17047  21822407.62547
 20  5 16  0 22 17.0000000  0  6G04G14G16G26G27G31                  -0.000395466
  22124868.047 6 116266965.663 6  90597671.39448  22124877.19148
  22377529.648 6 117594709.996 6  91632263.54347  22377536.43047
  20564213.945 7 108065671.863 7  84207044.72248  20564220.28548
  21274682.281 6 111799209.418 6  87116307.41449  21274692.33249
  20796488.859 6 109286288.173 6  85158182.61049  20796498.91449
  21822606.102 3 114678573.957 3  89359947.51947  21822614.21147
 20  5 16  0 22 18.0000000  0  6G04G14G16G26G27G31                  -0.000395481
  22124433.711 6 116264681.900 6  90595891.83848  22124442.48848
  22378138.406 6 117597909.087 6  91634756.33547  22378145.53147
  20564286.047 7 108066048.765 7  84207338.41548  20564292.23848
  21274980.563 6 111800777.068 6  87117528.95649  21274990.75049
  20796034.563 6 109283900.207 6  85156321.86349  20796044.25449
  21822813.938 3 114679660.907 3  89360794.49547  21822820.88747
 20  5 16  0 22 19.0000000  0  7G04G08G14G16G26G27G31               -0.000395496
  22123999.648 6 116262399.085 6  90594113.01948  22124007.89548
  22940632.836 4 120553843.32014  93938101.68358  22940644.42248
  22378747.125 6 117601108.943 6  91637249.72947  22378754.16447
  20564357.813 7 108066426.426 7  84207632.68948  20564364.34048
  21275279.094 6 111802345.285 6  87118750.94549  21275289.16849
  20795580.227 6 109281513.292 6  85154461.92849  20795590.13349
  21823020.273 3 114680748.526 3  89361641.98847  21823027.91447
 20  5 16  0 22 20.0000000  0  7G04G08G14G16G26G27G31               -0.000395512
  22123565.383 6 116260117.291 6  90592334.99548  22123573.88348
  22939956.422 4 120550290.153 4  93935332.98048  22939967.57448
  22379356.422 6 117604309.670 6  91639743.79147  22379363.27747
  20564430.016 7 108066804.966 7  84207927.65648  20564436.49248
  21275577.672 6 111803914.160 6  87119973.43649  21275587.83649
  20795126.070 6 109279127.458 6  85152602.84349  20795136.16049
  21823227.141 3 114681837.025 3  89362490.16247  21823235.26647
 20  5 16  0 22 21.0000000  0  7G04G08G14G16G26G27G31               -0.000395527
  22123131.656 6 116257836.447 6  90590557.71448  22123139.89848
  22939280.023 4 120546737.692 4  93932564.82748  22939291.33648
  22379965.789 6 117607511.161 6  91642238.45647  22379972.69947
  20564501.953 7 108067184.273 7  84208223.22048  20564508.14848
  21275876.031 6 111805483.592 6  87121196.37149  21275886.16049
  20794672.453 6 109276742.630 6  85150744.53949  20794681.93449
  21823434.023 3 114682926.184 3  89363338.86147  21823442.08247
 20  5 16  0 22 22.0000000  0  7G04G08G14G16G26G27G31               -0.000395540
  22122697.414 6 116255556.645 6  90588781.23948  22122705.80548
  22938604.781 4 120543186.063 4  93929797.32048  22938615.79348
  22380574.523 6 117610713.514 6  91644733.79447  22380581.74247
  20564574.234 7 108067564.468 7  84208519.47648  20564580.52748
  21276175.195 6 111807053.687 6  87122419.82149  21276184.82049
  20794218.961 6 109274358.926 6  85148887.10749  20794228.84449
  21823642.102 3 114684016.157 3  89364188.19047  21823649.73447
 20  5 16  0 22 23.0000000  0  7G04G08G14G16G26G27G31               -0.000395555
  22122263.539 6 116253277.812 6  90587005.52848  22122271.84848
  22937928.820 4 120539635.148 4  93927030.37348  22937940.25448
  22381184.508 6 117613916.637 6  91647229.73247  22381191.66847
  20564646.734 7 108067945.429 7  84208816.32848  20564653.21548
  21276473.664 6 111808624.347 6  87123643.71049  21276484.29349
  20793765.148 6 109271976.235 6  85147030.46649  20793774.86749
  21823850.086 3 114685106.851 3  89365038.08147  21823857.40247
 20  5 16  0 22 24.0000000  0  7G04G08G14G16G26G27G31               -0.000395569
  22121830.031 6 116250999.866 6  90585230.50648  22121838.76248
  22937253.570 4 120536084.878 4  93924263.92648  22937264.69948
  22381794.086 6 117617120.515 6  91649726.26847  22381801.18847
  20564719.383 7 108068327.136 7  84209113.76149  20564725.62949
  21276772.461 6 111810195.539 6  87124868.01849  21276782.53949
  20793312.063 6 109269594.521 6  85145174.58449  20793322.30549
  21824057.773 3 114686198.280 3  89365888.54647  21824065.17647
 20  5 16  0 22 25.0000000  0  7G04G08G14G16G26G27G31               -0.000395582
  22121396.992 6 116248722.948 6  90583456.28648  22121405.64548
  22936577.609 4 120532535.359 4  93921498.07448  22936589.05148
  22382404.172 6 117620325.184 6  91652223.41547  22382411.15247
  20564792.125 7 108068709.706 7  84209411.86548  20564798.50048
  21277072.227 6 111811767.355 6  87126092.80949  21277082.04749
  20792859.234 6 109267213.901 6  85143319.55249  20792869.00049
  21824265.586 3 114687290.450 3  89366739.57947  21824272.71947
 20  5 16  0 22 26.0000000  0  7G04G08G14G16G26G27G31               -0.000395596
  22120964.336 6 116246447.011 6  90581682.82548  22120972.72748
  22935902.422 4 120528986.607 4  93918732.81448  22935913.42248
  22383013.898 6 117623530.706 6  91654721.22447  22383021.07847
  20564865.133 7 108069093.082 7  84209710.61048  20564871.48848
  21277371.133 6 111813339.798 6  87127318.09249  21277381.53549
  20792406.141 6 109264834.333 6  85141465.34749  20792416.07849
  21824473.094 3 114688383.383 3  89367591.21147  21824480.75047
 20  5 16  0 22 27.0000000  0  7G04G08G14G16G26G27G31               -0.000395609
  22120531.203 6 116244172.028 6  90579910.10448  22120539.64848
  22935227.414 4 120525438.539 4  93915968.08948  22935238.16848
  22383623.984 6 117626736.961 6  91657219.60047  22383631.30147
  20564937.961 7 108069477.226 7  84210009.94348  20564944.68448
  21277670.414 6 111814912.782 6  87128543.79149  21277680.34449
  20791953.641 6 109262455.748 6  85139611.90149  20791963.74249
  21824681.516 2 114689477.029 2  89368443.40647  21824689.18447
 20  5 16  0 22 28.0000000  0  7G04G08G14G16G26G27G31               -0.000395620
  22120098.656 6 116241897.986 6  90578138.12148  22120106.74648
  22934552.055 4 120521891.180 4  93913203.90848  22934563.15248
  22384234.211 6 117629944.035 6  91659718.62247  22384242.11347
  20565011.398 6 108069862.158 6  84210309.88848  20565017.83248
  21277969.906 6 111816486.343 6  87129769.93249  21277979.86349
  20791500.969 6 109260078.251 6  85137759.31349  20791510.96149
  21824889.680 2 114690571.383 2  89369296.14847  21824897.31647
 20  5 16  0 22 29.0000000  0  7G04G08G14G16G26G27G31               -0.000395634
  22119666.148 6 116239624.891 6  90576366.87548  22119674.50048
  22933877.148 4 120518344.516 4  93910440.27048  22933887.78948
  22384844.883 6 117633151.852 6  91662218.21247  22384852.41847
  20565084.664 6 108070247.896 6  84210610.46548  20565091.23448
  21278269.555 6 111818060.483 6  87130996.54049  21278279.77349
  20791049.398 6 109257701.707 6  85135907.46149  20791058.98049
  21825098.383 2 114691666.518 2  89370149.51147  21825105.91847
 20  5 16  0 22 30.0000000  0  7G04G08G14G16G26G27G31               -0.000395647
  22119233.578 6 116237352.773 6  90574596.39948  22119242.04748
  22933202.648 4 120514798.668 4  93907677.27748  22933213.54748
  22385455.000 6 117636360.463 6  91664718.42447  22385462.99247
  20565158.164 6 108070634.415 6  84210911.64648  20565164.39548
  21278568.938 6 111819635.184 6  87132223.57349  21278578.97349
  20790597.023 6 109255326.222 6  85134056.43849  20790607.04749
  21825305.805 2 114692762.356 2  89371003.40747  21825314.27047
 20  5 16  0 22 31.0000000  0  7G04G08G14G16G26G27G31               -0.000395658
  22118801.242 6 116235081.626 6  90572826.67748  22118809.96148
  22932527.750 4 120511253.489 4  93904914.79747  22932538.58647
  22386065.703 6 117639569.859 6  91667219.25147  22386073.56347
  20565232.172 6 108071021.731 6  84211213.45248  20565238.66048
  21278868.609 6 111821210.479 6  87133451.07749  21278878.69949
  20790145.250 6 109252951.779 6  85132206.22649  20790155.14849
  21825515.383 2 114693858.921 2  89371857.86647  21825522.60247
 20  5 16  0 22 32.0000000  0  7G04G08G14G16G26G27G31               -0.000395670
  22118368.969 6 116232811.338 6  90571057.61948  22118377.65648
  22931852.938 4 120507708.984 4  93902152.84548  22931863.47748
  22386676.664 6 117642779.923 6  91669720.59947  22386684.41047
  20565305.648 6 108071409.749 6  84211515.80448  20565312.46948
  21279168.586 6 111822786.267 6  87134678.96849  21279179.16049
  20789693.609 6 109250578.253 6  85130356.72249  20789703.31349
  21825724.039 3 114694956.134 3  89372712.84047  21825731.67247
 20  5 16  0 22 33.0000000  0  7G04G08G14G16G26G27G31               -0.000395681
  22117937.570 6 116230541.906 6  90569289.22848  22117945.66048
  22931178.797 4 120504165.081 4  93899391.36448  22931189.47348
  22387287.414 6 117645990.700 6  91672222.50047  22387295.23847
  20565380.273 6 108071798.475 6  84211818.70648  20565386.25848
  21279468.609 6 111824362.531 6  87135907.22449  21279479.01649
  20789241.758 6 109248205.695 6  85128507.97849  20789251.99649
  21825933.039 2 114696053.999 2  89373568.31747  21825940.70747
 20  5 16  0 22 34.0000000  0  7G04G08G14G16G26G27G31               -0.000395693
  22117505.875 6 116228273.340 6  90567521.51948  22117514.23048
  22930504.352 4 120500621.806 4  93896630.36548  22930515.07848
  22387898.938 6 117649202.147 6  91674724.92347  22387906.37947
  20565454.094 6 108072187.862 6  84212122.12248  20565460.48048
  21279768.258 6 111825939.250 6  87137135.83049  21279778.67649
  20788790.688 6 109245834.024 6  85126659.92649  20788800.71149
  21826142.227 2 114697152.441 2  89374424.24347  21826149.99247
 20  5 16  0 22 35.0000000  0  7G04G08G14G16G26G27G31               -0.000395704
  22117074.141 6 116226005.801 6  90565754.60348  22117082.47348
  22929830.875 4 120497079.289 4  93893869.96448  22929841.17248
  22388509.297 6 117652414.444 6  91677228.01547  22388517.62147
  20565528.297 6 108072578.115 6  84212426.21648  20565534.92248
  21280068.891 6 111827516.639 6  87138364.96449  21280079.03149
  20788339.820 6 109243463.456 6  85124812.73149  20788349.73049
  21826351.102 2 114698251.742 2  89375280.83547  21826358.76647
 20  5 16  0 22 36.0000000  0  7G04G08G14G16G26G27G31               -0.000395714
  22116643.195 6 116223739.245 6  90563988.45848  22116651.42248
  22929157.242 4 120493537.538 4  93891110.15448  22929167.03548
  22389121.258 6 117655627.523 6  91679731.71147  22389129.05947
  20565602.633 6 108072969.180 6  84212730.94348  20565609.46548
  21280369.156 6 111829094.588 6  87139594.53249  21280379.22349
  20787888.531 6 109241093.953 6  85122966.36449  20787898.65249
  21826561.039 3 114699351.760 3  89376137.98447  21826568.28547
 20  5 16  0 22 37.0000000  0  7G04G08G14G16G26G27G31               -0.000395725
  22116212.117 6 116221473.548 6  90562222.98048  22116220.10248
  22928482.711 4 120489996.388 4  93888350.81848  22928493.37148
  22389732.547 6 117658841.328 6  91682235.97547  22389740.53547
  20565677.281 6 108073360.944 6  84213036.21548  20565684.07848
  21280669.828 6 111830673.042 6  87140824.50149  21280679.49249
  20787437.930 6 109238725.389 6  85121120.73449  20787447.92249
  21826770.859 3 114700452.427 3  89376995.64547  21826777.56647
 20  5 16  0 22 38.0000000  0  7G04G08G14G16G26G27G31               -0.000395735
  22115781.203 6 116219208.805 6  90560458.24548  22115788.96548
  22927808.766 4 120486455.988 4  93885592.06748  22927819.27348
  22390344.664 6 117662055.863 6  91684740.80547  22390352.02347
  20565751.766 6 108073753.484 6  84213342.09048  20565758.59848
  21280969.977 6 111832252.063 6  87142054.90149  21280980.53149
  20786987.492 6 109236357.816 6  85119275.87249  20786997.32049
  21826980.680 3 114701553.817 3  89377853.85747  21826987.12147
 20  5 16  0 22 39.0000000  0  7G04G08G14G16G26G27G31               -0.000395744
  22115349.648 6 116216944.991 6  90558694.23348  22115358.45748
  22927135.578 4 120482916.260 4  93882833.83148  22927145.82448
  22390956.484 6 117665271.165 6  91687246.23747  22390964.25047
  20565826.930 6 108074146.776 6  84213648.55448  20565833.55948
  21281270.430 6 111833831.612 6  87143285.72049  21281280.84449
  20786537.242 6 109233991.241 6  85117431.78449  20786547.45749
  21827190.227 3 114702655.876 3  89378712.60347  21827197.02047
 20  5 16  0 22 40.0000000  0  7G04G08G14G16G26G27G31               -0.000395754
  22114918.656 6 116214681.944 6  90556930.82348  22114927.57848
  22926462.039 4 120479377.008 4  93880075.97448  22926472.40648
  22391568.492 6 117668487.045 6  91689752.11847  22391576.51247
  20565901.656 6 108074540.680 6  84213955.49348  20565908.38348
  21281570.813 6 111835411.551 6  87144516.83749  21281581.38349
  20786087.055 6 109231625.523 6  85115588.36749  20786097.16849
  21827399.570 3 114703758.496 3  89379571.77747  21827407.24647
 20  5 16  0 22 41.0000000  0  7G04G08G14G16G26G27G31               -0.000395761
  22114488.773 6 116212419.884 6  90555168.17748  22114497.25848
  22925789.133 4 120475838.561 4  93877318.74048  22925798.85248
  22392180.531 6 117671703.730 6  91692258.62447  22392188.10247
  20565976.680 6 108074935.425 6  84214263.08248  20565983.68048
  21281872.125 6 111836992.114 6  87145748.44549  21281882.37149
  20785636.898 6 109229260.863 6  85113745.77749  20785646.59449
  21827609.336 3 114704861.859 3  89380431.55047  21827616.88347
 20  5 16  0 22 42.0000000  0  7G04G08G14G16G26G27G31               -0.000395771
  22114058.266 6 116210158.695 6  90553406.21548  22114066.89148
  22925115.164 4 120472300.805 4  93874562.04148  22925125.97348
  22392792.750 6 117674921.129 6  91694765.68447  22392800.27747
  20566052.133 6 108075330.841 6  84214571.19948  20566058.96148
  21282173.125 6 111838573.155 6  87146980.42049  21282183.14849
  20785187.039 6 109226897.135 6  85111903.91049  20785197.43049
  21827820.063 3 114705965.871 3  89381291.81847  21827826.71547
 20  5 16  0 22 43.0000000  0  7G04G08G14G16G26G27G31               -0.000395779
  22113628.148 6 116207898.484 6  90551645.01448  22113636.93048
  22924442.969 4 120468763.711 4  93871805.86948  22924452.39848
  22393405.133 6 117678139.292 6  91697273.34547  22393413.19547
  20566127.328 6 108075727.068 6  84214879.95048  20566133.83248
  21282473.688 6 111840154.775 6  87148212.85449  21282484.00849
  20784737.695 6 109224534.449 6  85110062.85549  20784747.41449
  21828030.164 3 114707070.636 3  89382152.67347  21828036.93847
 20  5 16  0 22 44.0000000  0  7G04G08G14G16G26G27G31               -0.000395786
  22113198.297 6 116205639.176 6  90549884.51048  22113206.80548
  22923769.188 4 120465227.301 4  93869050.22848  22923779.59448
  22394017.703 6 117681358.205 6  91699781.58647  22394025.57847
  20566203.172 6 108076124.057 6  84215189.29048  20566209.78948
  21282774.430 6 111841736.933 6  87149445.70749  21282785.41449
  20784288.016 6 109222172.747 6  85108222.56749  20784298.22749
  21828240.641 4 114708176.064 4  89383014.03847  21828247.37947
 20  5 16  0 22 45.0000000  0  7G04G08G14G16G26G27G31               -0.000395796
  22112768.313 6 116203380.684 6  90548124.65548  22112776.70348
  22923095.984 4 120461691.439 4  93866295.01248  22923106.87948
  22394630.156 6 117684577.726 6  91702290.30047  22394638.00447
  20566278.586 6 108076521.641 6  84215499.09948  20566285.30148
  21283076.273 6 111843319.500 6  87150678.87349  21283086.12149
  20783838.680 6 109219811.902 6  85106382.95049  20783848.97349
  21828450.875 3 114709282.056 3  89383875.84647  21828458.14547
 20  5 16  0 22 46.0000000  0  7G04G08G14G16G26G27G31               -0.000395803
  22112339.242 6 116201123.164 6  90546365.55148  22112347.36348
  22922423.508 4 120458156.350 4  93863540.39948  22922434.06648
  22395243.180 6 117687798.058 6  91704799.64047  22395251.07447
  20566354.508 6 108076920.052 6  84215809.54848  20566361.26648
  21283377.109 6 111844902.649 6  87151912.49449  21283387.57849
  20783389.813 6 109217452.114 6  85104544.15349  20783400.34849
  21828661.430 4 114710388.859 4  89384738.28647  21828668.50447
 20  5 16  0 22 47.0000000  0  7G04G08G14G16G26G27G31               -0.000395809
  22111909.547 6 116198866.625 6  90544607.20548  22111917.85248
  22921751.320 4 120454621.955 4  93860786.32748  22921761.52348
  22395856.227 6 117691019.198 6  91707309.61747  22395863.73847
  20566430.344 6 108077319.274 6  84216120.62448  20566437.23048
  21283679.180 6 111846486.417 6  87153146.59849  21283689.20349
  20782940.844 6 109215093.370 6  85102706.17549  20782951.34449
  21828872.320 4 114711496.371 4  89385601.28347  21828879.09847
 20  5 16  0 22 48.0000000  0  7G04G08G14G16G26G27G31               -0.000395817
  22111480.000 6 116196610.902 6  90542849.50248  22111488.80148
  22921079.023 4 120451088.132 4  93858032.69248  22921088.97748
  22396468.891 6 117694240.939 6  91709820.06447  22396476.67247
  20566506.703 6 108077719.138 6  84216432.20548  20566513.24648
  21283980.055 6 111848070.607 6  87154381.03749  21283990.73049
  20782492.063 6 109212735.513 6  85100868.88349  20782502.28549
  21829082.547 4 114712604.469 4  89386464.73647  21829090.36347
 20  5 16  0 22 49.0000000  0  7G04G08G14G16G26G27G31               -0.000395823
  22111050.906 6 116194355.845 6  90541092.31648  22111059.57448
  22920406.070 4 120447554.790 4  93855279.44447  22920416.69947
  22397082.195 6 117697463.212 6  91712330.93047  22397090.46147
  20566582.438 6 108078119.516 6  84216744.18948  20566589.65248
  21284281.727 6 111849655.084 6  87155615.68849  21284292.52049
  20782043.836 6 109210378.415 6  85099032.17949  20782054.08249
  21829294.398 4 114713713.017 4  89387328.54047  21829301.31347
 20  5 16  0 22 50.0000000  0  7G04G08G14G16G26G27G31               -0.000395830
  22110621.852 6 116192101.694 6  90539335.83648  22110630.42648
  22919734.023 4 120444022.019 4  93852526.62448  22919744.32048
  22397695.836 6 117700686.169 6  91714842.32647  22397703.51647
  20566658.992 6 108078520.587 6  84217056.71148  20566665.73048
  21284583.203 6 111851240.065 6  87156850.73749  21284593.72749
  20781595.156 6 109208022.242 6  85097196.20449  20781605.59849
  21829505.344 4 114714822.224 4  89388192.85447  21829511.96147
 20  5 16  0 22 51.0000000  0  7G04G08G14G16G26G27G31               -0.000395836
  22110193.203 6 116189848.412 6  90537580.03048  22110201.79748
  22919061.734 4 120440489.935 4  93849774.35448  22919072.52348
  22398309.039 6 117703909.845 6  91717354.27847  22398317.04747
  20566735.430 6 108078922.350 6  84217369.77549  20566742.21149
  21284884.484 6 111852825.546 6  87158086.17549  21284895.21149
  20781147.055 6 109205667.029 6  85095360.96949  20781157.69149
  21829716.055 4 114715932.053 4  89389057.64847  21829723.68447
 20  5 16  0 22 52.0000000  0  7G04G08G14G16G26G27G31               -0.000395842
  22109764.469 6 116187595.960 6  90535824.86948  22109773.27748
  22918390.484 4 120436958.440 4  93847022.53848  22918400.39548
  22398922.398 6 117707134.137 6  91719866.69947  22398930.84847
  20566812.188 6 108079324.776 6  84217683.35448  20566818.95348
  21285187.195 6 111854411.451 6  87159321.94849  21285197.51649
  20780699.414 6 109203312.711 6  85093526.43349  20780709.22749
  21829927.148 4 114717042.474 4  89389922.91047  21829934.85947
 20  5 16  0 22 53.0000000  0  7G04G08G14G16G26G27G31               -0.000395847
  22109336.180 6 116185344.477 6  90534070.46748  22109344.61348
  22917718.125 4 120433427.684 4  93844271.29648  22917728.42648
  22399536.453 6 117710359.234 6  91722379.76847  22399544.37147
  20566888.992 7 108079728.008 7  84217997.56649  20566895.80549
  21285488.555 6 111855997.945 6  87160558.17649  21285498.90649
  20780251.328 6 109200959.436 6  85091692.70949  20780261.64549
  21830138.484 5 114718153.666 5  89390788.78547  21830146.18447
 20  5 16  0 22 54.0000000  0  7G04G08G14G16G26G27G31               -0.000395853
  22108907.813 6 116183093.927 6  90532316.78348  22108916.45348
  22917046.023 4 120429897.616 4  93841520.60048  22917056.21548
  22400150.203 6 117713585.071 6  91724893.40347  22400158.46547
  20566965.438 7 108080132.007 7  84218312.36748  20566972.69948
  21285790.633 6 111857584.978 6  87161794.82249  21285801.38349
  20779804.008 6 109198607.166 6  85089859.77549  20779813.65649
  21830350.438 5 114719265.560 5  89391655.19147  21830358.08647
 20  5 16  0 22 55.0000000  0  7G04G08G14G16G26G27G31               -0.000395859
  22108479.867 6 116180844.213 6  90530563.76148  22108488.43448
  22916374.203 4 120426368.134 4  93838770.36148  22916384.70748
  22400763.852 6 117716811.544 6  91727407.53847  22400772.44547
  20567043.055 7 108080536.646 7  84218627.67448  20567049.23848
  21286092.406 6 111859172.470 6  87163031.82549  21286103.19949
  20779356.344 6 109196255.783 6  85088027.52649  20779366.61749
  21830561.695 5 114720378.044 5  89392522.06647  21830569.39847
 20  5 16  0 22 56.0000000  0  7G04G08G14G16G26G27G31               -0.000395863
  22108051.711 6 116178595.305 6  90528811.36348  22108060.39848
  22915703.156 4 120422839.227 4  93836020.56348  22915712.99648
  22401378.469 6 117720038.662 6  91729922.17347  22401386.28547
  20567119.898 7 108080941.934 7  84218943.48048  20567126.48848
  21286395.047 6 111860760.379 6  87164269.15549  21286405.59849
  20778909.047 6 109193905.294 6  85086195.97949  20778918.57849
  21830773.656 5 114721491.108 5  89393389.38447  21830781.39547
 20  5 16  0 22 57.0000000  0  7G04G08G14G16G26G27G31               -0.000395868
  22107623.961 6 116176347.237 6  90527059.62448  22107632.49648
  22915031.281 4 120419310.886 4  93833271.20148  22915041.97348
  22401992.813 6 117723266.439 6  91732437.31747  22402000.73847
  20567196.945 7 108081347.885 7  84219259.80948  20567203.70748
  21286696.828 6 111862348.735 6  87165506.84349  21286707.68049
  20778462.031 6 109191555.699 6  85084365.12349  20778471.95749
  21830985.281 4 114722604.773 4  89394257.17247  21830993.47347
 20  5 16  0 22 58.0000000  0  7G04G08G14G16G26G27G31               -0.000395872
  22107196.289 6 116174100.057 6  90525308.57048  22107204.93848
  22914360.391 4 120415783.233 4  93830522.38048  22914370.57448
  22402606.547 6 117726494.906 6  91734953.00247  22402614.94547
  20567274.570 7 108081754.536 7  84219576.68148  20567281.15248
  21286999.313 6 111863937.599 6  87166744.91249  21287010.32849
  20778014.531 6 109189207.051 6  85082535.00649  20778024.89149
  21831197.344 5 114723719.106 5  89395125.48147  21831205.13747
 20  5 16  0 22 59.0000000  0  7G04G08G14G16G26G27G31               -0.000395876
  22106769.250 6 116171853.603 6  90523558.08748  22106777.19948
  22913688.555 4 120412256.001 4  93827773.88748  22913699.58648
  22403221.078 6 117729723.937 6  91737469.12647  22403229.66047
  20567352.203 7 108082161.753 7  84219893.99248  20567358.81648
  21287301.914 6 111865526.806 6  87167983.25649  21287312.55149
  20777568.242 6 109186859.229 6  85080705.53649  20777578.48049
  21831409.500 4 114724833.963 4  89395994.20147  21831417.42647
 20  5 16  0 23  0.0000000  0  7G04G08G14G16G26G27G31               -0.000395880
  22106342.273 6 116169608.146 6  90521808.38048  22106350.39548
  22913017.422 4 120408729.573 4  93825026.02248  22913028.57448
  22403835.883 6 117732953.750 6  91739985.86747  22403844.00047
  20567429.695 6 108082569.783 6  84220211.93049  20567436.24249
  21287604.477 6 111867116.591 6  87169222.04649  21287615.19149
  20777121.656 6 109184512.413 6  85078876.84949  20777131.79349
  21831622.430 4 114725949.490 4  89396863.43547  21831629.78147
 20  5 16  0 23  1.0000000  0  7G04G08G14G16G26G27G31               -0.000395882
  22105915.234 6 116167363.542 6  90520059.33048  22105923.33648
  22912346.625 4 120405203.731 4  93822278.61248  22912357.85248
  22404450.586 6 117736184.251 6  91742503.13947  22404458.70747
  20567507.250 7 108082978.498 7  84220530.41048  20567513.79748
  21287906.883 6 111868706.870 6  87170461.22549  21287918.07049
  20776675.219 6 109182166.581 6  85077048.92249  20776684.91049
  21831834.047 4 114727065.707 4  89397733.21047  21831842.28947
 20  5 16  0 23  2.0000000  0  7G04G08G14G16G26G27G31               -0.000395885
  22105488.273 6 116165119.785 6  90518310.94847  22105496.17247
  22911676.188 4 120401678.561 4  93819531.73047  22911687.09447
  22405065.383 6 117739415.452 6  91745020.95747  22405073.63747
  20567585.164 6 108083387.913 6  84220849.43648  20567591.74648
  21288209.570 6 111870297.634 6  87171700.77549  21288220.93849
  20776228.867 6 109179821.657 6  85075221.71049  20776238.67649
  21832046.477 4 114728182.562 4  89398603.48847  21832054.51647
 20  5 16  0 23  3.0000000  0  7G04G08G14G16G26G27G31               -0.000395889
  22105061.992 6 116162876.936 6  90516563.26648  22105069.23848
  22911005.227 4 120398154.009 4  93816785.33248  22911015.90648
  22405680.695 6 117742647.312 6  91747539.28247  22405688.90247
  20567663.547 7 108083798.029 7  84221169.00548  20567670.03948
  21288512.125 6 111871888.867 6  87172940.69949  21288523.29749
  20775782.906 6 109177477.681 6  85073395.22949  20775792.73049
  21832259.320 4 114729300.077 4  89399474.27947  21832267.27747
 20  5 16  0 23  4.0000000  0  7G04G08G14G16G26G27G31               -0.000395891
  22104635.406 6 116160635.016 6  90514816.31348  22104642.49648
  22910334.625 4 120394630.150 4  93814039.47248  22910345.34448
  22406296.094 6 117745879.960 6  91750058.22747  22406303.69147
  20567741.492 6 108084208.904 6  84221489.17048  20567748.44148
  21288815.211 6 111873480.657 6  87174181.05449  21288826.19949
  20775337.031 6 109175134.709 6  85071569.54349  20775347.04749
  21832472.617 5 114730418.262 5  89400345.58947  21832479.97347
 20  5 16  0 23  5.0000000  0  7G04G08G14G16G26G27G31               -0.000395893
  22104208.938 6 116158394.017 6  90513070.07747  22104216.60547
  22909664.383 4 120391106.977 4  93811294.14048  22909675.02048
  22406910.711 6 117749113.338 6  91752577.73547  22406919.37947
  20567820.008 6 108084620.533 6  84221809.92448  20567826.67648
  21289118.453 6 111875072.993 6  87175421.83449  21289129.25449
  20774891.375 6 109172792.744 6  85069744.62649  20774901.45349
  21832685.258 4 114731537.158 4  89401217.46447  21832692.80147
 20  5 16  0 23  6.0000000  0  7G04G08G14G16G26G27G31               -0.000395897
  22103782.367 6 116156153.848 6  90511324.49247  22103789.58647
  22908993.422 4 120387584.410 4  93808549.28148  22909004.80948
  22407526.648 6 117752347.324 6  91755097.72047  22407534.36747
  20567898.539 7 108085032.839 7  84222131.19948  20567904.89548
  21289421.633 6 111876665.768 6  87176662.95749  21289432.19549
  20774446.148 6 109170451.673 6  85067920.41749  20774455.39549
  21832898.063 4 114732656.665 4  89402089.81147  21832906.23847
 20  5 16  0 23  7.0000000  0  7G04G08G14G16G26G27G31               -0.000395899
  22103356.281 6 116153914.546 6  90509579.57648  22103363.77348
  22908323.313 4 120384062.448 4  93805804.88848  22908333.96948
  22408141.844 6 117755582.002 6  91757618.24547  22408150.28147
  20567976.969 7 108085445.793 7  84222452.98048  20567983.74648
  21289724.633 6 111878259.027 6  87177904.45949  21289735.50449
  20774000.703 6 109168111.518 6  85066096.91649  20774010.06649
  21833111.227 4 114733776.760 4  89402962.60047  21833119.39147
 20  5 16  0 23  8.0000000  0  7G04G08G14G16G26G27G31               -0.000395901
  22102930.367 6 116151676.008 6  90507835.26048  22102937.53948
  22907653.828 4 120380540.996 4  93803060.89948  22907664.05948
  22408757.922 6 117758817.281 6  91760139.23947  22408766.14847
  20568055.586 7 108085859.366 7  84222775.24648  20568062.35248
  21290027.711 6 111879852.650 6  87179146.23849  21290039.02049
  20773555.242 6 109165772.197 6  85064274.06949  20773564.82449
  21833324.602 3 114734897.437 3  89403835.84647  21833332.65647
 20  5 16  0 23  9.0000000  0  7G04G08G14G16G26G27G31               -0.000395903
  22102504.117 6 116149438.375 6  90506091.65348  22102511.86348
  22906983.938 4 120377020.240 4  93800317.45548  22906994.39848
  22409373.586 6 117762053.286 6  91762660.80447  22409381.46947
  20568134.711 7 108086273.684 7  84223098.09448  20568141.08248
  21290331.891 6 111881446.812 6  87180388.44949  21290342.34849
  20773110.688 6 109163433.890 6  85062452.01449  20773120.23849
  21833537.750 3 114736018.783 3  89404709.61747  21833545.85247
 20  5 16  0 23 10.0000000  0  7G04G08G14G16G26G27G31               -0.000395903
  22102078.727 6 116147201.549 6  90504348.67448  22102086.37148
  22906313.977 4 120373500.055 4  93797574.45248  22906324.45348
  22409989.266 6 117765289.890 6  91765182.83747  22409997.71147
  20568213.328 7 108086688.605 7  84223421.40348  20568220.00048
  21290634.648 6 111883041.361 6  87181630.95149  21290645.94949
  20772666.055 6 109161096.402 6  85060630.59149  20772675.33649
  21833750.594 4 114737140.659 4  89405583.82047  21833759.34847
 20  5 16  0 23 11.0000000  0  7G04G08G14G16G26G27G31               -0.000395905
  22101653.352 6 116144965.621 6  90502606.39448  22101660.89148
  22905644.523 4 120369980.540 4  93794831.96948  22905654.65248
  22410605.727 6 117768527.223 6  91767705.43647  22410613.82447
  20568292.289 7 108087104.271 7  84223745.30148  20568299.07848
  21290938.289 6 111884636.451 6  87182873.88349  21290948.92649
  20772221.078 6 109158759.928 6  85058809.95849  20772230.81349
  21833964.844 4 114738263.268 4  89406458.57247  21833972.96147
 20  5 16  0 23 12.0000000  0  7G04G08G14G16G26G27G31               -0.000395906
  22101227.602 6 116142730.561 6  90500864.78848  22101235.49248
  22904974.586 4 120366461.614 4  93792089.95248  22904984.77348
  22411222.117 6 117771765.211 6  91770228.52647  22411229.88347
  20568371.438 6 108087520.616 6  84224069.72848  20568378.11748
  21291241.906 6 111886231.984 6  87184117.15349  21291253.22349
  20771776.672 6 109156424.348 6  85056990.03249  20771786.41849
  21834179.273 3 114739386.440 3  89407333.76947  21834186.89847
 20  5 16  0 23 13.0000000  0  7G04G08G14G16G26G27G31               -0.000395906
  22100802.305 6 116140496.389 6  90499123.88048  22100810.05148
  22904304.836 3 120362943.353 3  93789348.45447  22904315.27747
  22411838.461 6 117775003.920 6  91772752.19047  22411846.29347
  20568451.023 6 108087937.676 6  84224394.70648  20568457.78948
  21291546.008 6 111887828.045 6  87185360.83949  21291556.61749
  20771332.539 6 109154089.766 6  85055170.87549  20771342.17649
  21834393.117 3 114740510.326 3  89408209.52747  21834400.89147
 20  5 16  0 23 14.0000000  0  7G04G08G14G16G26G27G31               -0.000395906
  22100377.375 6 116138263.021 6  90497383.58748  22100384.78148
  22903635.633 4 120359425.673 4  93786607.40048  22903646.16448
  22412454.813 6 117778243.240 6  91775276.33847  22412462.78947
  20568530.516 7 108088355.354 7  84224720.16848  20568537.12548
  21291849.664 6 111889424.502 6  87186604.83149  21291860.48449
  20770888.289 6 109151756.026 6  85053352.37349  20770898.00049
  21834605.492 3 114741634.753 3  89409085.70847  21834614.62147
 20  5 16  0 23 15.0000000  0  7G04G08G14G16G26G27G31               -0.000395906
  22099952.711 6 116136030.491 6  90495643.95148  22099960.35248
  22902966.555 4 120355908.614 4  93783866.83547  22902977.00447
  22413071.203 6 117781483.216 6  91777800.98547  22413079.14847
  20568610.063 7 108088773.717 7  84225046.16748  20568616.78548
  21292153.672 6 111891021.434 6  87187849.18849  21292164.48849
  20770444.555 6 109149423.202 6  85051534.59349  20770454.28949
  21834820.398 4 114742759.808 4  89409962.37047  21834828.45747
 20  5 16  0 23 16.0000000  0  7G04G08G14G16G26G27G31               -0.000395908
  22099527.867 6 116133798.828 6  90493904.99648  22099535.39148
  22902296.375 4 120352392.134 4  93781126.71848  22902307.34048
  22413687.891 6 117784723.890 6  91780326.18847  22413695.58247
  20568689.633 7 108089192.751 7  84225372.68848  20568696.40648
  21292457.680 6 111892618.798 6  87189093.89449  21292468.12149
  20770000.719 6 109147091.325 6  85049717.54449  20770010.32049
  21835034.914 4 114743885.453 4  89410839.50247  21835043.19147
 20  5 16  0 23 17.0000000  0  7G04G08G14G16G26G27G31               -0.000395908
  22099103.539 6 116131568.034 6  90492166.71147  22099111.23447
  22901627.992 4 120348876.313 4  93778387.12248  22901638.74248
  22414304.617 6 117787965.216 6  91782851.89447  22414312.57847
  20568769.773 7 108089612.479 7  84225699.75248  20568776.60548
  21292761.578 6 111894216.669 6  87190338.98749  21292772.34049
  20769557.266 6 109144760.356 6  85047901.21049  20769566.85949
  21835249.773 4 114745011.803 4  89411717.17547  21835257.41447
 20  5 16  0 23 18.0000000  0  7G04G08G14G16G26G27G31               -0.000395906
  22098678.914 6 116129338.069 6  90490429.08148  22098686.89848
  22900959.109 4 120345361.104 4  93775647.99448  22900969.55148
  22414922.086 6 117791207.200 6  91785378.11647  22414929.36747
  20568849.773 7 108090032.891 7  84226027.34548  20568856.52048
  21293065.203 6 111895815.001 6  87191584.43849  21293076.48849
  20769113.547 6 109142430.290 6  85046085.56849  20769123.22749
  21835463.375 4 114746138.677 4  89412595.26047  21835471.54747
 20  5 16  0 23 19.0000000  0  7G04G08G14G16G26G27G31               -0.000395906
  22098254.602 6 116127108.910 6  90488692.07048  22098262.89148
  22900290.586 4 120341846.414 4  93772909.27848  22900300.88748
  22415539.156 6 117794449.787 6  91787904.80947  22415546.52347
  20568929.844 7 108090453.884 7  84226355.39348  20568936.24248
  21293369.602 6 111897413.736 6  87192830.21049  21293380.61349
  20768670.273 6 109140101.103 6  85044270.62049  20768679.94149
  21835678.391 4 114747266.178 4  89413473.82247  21835686.19947
 20  5 16  0 23 20.0000000  0  7G04G08G14G16G26G27G31               -0.000395906
  22097830.883 6 116124880.667 6  90486955.78248  22097838.54348
  22899621.797 4 120338332.441 4  93770171.12147  22899632.23047
  22416156.125 6 117797693.146 6  91790432.10047  22416163.91847
  20569009.867 7 108090875.689 7  84226684.07448  20569016.61348
  21293674.133 6 111899013.000 6  87194076.38549  21293685.12549
  20768227.586 6 109137772.942 6  85042456.47049  20768236.99249
  21835893.156 4 114748394.390 4  89414352.94747  21835900.60947
 20  5 16  0 23 21.0000000  0  7G04G08G14G16G26G27G31               -0.000395905
  22097406.727 6 116122653.327 6  90485220.19048  22097414.75848
  22898953.086 4 120334819.092 4  93767433.45147  22898963.22347
  22416773.461 6 117800937.154 6  91792959.89447  22416780.87547
  20569090.305 7 108091298.144 7  84227013.25448  20569097.37548
  21293978.563 6 111900612.749 6  87195322.94049  21293989.44149
  20767784.352 6 109135445.692 6  85040643.02649  20767793.87549
  21836107.406 4 114749523.221 4  89415232.55047  21836115.61347
 20  5 16  0 23 22.0000000  0  7G04G08G14G16G26G27G31               -0.000395903
  22096982.961 6 116120426.737 6  90483485.19048  22096990.99248
  22898284.859 4 120331306.265 4  93764696.17848  22898294.94948
  22417390.906 6 117804181.764 6  91795488.16047  22417398.10947
  20569170.813 7 108091721.208 7  84227342.91948  20569178.08648
  21294283.203 6 111902212.871 6  87196569.79249  21294293.72749
  20767342.016 6 109133119.291 6  85038830.24649  20767351.74249
  21836322.406 3 114750652.615 3  89416112.59847  21836330.95347
 20  5 16  0 23 23.0000000  0  7G04G08G14G16G26G27G31               -0.000395903
  22096559.594 6 116118201.046 6  90481750.88348  22096567.48848
  22897616.313 4 120327794.116 4  93761959.44147  22897626.52347
  22418008.680 6 117807427.082 6  91798016.97947  22418015.67247
  20569251.773 7 108092145.011 7  84227673.15748  20569258.29748
  21294587.531 6 111903813.530 6  87197817.05649  21294598.50449
  20766899.508 6 109130793.866 6  85037018.22649  20766908.91049
  21836537.172 3 114751782.665 3  89416993.15747  21836545.60547
 20  5 16  0 23 24.0000000  0  7G04G08G14G16G26G27G31               -0.000395901
  22096136.039 6 116115976.253 6  90480017.27648  22096144.30548
  22896947.750 4 120324282.610 4  93759223.20147  22896958.19547
  22418626.031 6 117810673.097 6  91800546.34047  22418633.07047
  20569332.250 7 108092569.506 7  84228003.93248  20569339.01648
  21294892.414 6 111905414.679 6  87199064.70549  21294903.33249
  20766457.234 6 109128469.395 6  85035206.95149  20766466.33649
  21836752.414 3 114752913.387 3  89417874.23347  21836760.85247
 20  5 16  0 23 25.0000000  0  7G04G08G14G16G26G27G31               -0.000395899
  22095713.203 6 116113752.280 6  90478284.31348  22095721.05548
  22896279.906 4 120320771.716 4  93756487.44247  22896290.15647
  22419244.094 6 117813919.761 6  91803076.20647  22419251.02347
  20569413.242 7 108092994.664 7  84228335.22148  20569420.03148
  21295197.266 6 111907016.253 6  87200312.68349  21295208.25849
  20766014.492 6 109126145.825 6  85033396.37649  20766024.44549
  21836967.969 3 114754044.682 3  89418755.76347  21836975.91847
 20  5 16  0 23 26.0000000  0  7G04G08G14G16G26G27G31               -0.000395895
  22095289.828 6 116111529.267 6  90476552.09948  22095297.89148
  22895611.828 4 120317261.509 4  93753752.21948  22895622.43448
  22419861.820 6 117817167.173 6  91805606.65047  22419868.89847
  20569493.977 7 108093420.568 7  84228667.09848  20569501.04748
  21295502.211 6 111908618.371 6  87201561.08549  21295512.84049
  20765572.727 6 109123823.253 6  85031586.58449  20765582.66849
  21837183.797 3 114755176.669 3  89419637.82847  21837191.04347
 20  5 16  0 23 27.0000000  0  7G04G08G14G16G26G27G31               -0.000395893
  22094866.602 6 116109306.985 6  90474820.44848  22094874.91048
  22894943.953 4 120313751.846 4  93751017.41148  22894954.64848
  22420480.063 6 117820415.152 6  91808137.54247  22420487.19547
  20569575.359 7 108093847.067 7  84228999.43048  20569582.16048
  21295807.109 6 111910220.876 6  87202809.79249  21295817.64849
  20765131.008 6 109121501.494 6  85029777.41749  20765140.73049
  21837399.719 4 114756309.251 4  89420520.35547  21837406.80147
 20  5 16  0 23 28.0000000  0  7G04G08G14G16G26G27G31               -0.000395891
  22094444.188 6 116107085.521 6  90473089.43548  22094452.05548
  22894275.930 4 120310242.760 4  93748283.05948  22894287.05948
  22421098.070 6 117823663.724 6  91810668.89847  22421105.12147
  20569656.711 7 108094274.178 7  84229332.24648  20569663.48848
  21296111.852 6 111911823.783 6  87204058.81249  21296122.90649
  20764689.531 6 109119180.606 6  85027968.93749  20764699.00049
  21837614.922 4 114757442.352 4  89421403.28947  21837622.53147
 20  5 16  0 23 29.0000000  0  7G04G08G14G16G26G27G31               -0.000395887
  22094021.656 6 116104864.854 6  90471359.04548  22094029.84448
  22893608.859 4 120306734.177 4  93745549.09948  22893619.76648
  22421716.031 6 117826912.933 6  91813200.75347  22421723.30947
  20569738.023 7 108094701.922 7  84229665.54748  20569745.29348
  21296417.273 6 111913427.094 6  87205308.13949  21296427.93049
  20764247.617 6 109116860.620 6  85026161.15549  20764257.25449
  21837830.477 4 114758576.021 4  89422286.67847  21837838.40247
 20  5 16  0 23 30.0000000  0  7G04G08G14G16G26G27G31               -0.000395884
  22093598.992 6 116102645.044 6  90469629.32148  22093607.38748
  22892940.148 4 120303226.240 4  93742815.65047  22892951.49647
  22422334.703 6 117830162.788 6  91815733.12047  22422342.00847
  20569819.648 7 108095130.343 7  84229999.38348  20569826.41048
  21296721.977 6 111915030.873 6  87206557.83749  21296733.03549
  20763806.586 6 109114541.521 6  85024354.06749  20763816.40649
  21838046.359 4 114759710.327 4  89423170.55147  21838054.18047
 20  5 16  0 23 31.0000000  0  7G04G08G14G16G26G27G31               -0.000395882
  22093176.773 6 116100426.100 6  90467900.26948  22093185.10548
  22892273.023 3 120299718.907 3  93740082.66348  22892284.07848
  22422953.688 6 117833413.331 6  91818266.00947  22422960.07847
  20569901.344 7 108095559.458 7  84230333.75748  20569908.27048
  21297027.422 6 111916635.151 6  87207807.92349  21297038.65249
  20763365.219 6 109112223.367 6  85022547.71849  20763375.09449
  21838262.211 4 114760845.227 4  89424054.89547  21838270.27047
 20  5 16  0 23 32.0000000  0  7G04G08G14G16G26G27G31               -0.000395878
  22092754.742 6 116098208.077 6  90466171.94548  22092763.03948
  22891606.648 3 120296212.260 3  93737350.20947  22891617.05147
  22423572.008 6 117836664.602 6  91820799.46147  22423579.35247
  20569982.977 7 108095989.303 7  84230668.70348  20569990.04348
  21297332.680 6 111918239.923 6  87209058.39649  21297343.79749
  20762924.617 6 109109906.220 6  85020742.14949  20762933.96949
  21838478.117 4 114761980.817 4  89424939.76847  21838486.48447
 20  5 16  0 23 33.0000000  0  7G04G08G14G16G26G27G31               -0.000395874
  22092332.969 6 116095990.870 6  90464444.24948  22092341.09048
  22890939.102 4 120292706.212 4  93734618.22148  22890950.15248
  22424191.188 6 117839916.498 6  91823333.40547  22424198.15647
  20570065.039 7 108096419.788 7  84231004.14348  20570071.95748
  21297638.430 6 111919845.124 6  87210309.19849  21297649.42649
  20762483.984 6 109107589.943 6  85018937.26049  20762493.33249
  21838695.008 4 114763117.042 4  89425825.14047  21838702.43447
 20  5 16  0 23 34.0000000  0  7G04G08G14G16G26G27G31               -0.000395868
  22091910.641 6 116093774.457 6  90462717.17048  22091919.40648
  22890271.180 3 120289200.720 3  93731886.66547  22890282.89547
  22424809.313 6 117843169.021 6  91825867.84147  22424816.53547
  20570147.086 7 108096850.885 7  84231340.05848  20570153.72348
  21297943.820 6 111921450.744 6  87211560.33449  21297954.89149
