     2.10           OBSERVATION DATA    Mixed(MIXED)        RINEX VERSION / TYPE
cnvtToRINEX 3.07.0  convertToRINEX OPR  19-May-20 12:34 UTC PGM / RUN BY / DATE 
----------------------------------------------------------- COMMENT             
G054                                                        MARKER NAME         
G054                                                        MARKER NUMBER       
GNSS Observer       Trimble                                 OBSERVER / AGENCY   
5319436542          R5                  4.85                REC # / TYPE / VERS 
                    UNKNOWN EXT                             ANT # / TYPE        
 -3048824.6292  4929226.3035  2653475.0320                  APPROX POSITION XYZ 
        0.0000        0.0000        0.0000                  ANTENNA: DELTA H/E/N
     1     1     0                                          WAVELENGTH FACT L1/2
     4    C1    L1    L2    P2                              # / TYPES OF OBSERV 
     1.000                                                  INTERVAL            
  2020     5    16     1    53   48.0000000     GPS         TIME OF FIRST OBS   
  2020     5    16     3     9   12.0000000     GPS         TIME OF LAST OBS    
     0                                                      RCV CLOCK OFFS APPL 
    18                                                      LEAP SECONDS        
    10                                                      # OF SATELLITES     
   G01  2556  2554  2554  2554                              PRN / # OF OBS      
   G04  4525  4525  4525  4525                              PRN / # OF OBS      
   G07  2240  2227  2223  2223                              PRN / # OF OBS      
   G08  4525  4525  4525  4525                              PRN / # OF OBS      
   G09  4525  4525  4522  4522                              PRN / # OF OBS      
   G11  4525  4525  4522  4522                              PRN / # OF OBS      
   G16  4525  4525  4525  4525                              PRN / # OF OBS      
   G26  3235  2967  2220  2220                              PRN / # OF OBS      
   G27  4525  4525  4525  4525                              PRN / # OF OBS      
   G31  1346  1314  1261  1261                              PRN / # OF OBS      
CARRIER PHASE MEASUREMENTS: PHASE SHIFTS REMOVED            COMMENT             
                                                            END OF HEADER       
 20  5 16  1 53 48.0000000  0  7G04G08G09G11G16G27G31                0.000432091
  21669767.602 6 113875393.69416  88734099.22158  21669776.07048
  20624326.203 6 108381564.42216  84453190.05559  20624336.16049
  22973701.211 5 120727611.96115                
  23024800.320 5 120996146.20815                
  21816549.023 6 114646768.47816  89335139.82757  21816555.22747
  20371998.156 6 107055688.87216  83419917.44159  20371996.45749
  24034897.125 5 126304234.03415  98418913.65357  24034906.07447
 20  5 16  1 53 49.0000000  0  7G04G08G09G11G16G27G31                0.000432133
  21669970.703 6 113876462.635 6  88734932.16548  21669979.35248
  20624136.094 6 108380564.217 6  84452410.67049  20624145.62949
  22973544.383 5 120726788.387 5                
  23024184.875 5 120992910.082 5                
  21816804.703 6 114648112.744 6  89336187.29847  21816811.59047
  20372216.344 6 107056835.991 6  83420811.28449  20372214.30549
  24035414.891 5 126306953.305 5  98421032.56057  24035423.89547
 20  5 16  1 53 50.0000000  0  7G04G08G09G11G16G27G31                0.000432175
  21670174.484 6 113877531.642 6  88735765.16048  21670182.62148
  20623945.820 6 108379564.072 6  84451631.33849  20623955.21949
  22973387.875 5 120725964.877 5                
  23023568.961 5 120989673.588 5                
  21817060.281 6 114649456.553 6  89337234.41847  21817066.75047
  20372435.125 6 107057983.155 6  83421705.19549  20372434.73049
  24035932.086 5 126309672.299 5  98423151.25347  24035941.68447
 20  5 16  1 53 51.0000000  0  7G04G08G09G11G16G27G31                0.000432217
  21670377.391 6 113878600.767 6  88736598.24348  21670385.78548
  20623755.078 6 108378564.061 6  84450852.11049  20623765.14149
  22973231.188 5 120725141.537 5  94071577.30259  22973240.75849
  23022953.352 5 120986436.863 5  94275175.49557  23022961.03147
  21817315.969 6 114650799.985 6  89338281.25147  21817322.40247
  20372653.234 6 107059130.446 6  83422599.19749  20372663.20749
  24036449.906 6 126312391.114 6  98425269.80647  24036459.11747
 20  5 16  1 53 52.0000000  0  7G04G08G09G11G16G27G31                0.000432259
  21670580.945 6 113879670.082 6  88737431.47348  21670589.64848
  20623564.563 6 108377564.206 6  84450073.00249  20623574.45749
  22973074.164 5 120724318.393 5  94070935.89249  22973083.87149
  23022337.125 5 120983199.900 5  94272653.19747  23022344.92247
  21817571.406 6 114652143.102 6  89339327.83447  21817577.76247
  20372871.523 7 107060277.908 7  83423493.32549  20372880.53549
  24036967.211 6 126315109.812 6  98427388.27047  24036976.35947
 20  5 16  1 53 53.0000000  0  7G04G08G09G11G16G27G31                0.000432301
  21670784.578 6 113880739.714 6  88738264.95048  21670793.17248
  20623375.094 6 108376564.656 6  84449294.12449  20623384.84049
  22972917.758 5 120723495.538 5  94070294.70549  22972927.46149
  23021721.266 5 120979962.884 5  94270130.84347  23021729.75847
  21817827.219 6 114653486.001 6  89340374.24547  21817833.53147
  20373090.117 7 107061425.654 7  83424387.67749  20373098.51249
  24037484.648 5 126317828.480 5  98429506.71747  24037493.62547
 20  5 16  1 53 54.0000000  0  7G04G08G09G11G16G27G31                0.000432343
  21670988.453 6 113881809.628 6  88739098.64548  21670996.97348
  20623184.852 6 108375565.376 6  84448515.46249  20623194.68049
  22972761.219 5 120722673.063 5  94069653.81649  22972770.86749
  23021105.336 5 120976725.752 5  94267608.39847  23021113.55947
  21818082.805 6 114654828.678 6  89341420.48647  21818088.97747
  20373308.266 6 107062573.683 6  83425282.24449  20373317.29349
  24038001.781 5 126320547.170 5  98431625.17747  24038010.76247
 20  5 16  1 53 55.0000000  0  7G04G08G09G11G16G27G31                0.000432383
  21671192.047 6 113882879.745 6  88739932.49948  21671199.97748
  20622994.516 6 108374566.325 6  84447736.97949  20623004.10549
  22972604.359 5 120721850.766 5  94069013.06349  22972614.32449
  23020489.539 5 120973488.424 5  94265085.79747  23020497.30947
  21818338.172 6 114656171.056 6  89342466.48747  21818344.84447
  20373526.984 7 107063721.897 7  83426176.95349  20373536.22349
  24038519.688 5 126323265.736 5  98433743.53147  24038528.41447
 20  5 16  1 53 56.0000000  0  7G04G08G09G11G16G27G31                0.000432425
  21671395.516 6 113883950.286 6  88740766.68648  21671404.00448
  20622804.406 6 108373567.641 6  84446958.78749  20622814.27049
  22972448.281 5 120721028.909 5  94068372.65149  22972458.05149
  23019873.180 5 120970251.107 5  94262563.20847  23019881.30147
  21818593.734 6 114657513.308 6  89343512.39847  21818599.99247
  20373745.445 6 107064870.508 6  83427071.96849  20373754.60249
  24039037.000 5 126325984.389 5  98435861.95047  24039045.64547
 20  5 16  1 53 57.0000000  0  7G04G08G09G11G16G27G31                0.000432467
  21671599.953 6 113885021.318 6  88741601.25848  21671607.90248
  20622614.367 6 108372569.529 6  84446181.03549  20622623.88749
  22972292.117 5 120720207.609 5  94067732.67649  22972301.93849
  23019257.430 5 120967013.969 5  94260040.76247  23019265.63747
  21818849.141 6 114658855.592 6  89344558.33847  21818855.39147
  20373964.305 6 107066019.624 6  83427967.37849  20373972.88749
  24039554.445 5 126328703.260 5  98437980.55247  24039563.28147
 20  5 16  1 53 58.0000000  0  8G04G08G09G11G16G26G27G31             0.000432507
  21671803.305 6 113886092.821 6  88742436.19848  21671812.05548
  20622424.609 6 108371571.888 6  84445403.65449  20622434.79349
  22972136.250 5 120719386.808 5  94067093.09049  22972145.78149
  23018641.539 5 120963776.871 5  94257518.34747  23018649.66847
  21819104.258 6 114660197.813 6  89345604.22747  21819110.75847
  23302085.352 1                                
  20374182.836 6 107067169.203 6  83428863.15249  20374191.69149
  24040071.797 5 126331422.299 5  98440099.27947  24040080.64547
 20  5 16  1 53 59.0000000  0  8G04G08G09G11G16G26G27G31             0.000432549
  21672007.547 6 113887164.813 6  88743271.51748  21672016.01248
  20622234.750 6 108370574.723 6  84444626.64649  20622244.59849
  22971980.078 5 120718566.476 5  94066453.87549  22971989.63749
  23018025.453 5 120960539.843 5  94254995.99047  23018033.55947
  21819359.750 6 114661539.989 6  89346650.07247  21819366.53947
  23302426.586 1                                
  20374401.680 7 107068319.229 7  83429759.27749  20374410.35949
  24040589.031 5 126334141.491 5  98442218.12147  24040598.03547
 20  5 16  1 54  0.0000000  0  8G04G08G09G11G16G26G27G31             0.000432589
  21672211.508 6 113888237.238 6  88744107.17048  21672219.58648
  20622045.000 6 108369577.989 6  84443849.96849  20622055.25849
  22971823.758 5 120717746.637 5  94065815.04049  22971833.69149
  23017409.578 5 120957302.848 5  94252473.65547  23017418.03147
  21819615.273 6 114662882.111 6  89347695.88547  21819621.60247
  23302766.523 1                                
  20374620.336 6 107069469.680 6  83430655.73049  20374629.71549
  24041106.273 5 126336860.771 5  98444337.03947  24041115.85947
 20  5 16  1 54  1.0000000  0  8G04G08G09G11G16G26G27G31             0.000432629
  21672415.508 6 113889310.313 6  88744943.33248  21672423.94148
  20621855.469 6 108368581.904 6  84443073.80249  20621865.57449
  22971668.203 5 120716927.426 5  94065176.69549  22971677.45349
  23016794.063 4 120954066.134 4  94249951.54947  23016801.80947
  21819870.398 6 114664224.354 6  89348741.78847  21819876.59447
  23303108.125 1 122458527.965 1                
  20374839.789 6 107070620.777 6  83431552.69049  20374848.57449
  24041624.172 5 126339580.437 5  98446456.27047  24041633.16047
 20  5 16  1 54  2.0000000  0  8G04G08G09G11G16G26G27G31             0.000432671
  21672619.906 6 113890384.004 6  88745779.97548  21672627.91848
  20621666.047 6 108367586.461 6  84442298.12849  20621675.86349
  22971512.141 5 120716108.915 5  94064538.89249  22971521.50449
  23016178.219 5 120950829.645 5  94247429.60847  23016186.07847
  21820126.727 6 114665566.693 6  89349787.76747  21820132.60547
  23303450.031 1 122460320.364 1                
  20375058.773 6 107071772.472 6  83432450.11849  20375067.57049
  24042141.602 5 126342300.398 5  98448575.72347  24042150.87547
 20  5 16  1 54  3.0000000  0  8G04G08G09G11G16G26G27G31             0.000432713
  21672824.344 6 113891458.310 6  88746617.09348  21672832.61348
  20621477.234 6 108366591.643 6  84441522.94549  20621487.21949
  22971356.578 5 120715291.001 5  94063901.55749  22971366.12149
  23015562.609 5 120947593.383 5  94244907.84147  23015570.26247
  21820381.805 6 114666909.161 6  89350833.84347  21820388.00447
  23303790.688 1 122462112.760 1                
  20375277.867 7 107072924.785 7  83433348.02449  20375286.85249
  24042659.734 5 126345020.682 5  98450695.42247  24042668.12947
 20  5 16  1 54  4.0000000  0  8G04G08G09G11G16G26G27G31             0.000432753
  21673028.852 6 113892533.193 6  88747454.66948  21673037.32048
  20621287.875 6 108365597.368 6  84440748.18849  20621297.91049
  22971201.164 5 120714473.706 5  94063264.70449  22971210.55549
  23014946.320 4 120944357.278 4  94242386.19547  23014954.35547
  21820637.344 6 114668251.678 6  89351879.96147  21820643.31347
  23304132.508 1 122463905.244 1                
  20375497.578 7 107074077.635 7  83434246.34049  20375506.37149
  24043177.445 5 126347741.210 5  98452815.30847  24043185.93047
 20  5 16  1 54  5.0000000  0  8G04G08G09G11G16G26G27G31             0.000432795
  21673233.125 6 113893608.730 6  88748292.75748  21673241.90648
  20621098.563 6 108364603.728 6  84439973.92349  20621108.18849
  22971045.672 5 120713657.085 5  94062628.38049  22971054.92649
  23014331.492 4 120941121.467 4  94239864.78047  23014338.56647
  21820892.594 6 114669594.329 6  89352926.18447  21820898.68047
  23304473.813 1 122465697.824 1                
  20375717.031 6 107075231.147 6  83435145.18549  20375726.03549
  24043695.469 5 126350462.074 5  98454935.45047  24043703.87947
 20  5 16  1 54  6.0000000  0  8G04G08G09G11G16G26G27G31             0.000432835
  21673438.336 6 113894685.088 6  88749131.47948  21673446.72748
  20620909.742 6 108363610.914 6  84439200.29849  20620919.13749
  22970890.352 5 120712841.281 5  94061992.68249  22970899.78549
  23013715.289 5 120937886.070 5  94237343.68847  23013722.93047
  21821148.203 6 114670937.300 6  89353972.65247  21821154.41047
  23304815.375 1 122467490.588 1                
  20375936.602 6 107076385.442 6  83436044.63349  20375945.37149
  24044213.313 5 126353183.461 5  98457056.00847  24044221.42247
 20  5 16  1 54  7.0000000  0  8G04G08G09G11G16G26G27G31             0.000432877
  21673642.609 6 113895762.164 6  88749970.75648  21673651.68048
  20620721.125 6 108362618.830 6  84438427.24649  20620730.72749
  22970735.242 5 120712026.265 5  94061357.60549  22970744.77749
  23013099.953 5 120934651.058 5  94234822.90447  23013107.21147
  21821404.172 6 114672280.496 6  89355019.30147  21821410.01247
  23305155.063 1 122469283.665 1                
  20376156.391 6 107077540.482 6  83436944.66249  20376165.34449
  24044731.125 5 126355905.273 5  98459176.89847  24044739.13347
 20  5 16  1 54  8.0000000  0  8G04G08G09G11G16G26G27G31             0.000432919
  21673848.125 6 113896840.169 6  88750810.76048  21673856.74648
  20620532.367 6 108361627.648 6  84437654.90349  20620542.06349
  22970580.281 5 120711212.175 5  94060723.24849  22970590.16049
  23012484.242 5 120931416.510 5  94232302.48047  23012491.64847
  21821659.766 6 114673624.064 6  89356066.23847  21821665.82847
  23305496.602 1 122471076.973 1                
  20376376.711 7 107078696.372 7  83437845.35449  20376385.18849
  24045249.117 5 126358627.644 5  98461298.23347  24045257.49647
 20  5 16  1 54  9.0000000  0  8G04G08G09G11G16G26G27G31             0.000432961
  21674053.656 6 113897918.941 6  88751651.35948  21674062.41048
  20620343.813 6 108360637.263 6  84436883.17049  20620353.80549
  22970425.156 5 120710398.884 5  94060089.51249  22970435.22349
  23011868.680 5 120928182.409 5  94229782.39847  23011876.21547
  21821915.383 6 114674967.928 6  89357113.39947  21821921.17247
  23305838.133 1 122472870.564 1                
  20376596.531 7 107079853.060 7  83438746.67349  20376605.41049
  24045766.711 5 126361350.508 5  98463419.94047  24045775.88747
 20  5 16  1 54 10.0000000  0  8G04G08G09G11G16G26G27G31             0.000433004
  21674258.914 6 113898998.591 6  88752492.63848  21674267.56648
  20620155.820 6 108359647.735 6  84436112.10849  20620165.26249
  22970270.875 5 120709586.510 5  94059456.49649  22970280.24649
  23011253.391 5 120924948.750 5  94227262.65747  23011260.72747
  21822170.859 6 114676312.139 6  89358160.83847  21822176.80947
  23306179.172 1 122474664.468 1                
  20376816.789 6 107081010.618 6  83439648.66249  20376825.79749
  24046284.625 5 126364073.979 5  98465542.12447  24046293.71147
 20  5 16  1 54 11.0000000  0  8G04G08G09G11G16G26G27G31             0.000433046
  21674464.969 6 113900079.173 6  88753334.65348  21674473.88748
  20619967.344 6 108358659.131 6  84435341.77049  20619977.03549
  22970116.703 5 120708775.047 5  94058824.18649  22970126.18849
  23010638.258 5 120921715.629 5  94224743.34747  23010645.79347
  21822427.133 6 114677656.763 6  89359208.59647  21822432.87547
  23306520.781 1 122476458.771 1                
  20377037.133 6 107082169.070 6  83440551.35849  20377045.92249
  24046803.492 5 126366797.990 5  98467664.72247  24046811.94947
 20  5 16  1 54 12.0000000  0  8G04G08G09G11G16G26G27G31             0.000433088
  21674670.492 6 113901160.572 6  88754177.29948  21674679.30948
  20619779.594 6 108357671.361 6  84434572.07849  20619789.31649
  22969962.336 5 120707964.464 5  94058192.56349  22969972.11749
  23010023.305 4 120918482.954 4  94222224.37847  23010030.19147
  21822682.727 6 114679001.710 6  89360256.60047  21822689.07847
  23306863.063 1 122478253.305 1                
  20377258.156 7 107083328.335 7  83441454.68149  20377266.55949
  24047322.547 5 126369522.532 5  98469787.73747  24047330.67647
 20  5 16  1 54 13.0000000  0  8G04G08G09G11G16G26G27G31             0.000433132
  21674876.719 6 113902242.940 6  88755020.70648  21674885.13748
  20619591.680 6 108356684.575 6  84433803.15449  20619601.52349
  22969808.297 5 120707154.865 5  94057561.70749  22969817.94149
  23009408.172 4 120915250.845 4  94219705.84847  23009415.29747
  21822938.602 6 114680347.123 6  89361304.97547  21822944.92247
  23307204.711 1 122480048.288 1  95439144.49855  23307214.09845
  20377478.539 6 107084488.583 6  83442358.77149  20377487.28549
  24047840.430 5 126372247.775 5  98471911.30347  24047849.00847
 20  5 16  1 54 14.0000000  0  8G04G08G09G11G16G26G27G31             0.000433176
  21675083.063 6 113903326.236 6  88755864.83148  21675090.84848
  20619404.281 6 108355698.712 6  84433034.94649  20619413.84049
  22969654.461 5 120706346.199 5  94056931.57549  22969663.73449
  23008793.563 5 120912019.284 5  94217187.75147  23008800.52747
  21823195.039 6 114681692.935 6  89362353.65747  21823201.01647
  23307546.016 1 122481843.594 1  95440543.47545  23307555.89845
  20377699.648 6 107085649.733 6  83443263.56149  20377708.34049
  24048359.031 5 126374973.587 5  98474035.31347  24048368.00847
 20  5 16  1 54 15.0000000  0  8G04G08G09G11G16G26G27G31             0.000433220
  21675289.508 6 113904410.624 6  88756709.80448  21675297.51648
  20619216.695 6 108354713.968 6  84432267.61749  20619226.18449
  22969501.086 5 120705538.673 5  94056302.33649  22969510.08249
  23008178.563 5 120908788.430 5  94214670.20047  23008185.71547
  21823451.227 6 114683039.333 6  89363402.79947  21823457.05147
  23307888.141 1 122483639.546 1  95441942.94445  23307897.45745
  20377920.547 6 107086811.935 6  83444169.17249  20377929.70749
  24048878.070 5 126377700.213 5  98476159.94747  24048886.61347
 20  5 16  1 54 16.0000000  0  8G04G08G09G11G16G26G27G31             0.000433264
  21675495.836 6 113905496.052 6  88757555.59148  21675504.14148
  20619029.297 6 108353730.251 6  84431501.08549  20619039.03549
  22969347.680 5 120704732.213 5  94055673.92349  22969356.94949
  23007563.242 5 120905558.203 5  94212153.13747  23007570.89147
  21823707.211 6 114684386.272 6  89364452.35947  21823713.60247
  23308228.750 1 122485435.878 1  95443342.66045  23308239.91445
  20378142.258 6 107087975.185 6  83445075.60149  20378151.01649
  24049397.109 5 126380427.542 5  98478285.13947  24049405.92647
 20  5 16  1 54 17.0000000  0  8G04G08G09G11G16G26G27G31             0.000433308
  21675702.961 6 113906582.354 6  88758402.05448  21675711.37148
  20618842.453 6 108352747.421 6  84430735.23849  20618852.13349
  22969194.531 5 120703926.643 5  94055046.20149  22969203.59049
  23006949.055 5 120902328.499 5  94209636.48247  23006956.50447
  21823963.906 6 114685733.573 6  89365502.20347  21823969.63747
  23308571.539 1 122487232.588 1  95444742.65245  23308581.71545
  20378363.781 6 107089139.293 6  83445982.70049  20378372.78549
  24049916.266 5 126383155.479 5  98480410.79947  24049925.33247
 20  5 16  1 54 18.0000000  0  8G04G08G09G11G16G26G27G31             0.000433352
  21675909.063 6 113907669.732 6  88759249.36648  21675918.14848
  20618655.781 6 108351765.679 6  84429970.24149  20618665.14149
  22969041.656 5 120703122.197 5  94054419.36449  22969050.43449
  23006334.750 5 120899099.451 5  94207120.34047  23006341.70347
  21824220.820 6 114687081.438 6  89366552.49247  21824226.48447
  23308914.000 1 122489029.775 1  95446143.01545  23308923.66845
  20378585.266 6 107090304.467 6  83446890.62849  20378594.36749
  24050435.117 5 126385884.136 5  98482537.02247  24050443.69547
 20  5 16  1 54 19.0000000  0  8G04G08G09G11G16G26G27G31             0.000433397
  21676116.477 6 113908758.220 6  88760097.53748  21676125.01248
  20618468.969 6 108350785.024 6  84429206.09449  20618478.94549
  22968888.391 5 120702318.850 5  94053793.38049  22968897.53149
  23005719.945 5 120895871.125 5  94204604.76247  23005727.08247
  21824476.984 6 114688429.864 6  89367603.21047  21824482.87947
  23309256.500 1 122490827.538 1  95447543.81445  23309265.95745
  20378807.617 6 107091470.727 6  83447799.40349  20378816.10949
  24050954.563 5 126388613.609 5  98484663.87947  24050963.28147
 20  5 16  1 54 20.0000000  0  8G04G08G09G11G16G26G27G31             0.000433441
  21676323.547 6 113909847.580 6  88760946.38648  21676332.07448
  20618282.758 6 108349805.264 6  84428442.64649  20618292.48049
  22968735.719 5 120701516.421 5  94053168.11149  22968744.92249
  23005106.117 5 120892643.266 5  94202089.54347  23005113.04347
  21824733.625 6 114689778.721 6  89368654.27247  21824739.80147
  23309598.156 1 122492625.632 1  95448944.93545  23309607.86345
  20379029.367 6 107092637.866 6  83448708.85849  20379037.93849
  24051474.031 5 126391343.633 5  98486791.17047  24051482.82447
 20  5 16  1 54 21.0000000  0  8G04G08G09G11G16G26G27G31             0.000433487
  21676531.125 6 113910937.958 6  88761796.02948  21676539.86348
  20618096.227 6 108348826.487 6  84427679.96649  20618106.28549
  22968583.492 5 120700715.011 5  94052543.63749  22968592.33649
  23004492.063 5 120889416.070 5  94199574.85047  23004498.78147
  21824990.836 6 114691128.038 6  89369705.68847  21824996.50447
  23309939.656 1 122494424.238 1  95450346.42945  23309949.84045
  20379251.984 6 107093805.983 6  83449619.08049  20379260.55949
  24051993.375 5 126394074.421 5  98488919.04647  24052002.64147
 20  5 16  1 54 22.0000000  0  8G04G08G09G11G16G26G27G31             0.000433533
  21676738.805 6 113912029.523 6  88762646.60048  21676747.05548
  20617910.539 6 108347848.895 6  84426918.20349  20617919.88749
  22968431.039 5 120699914.841 5  94051920.12749  22968440.32449
  23003877.563 5 120886189.642 5  94197060.74947  23003884.73447
  21825247.266 6 114692478.035 6  89370757.62747  21825253.13747
  23310281.430 1 122496223.414 1  95451748.37745  23310292.57845
  20379474.375 7 107094975.284 7  83450530.22649  20379483.22349
  24052513.672 5 126396806.009 5  98491047.55347  24052522.59447
 20  5 16  1 54 23.0000000  0  8G04G08G09G11G16G26G27G31             0.000433578
  21676946.672 6 113913122.240 6  88763498.06748  21676955.15648
  20617724.055 6 108346872.465 6  84426157.34949  20617734.12949
  22968278.727 5 120699115.790 5  94051297.49249  22968287.77749
  23003263.797 5 120882963.989 5  94194547.25347  23003271.09047
  21825504.797 6 114693828.680 6  89371810.07647  21825510.30547
  23310624.125 1 122498023.157 1  95453150.81145  23310634.63745
  20379696.953 7 107096145.703 7  83451442.23649  20379705.55149
  24053033.586 5 126399538.450 5  98493176.72147  24053042.67647
 20  5 16  1 54 24.0000000  0  8G04G08G09G11G16G26G27G31             0.000433624
  21677155.133 6 113914215.901 6  88764350.26448  21677163.27748
  20617538.945 6 108345897.004 6  84425397.24649  20617548.81649
  22968127.148 5 120698317.811 5  94050675.69249  22968136.27049
  23002649.969 5 120879738.904 5  94192034.19347  23002657.48047
  21825761.398 6 114695179.781 6  89372862.87947  21825767.77047
  23310967.445 1 122499823.364 1  95454553.60045  23310977.51245
  20379919.680 6 107097317.104 6  83452355.02149  20379928.69549
  24053553.016 5 126402271.594 5  98495306.43447  24053562.12947
 20  5 16  1 54 25.0000000  0  8G04G08G09G11G16G26G27G31             0.000433670
  21677363.023 6 113915310.778 6  88765203.40948  21677371.20348
  20617353.273 6 108344922.720 6  84424638.06849  20617363.05149
  22967975.563 5 120697520.973 5  94050054.78049  22967985.02049
  23002036.375 5 120876514.578 5  94189521.73447  23002043.71947
  21826018.547 6 114696531.526 6  89373916.19147  21826024.56647
  23311309.828 1 122501624.178 1  95455956.84645  23311320.47345
  20380142.828 7 107098489.653 7  83453268.69249  20380151.61749
  24054073.828 5 126405005.555 5  98497436.79047  24054082.68447
 20  5 16  1 54 26.0000000  0  8G04G08G09G11G16G26G27G31             0.000433718
  21677572.117 6 113916406.769 6  88766057.42048  21677579.99248
  20617168.352 6 108343949.612 6  84423879.80649  20617178.18449
  22967823.711 5 120696725.338 5  94049434.81149  22967833.37149
  23001423.281 5 120873291.032 5  94187009.89147  23001430.14147
  21826275.906 6 114697883.923 6  89374970.00747  21826282.39547
  23311651.711 1 122503425.592 1  95457360.52345  23311662.84045
  20380366.063 6 107099663.313 6  83454183.23649  20380375.07049
  24054594.398 5 126407740.390 5  98499567.82647  24054603.18447
 20  5 16  1 54 27.0000000  0  8G04G08G09G11G16G26G27G31             0.000433765
  21677780.945 6 113917503.898 6  88766912.32548  21677788.93448
  20616983.195 6 108342977.608 6  84423122.40149  20616993.24249
  22967672.664 6 120695930.810 6  94048815.69449  22967682.27349
  23000810.117 5 120870068.256 5  94184498.63247  23000817.52747
  21826533.109 6 114699236.914 6  89376024.28347  21826539.18047
  23311994.789 1 122505227.593 1  95458764.65145  23312005.82045
  20380589.719 7 107100838.090 7  83455098.65049  20380599.00049
  24055115.102 5 126410476.034 5  98501699.50147  24055123.51247
 20  5 16  1 54 28.0000000  0  8G04G08G09G11G16G26G27G31             0.000433811
  21677990.055 6 113918602.222 6  88767768.16248  21677997.82448
  20616798.523 6 108342006.781 6  84422365.91349  20616808.38349
  22967521.820 6 120695137.531 6  94048197.56149  22967530.87149
  23000196.219 5 120866846.221 5  94181987.96747  23000204.27347
  21826791.438 6 114700590.605 6  89377079.10447  21826797.18447
  23312337.773 1 122507030.167 1  95460169.25445  23312348.70345
  20380813.797 7 107102014.074 7  83456014.99749  20380822.51649
  24055635.117 5 126413212.502 5  98503831.81147  24055644.02747
 20  5 16  1 54 29.0000000  0  8G04G08G09G11G16G26G27G31             0.000433859
  21678198.875 6 113919701.549 6  88768624.78148  21678206.77348
  20616614.133 6 108341036.989 6  84421610.22949  20616623.92249
  22967370.844 5 120694345.293 5  94047580.23249  22967380.47749
  22999584.125 5 120863624.861 5  94179477.81747  22999591.41847
  21827048.852 6 114701944.796 6  89378134.32547  21827054.88347
  23312681.398 1 122508833.320 1  95461574.33045  23312691.98445
  20381037.797 7 107103191.042 7  83456932.11149  20381046.50449
  24056156.875 5 126415949.731 5  98505964.71247  24056165.18047
 20  5 16  1 54 30.0000000  0  8G04G08G09G11G16G26G27G31             0.000433908
  21678408.773 6 113920802.009 6  88769482.27948  21678416.32848
  20616429.828 6 108340068.338 6  84420855.43249  20616439.38749
  22967221.016 5 120693554.237 5  94046963.82549  22967229.91849
  22998970.625 5 120860404.212 5  94176968.21847  22998978.08247
  21827306.555 6 114703299.636 6  89379190.03947  21827312.75447
  23313024.648 1 122510637.004 1  95462979.80445  23313034.97345
  20381261.656 7 107104369.149 7  83457850.11949  20381270.55949
  24056677.977 5 126418687.739 5  98508098.22247  24056686.18447
 20  5 16  1 54 31.0000000  0  8G04G08G09G11G16G26G27G31             0.000433956
  21678618.078 6 113921903.570 6  88770340.64048  21678626.07448
  20616245.703 6 108339100.782 6  84420101.49149  20616255.26649
  22967070.477 5 120692764.274 5  94046348.26249  22967079.76249
  22998358.063 5 120857184.282 5  94174459.17847  22998365.28547
  21827564.648 6 114704655.044 6  89380246.20247  21827570.36347
  23313368.188 1 122512441.192 1  95464385.69445  23313378.45345
  20381486.203 7 107105548.315 7  83458768.94649  20381494.96149
  24057199.063 5 126421426.614 5  98510232.40047  24057207.21547
 20  5 16  1 54 32.0000000  0  8G04G08G09G11G16G26G27G31             0.000434006
  21678828.117 6 113923006.141 6  88771199.78548  21678836.10948
  20616061.820 6 108338134.246 6  84419348.34849  20616071.57049
  22966920.430 5 120691975.366 5  94045733.52949  22966929.22349
  22997745.211 5 120853964.986 5  94171950.63847  22997752.84047
  21827822.453 6 114706010.961 6  89381302.75847  21827828.70747
  23313711.453 1 122514245.902 1  95465791.96245  23313722.00845
  20381710.531 6 107106728.485 6  83459688.56349  20381719.57849
  24057719.984 5 126424166.116 5  98512367.07147  24057728.79747
 20  5 16  1 54 33.0000000  0  8G04G08G09G11G16G26G27G31             0.000434053
  21679037.906 6 113924109.989 6  88772059.92848  21679046.28548
  20615878.008 6 108337168.985 6  84418596.20349  20615887.70749
  22966770.422 6 120691187.755 6  94045119.80249  22966779.71149
  22997132.867 5 120850746.575 5  94169442.78447  22997140.29747
  21828080.781 6 114707367.612 6  89382359.88847  21828086.87547
  23314054.281 1 122516051.309 1  95467198.72245  23314065.60545
  20381935.445 6 107107909.932 6  83460609.17149  20381944.62149
  24058242.031 5 126426906.622 5  98514502.52847  24058250.19147
 20  5 16  1 54 34.0000000  0  8G04G08G09G11G16G26G27G31             0.000434103
  21679248.047 6 113925214.948 6  88772920.93448  21679256.12148
  20615694.398 6 108336204.826 6  84417844.90749  20615704.57449
  22966621.000 6 120690401.252 6  94044506.94249  22966629.70749
  22996520.305 5 120847528.866 5  94166935.48047  22996527.49247
  21828339.266 6 114708724.869 6  89383417.49247  21828345.23447
  23314398.742 1 122517857.255 1  95468605.95445  23314409.11745
  20382160.633 6 107109092.442 6  83461530.60649  20382169.36749
  24058763.133 5 126429647.886 5  98516638.57147  24058772.04347
 20  5 16  1 54 35.0000000  0  8G04G08G09G11G16G26G27G31             0.000434153
  21679458.539 6 113926321.088 6  88773782.85748  21679466.53548
  20615511.305 6 108335241.896 6  84417094.57349  20615520.75849
  22966471.391 6 120689616.007 6  94043895.06249  22966480.61749
  22995908.094 5 120844311.993 5  94164428.83047  22995915.65247
  21828597.594 6 114710082.853 6  89384475.65647  21828604.02047
  23314742.117 1 122519663.873 1  95470013.73545  23314752.82845
  20382385.523 6 107110276.183 6  83462453.00249  20382394.54349
  24059284.789 5 126432390.105 5  98518775.36447  24059293.70747
 20  5 16  1 54 36.0000000  0  8G04G08G09G11G16G26G27G31             0.000434204
  21679669.188 6 113927428.463 6  88774645.75048  21679677.00848
  20615328.102 6 108334280.182 6  84416345.17849  20615337.98049
  22966322.055 6 120688831.982 6  94043284.13249  22966331.25849
  22995296.398 5 120841095.968 5  94161922.83347  22995303.67247
  21828856.016 6 114711441.516 6  89385534.35447  21828862.22747
  23315085.195 1 122521471.115 1  95471421.99145  23315096.66845
  20382611.180 6 107111461.085 6  83463376.30049  20382620.09049
  24059807.242 5 126435133.210 5  98520912.84547  24059815.56647
 20  5 16  1 54 37.0000000  0  8G04G08G09G11G16G26G27G31             0.000434254
  21679880.391 6 113928536.834 6  88775509.41648  21679888.05948
  20615145.289 6 108333319.436 6  84415596.55049  20615155.02349
  22966172.922 6 120688048.973 6  94042673.99849  22966182.09849
  22994684.406 5 120837880.505 5  94159417.28247  22994691.92247
  21829114.578 6 114712800.647 6  89386593.42047  21829120.58247
  23315430.063 1 122523278.839 1  95472830.63645  23315441.04345
  20382836.766 6 107112646.972 6  83464300.36549  20382845.87949
  24060329.477 5 126437876.976 5  98523050.83547  24060338.00047
 20  5 16  1 54 38.0000000  0  8G04G08G09G11G16G26G27G31             0.000434305
  21680091.438 6 113929646.466 6  88776374.06548  21680099.12148
  20614962.852 6 108332360.008 6  84414848.94249  20614972.24649
  22966024.133 6 120687267.295 6  94042064.89449  22966033.70749
  22994072.711 5 120834665.952 5  94156912.43847  22994080.08247
  21829372.781 6 114714160.567 6  89387653.09147  21829379.21947
  23315774.242 1 122525087.313 1  95474239.80345  23315785.09845
  20383062.750 6 107113834.123 6  83465225.42149  20383071.96549
  24060852.109 5 126440621.719 5  98525189.58847  24060860.28147
 20  5 16  1 54 39.0000000  0  8G04G08G09G11G16G26G27G31             0.000434357
  21680302.602 6 113930757.261 6  88777239.61848  21680310.57048
  20614780.242 7 108331401.727 7  84414102.22949  20614790.11349
  22965875.695 6 120686486.789 6  94041456.70849  22965885.16449
  22993461.164 5 120831452.177 5  94154408.20347  22993468.90647
  21829632.203 6 114715521.122 6  89388713.26847  21829638.61347
  23316118.359 1 122526896.376 1  95475649.44545  23316129.11345
  20383289.000 6 107115022.423 6  83466151.37149  20383298.06649
  24061374.797 5 126443367.293 5  98527328.99947  24061382.54747
 20  5 16  1 54 40.0000000  0  8G04G08G09G11G16G26G27G31             0.000434408
  21680514.430 6 113931869.225 6  88778106.07948  21680522.18048
  20614597.922 7 108330444.609 7  84413356.42449  20614607.76249
  22965727.078 6 120685707.443 6  94040849.42749  22965736.63749
  22992848.992 5 120828239.151 5  94151904.55147  22992857.29747
  21829891.633 6 114716882.322 6  89389773.94347  21829897.48447
  23316462.531 1 122528705.982 1  95477059.46945  23316473.63745
  20383515.094 7 107116211.870 7  83467078.21549  20383524.63349
  24061897.438 5 126446113.727 5  98529469.07147  24061905.19547
 20  5 16  1 54 41.0000000  0  8G04G08G09G11G16G26G27G31             0.000434460
  21680726.523 6 113932982.356 6  88778973.44848  21680734.06348
  20614416.375 6 108329488.684 6  84412611.54449  20614426.14849
  22965579.656 6 120684929.349 6  94040243.11849  22965588.84049
  22992238.602 5 120825026.925 5  94149401.51947  22992246.08247
  21830150.867 6 114718244.201 6  89390835.14647  21830156.76647
  23316806.969 1 122530516.358 1  95478470.17045  23316817.64545
  20383741.797 6 107117402.495 6  83468005.97749  20383750.85249
  24062419.547 5 126448861.035 5  98531609.82847  24062427.93447
 20  5 16  1 54 42.0000000  0  8G04G08G09G11G16G26G27G31             0.000434513
  21680938.211 6 113934096.675 6  88779841.74348  21680946.23448
  20614234.906 6 108328533.890 6  84411867.55049  20614244.46949
  22965431.188 6 120684152.409 6  94039637.71449  22965440.57449
  22991627.547 5 120821815.471 5  94146899.08447  22991634.88747
  21830409.859 6 114719606.729 6  89391896.85947  21830415.87947
  23317151.758 1 122532327.227 1  95479881.24445  23317163.07445
  20383968.930 6 107118594.260 6  83468934.62349  20383977.62949
  24062942.695 5 126451609.212 5  98533751.26147  24062951.37147
 20  5 16  1 54 43.0000000  0  8G04G08G09G11G16G26G27G31             0.000434566
  21681151.008 6 113935212.192 6  88780710.97648  21681158.79348
  20614053.250 6 108327580.355 6  84411124.53249  20614062.88349
  22965284.234 6 120683376.712 6  94039033.26849  22965293.24249
  22991016.391 5 120818604.859 5  94144397.30247  22991023.87547
  21830669.125 6 114720969.975 6  89392959.13147  21830675.34847
  23317496.242 1 122534138.805 1  95481292.89445  23317507.04745
  20384196.039 6 107119787.224 6  83469864.20249  20384204.66449
  24063466.359 5 126454358.280 5  98535893.38747  24063474.72747
 20  5 16  1 54 44.0000000  0  8G04G08G09G11G16G26G27G31             0.000434620
  21681363.469 6 113936328.777 6  88781581.04348  21681370.60248
  20613871.945 7 108326627.864 7  84410382.33449  20613881.50049
  22965136.875 6 120682602.139 6  94038429.70449  22965145.69549
  22990405.031 5 120815394.950 5  94141896.07847  22990412.88747
  21830928.992 6 114722333.791 6  89394021.84047  21830934.84447
  23317842.203 1 122535950.868 1  95482704.87945  23317852.53145
  20384423.008 7 107120981.253 7  83470794.61549  20384431.84049
  24063989.047 5 126457108.100 5  98538036.10747  24063997.34847
 20  5 16  1 54 45.0000000  0  8G04G08G09G11G16G26G27G31             0.000434673
  21681576.203 6 113937446.523 6  88782452.02048  21681583.22748
  20613690.734 7 108325676.535 7  84409641.03749  20613700.56649
  22964989.445 6 120681828.771 6  94037827.08449  22964998.68049
  22989794.383 5 120812185.807 5  94139395.44747  22989802.49247
  21831188.477 6 114723698.228 6  89395085.02947  21831194.67247
  23318186.352 1 122537763.645 1  95484117.46045  23318196.84045
  20384650.133 6 107122176.437 6  83471725.92149  20384658.94949
  24064512.563 5 126459858.763 5  98540179.48147  24064520.76247
 20  5 16  1 54 46.0000000  0  8G04G08G09G11G16G26G27G31             0.000434727
  21681788.992 6 113938565.541 6  88783323.97748  21681796.65648
  20613510.031 7 108324726.488 7  84408900.74649  20613519.70749
  22964842.563 6 120681056.653 6  94037225.43749  22964851.72749
  22989184.250 5 120808977.494 5  94136895.46547  22989191.45747
  21831448.203 6 114725063.437 6  89396148.83247  21831454.54747
  23318530.867 1 122539577.030 1  95485530.48845  23318541.93445
  20384878.109 6 107123372.866 6  83472658.20549  20384887.10249
  24065036.359 5 126462610.427 5  98542323.63347  24065045.06647
 20  5 16  1 54 47.0000000  0  8G04G08G09G11G16G26G27G31             0.000434782
  21682001.781 6 113939685.722 6  88784196.84548  21682009.68048
  20613329.820 7 108323777.588 7  84408161.34249  20613339.19549
  22964695.703 6 120680285.715 6  94036624.70249  22964704.80149
  22988573.945 5 120805769.992 5  94134396.11847  22988581.53947
  21831708.336 6 114726429.271 6  89397213.12247  21831714.28547
  23318877.344 1 122541391.021 1  95486943.98445  23318887.68045
  20385105.844 6 107124570.412 6  83473591.35949  20385114.78549
  24065559.750 5 126465362.876 5  98544468.39247  24065568.45347
 20  5 16  1 54 48.0000000  0  8G04G08G09G11G16G26G27G31             0.000434837
  21682215.242 6 113940807.088 6  88785070.63748  21682223.26648
  20613149.242 7 108322829.910 7  84407422.89149  20613159.03549
  22964549.891 6 120679516.042 6  94036024.95849  22964558.15249
  22987963.375 5 120802563.322 5  94131897.41747  22987971.14147
  21831968.234 6 114727795.839 6  89398277.97947  21831974.28947
  23319221.797 1 122543205.730 1  95488358.01745  23319232.80145
  20385334.297 6 107125769.188 6  83474525.46849  20385343.14149
  24066083.609 5 126468116.266 5  98546613.88147  24066092.44947
 20  5 16  1 54 49.0000000  0  8G04G08G09G11G16G26G27G31             0.000434893
  21682429.164 6 113941929.646 6  88785945.35848  21682436.79348
  20612969.484 6 108321883.417 6  84406685.35649  20612978.43849
  22964403.563 6 120678747.554 6  94035426.13849  22964412.09049
  22987353.445 5 120799357.453 5  94129399.34247  22987361.23447
  21832228.203 6 114729163.055 6  89399343.34347  21832234.37147
  23319567.086 1 122545021.076 1  95489772.58545  23319577.93045
  20385562.305 6 107126969.110 6  83475460.47249  20385571.49649
  24066608.148 5 126470870.518 5  98548760.05147  24066616.67647
 20  5 16  1 54 50.0000000  0  8G04G08G09G11G16G26G27G31             0.000434948
  21682642.813 6 113943053.285 6  88786820.92048  21682650.22748
  20612789.477 7 108320938.033 7  84405948.69449  20612799.10249
  22964257.008 6 120677980.198 6  94034828.19549  22964265.98849
  22986743.477 5 120796152.280 5  94126901.81247  22986751.13347
  21832488.227 6 114730530.849 6  89400409.15047  21832494.79747
  23319911.539 1 122546836.844 1  95491187.48945  23319923.91845
  20385790.570 6 107128170.128 6  83476396.33049  20385799.79749
  24067132.031 5 126473625.570 5  98550906.83947  24067140.79747
 20  5 16  1 54 51.0000000  0  8G04G08G09G11G16G26G27G31             0.000435003
  21682857.070 6 113944178.073 6  88787697.38048  21682864.53548
  20612609.484 6 108319993.775 6  84405212.90349  20612619.32849
  22964111.070 6 120677213.984 6  94034231.14449  22964120.11349
  22986133.828 5 120792947.846 5  94124404.84947  22986141.21147
  21832748.742 6 114731899.264 6  89401475.45247  21832755.32447
  23320256.313 1 122548653.345 1  95492602.94445  23320269.46145
  20386019.813 6 107129372.249 6  83477333.04749  20386028.65249
  24067656.992 5 126476381.426 5  98553054.25747  24067664.95347
 20  5 16  1 54 52.0000000  0  8G04G08G09G11G16G26G27G31             0.000435061
  21683071.352 6 113945304.034 6  88788574.75248  21683079.17248
  20612430.523 6 108319050.716 6  84404478.05249  20612439.63749
  22963965.664 6 120676448.984 6  94033635.04149  22963974.93449
  22985523.992 5 120789744.239 5  94121908.52947  22985531.99247
  21833009.297 6 114733268.364 6  89402542.28347  21833015.84447
  23320603.195 1 122550470.408 1  95494018.77145  23320615.46945
  20386248.320 6 107130575.547 6  83478270.67949  20386257.44549
  24068180.734 5 126479138.174 5  98555202.37247  24068189.98847
 20  5 16  1 54 53.0000000  0  8G04G08G09G11G16G26G27G31             0.000435116
  21683285.414 6 113946431.175 6  88789453.04547  21683293.16847
  20612250.727 7 108318108.842 7  84403744.12349  20612260.93849
  22963820.422 6 120675685.215 6  94033039.89449  22963829.38749
  22984915.070 5 120786541.416 5  94119412.82647  22984922.54747
  21833269.781 6 114734638.103 6  89403609.61147  21833276.36347
  23320948.711 1 122552288.097 1  95495435.14945  23320961.51645
  20386477.797 6 107131779.984 6  83479209.19849  20386487.02049
  24068705.961 5 126481895.769 5  98557351.14047  24068714.63747
 20  5 16  1 54 54.0000000  0  8G04G08G09G11G16G26G27G31             0.000435173
  21683500.234 6 113947559.433 6  88790332.21048  21683508.03948
  20612072.016 7 108317168.086 7  84403011.06649  20612081.35549
  22963675.125 6 120674922.561 6  94032445.61849  22963684.12149
  22984305.094 5 120783339.306 5  94116917.67247  22984312.86347
  21833530.523 6 114736008.455 6  89404677.41847  21833537.50047
  23321295.102 1 122554106.335 1  95496851.97745  23321307.02745
  20386707.313 6 107132985.525 6  83480148.58249  20386716.18449
  24069230.922 5 126484654.183 5  98559500.54847  24069239.64547
 20  5 16  1 54 55.0000000  0  8G04G08G09G11G16G26G27G31             0.000435232
  21683715.305 6 113948688.854 6  88791212.27548  21683723.03948
  20611893.211 6 108316228.506 6  84402278.92749  20611902.48449
  22963530.242 6 120674161.100 6  94031852.27149  22963539.51649
  22983696.031 5 120780137.984 5  94114423.13947  22983703.67647
  21833791.734 6 114737379.496 6  89405745.75947  21833798.29747
  23321642.719 1 122555925.22611  95498269.28255  23321653.41445
  20386936.797 6 107134192.236 6  83481088.87549  20386946.20749
  24069755.734 5 126487413.438 5  98561650.61847  24069764.64147
 20  5 16  1 54 56.0000000  0  8G04G08G09G11G16G26G27G31             0.000435289
  21683930.211 6 113949819.524 6  88792093.31648  21683938.19948
  20611714.469 6 108315290.186 6  84401547.77149  20611723.97749
  22963385.984 6 120673400.937 6  94031259.93549  22963395.10249
  22983087.156 5 120776937.518 5  94111929.27147  22983094.85947
  21834052.719 6 114738751.249 6  89406814.66147  21834059.18047
  23321987.969 1 122557744.848 1  95499687.17645  23321999.60545
  20387166.844 6 107135400.183 6  83482030.13649  20387175.59049
  24070281.102 5 126490173.656 5  98563801.43647  24070290.06347
 20  5 16  1 54 57.0000000  0  8G04G08G09G11G16G26G27G31             0.000435349
  21684145.531 6 113950951.471 6  88792975.35048  21684153.64848
  20611536.273 6 108314353.110 6  84400817.58249  20611545.92649
  22963241.445 6 120672642.053 6  94030668.59849  22963250.13749
  22982477.945 5 120773737.974 5  94109436.11847  22982485.44947
  21834314.031 6 114740123.762 6  89407884.15147  21834320.17247
  23322334.297 1 122559565.108 1  95501105.57545  23322346.10945
  20387396.586 6 107136609.374 6  83482972.35749  20387405.92649
  24070806.047 5 126492934.823 5  98565952.98447  24070814.97747
 20  5 16  1 54 58.0000000  0  8G04G08G09G11G16G26G27G31             0.000435406
  21684361.625 6 113952084.446 6  88793858.18848  21684368.81348
  20611358.594 6 108313417.122 6  84400088.24449  20611367.59049
  22963096.852 6 120671884.232 6  94030078.08249  22963106.04749
  22981869.367 5 120770539.062 5  94106943.46347  22981876.87147
  21834575.203 6 114741496.810 6  89408954.06047  21834581.49647
  23322680.281 1 122561385.938 1  95502524.43145  23322692.50445
  20387627.000 6 107137819.594 6  83483915.38549  20387636.02049
  24071332.477 5 126495696.732 5  98568105.11647  24071340.96547
 20  5 16  1 54 59.0000000  0  8G04G08G09G11G16G26G27G31             0.000435465
  21684577.109 6 113953218.614 6  88794741.94848  21684584.96148
  20611180.313 6 108312482.312 6  84399359.82149  20611189.93449
  22962952.867 6 120671127.637 6  94029488.53249  22962961.95749
  22981260.906 5 120767340.941 5  94104451.42247  22981268.60547
  21834836.742 6 114742870.543 6  89410024.50247  21834842.86747
  23323026.797 1 122563207.340 1  95503943.71445  23323038.84445
  20387857.859 6 107139030.983 6  83484859.32849  20387866.69149
  24071857.445 5 126498459.480 5  98570257.90847  24071866.98447
 20  5 16  1 55  0.0000000  0  8G04G08G09G11G16G26G27G31             0.000435526
  21684793.125 6 113954353.934 6  88795626.61048  21684801.18048
  20611002.875 6 108311548.685 6  84398632.31549  20611012.15649
  22962809.766 6 120670372.229 6  94028899.89949  22962818.58649
  22980652.711 5 120764143.634 5  94101960.01347  22980660.07447
  21835098.109 6 114744244.941 6  89411095.45347  21835104.33247
  23323373.719 1 122565029.438 1  95505363.50045  23323385.88345
  20388088.367 6 107140243.542 6  83485804.18049  20388097.76249
  24072384.211 5 126501223.161 5  98572411.42847  24072392.92247
 20  5 16  1 55  1.0000000  0  8G04G08G09G11G16G26G27G31             0.000435585
  21685009.875 6 113955490.409 6  88796512.18248  21685017.82048
  20610825.648 6 108310616.146 6  84397905.66749  20610834.52049
  22962665.531 6 120669617.987 6  94028312.17349  22962674.75049
  22980043.797 5 120760947.032 5  94099469.15547  22980051.93447
  21835359.492 6 114745619.947 6  89412166.88847  21835366.26247
  23323720.523 1 122566852.039 1  95506783.69545  23323732.57045
  20388319.227 6 107141457.181 6  83486749.87449  20388328.46949
  24072909.703 5 126503987.596 5  98574565.52647  24072919.09847
 20  5 16  1 55  2.0000000  0  8G04G08G09G11G16G26G27G31             0.000435644
  21685225.914 6 113956627.914 6  88797398.54348  21685233.89848
  20610648.117 6 108309684.688 6  84397179.85349  20610657.31349
  22962522.500 6 120668864.845 6  94027725.30949  22962531.43849
  22979436.039 5 120757751.143 5  94096978.85247  22979443.80947
  21835621.281 6 114746995.515 6  89413238.75647  21835628.10247
  23324067.828 1 122568675.156 1  95508204.26545  23324079.58245
  20388550.242 6 107142671.908 6  83487696.41049  20388559.43049
  24073435.992 5 126506752.821 5  98576720.24047  24073444.84447
 20  5 16  1 55  3.0000000  0  8G04G08G09G11G16G26G27G31             0.000435705
  21685443.141 6 113957766.730 6  88798285.93348  21685450.71148
  20610471.336 6 108308754.556 6  84396455.07349  20610480.68049
  22962379.641 6 120668112.989 6  94027139.44449  22962388.43449
  22978827.625 5 120754556.138 5  94094489.24047  22978835.44147
  21835883.445 6 114748371.850 6  89414311.22747  21835889.71947
  23324415.180 1 122570499.019 1  95509625.46445  23324426.69945
  20388781.977 6 107143887.887 6  83488643.93049  20388791.01249
  24073961.922 5 126509518.977 5  98578875.68447  24073971.48047
 20  5 16  1 55  4.0000000  0  8G04G08G09G11G16G26G27G31             0.000435766
  21685659.609 6 113958906.692 6  88799174.22248  21685667.60248
  20610294.430 6 108307825.564 6  84395731.18249  20610303.44949
  22962236.805 6 120667362.311 6  94026554.50049  22962245.91049
  22978219.844 5 120751361.929 5  94092000.24447  22978227.77347
  21836146.117 6 114749748.840 6  89415384.20347  21836152.32047
  23324762.625 1 122572323.551 1  95511047.16645  23324773.85245
  20389013.570 6 107145104.991 6  83489592.32149  20389022.55949
  24074489.281 5 126512286.037 5  98581031.83547  24074497.87947
 20  5 16  1 55  5.0000000  0  8G04G08G09G11G16G26G27G31             0.000435827
  21685877.258 6 113960047.759 6  88800063.36448  21685884.93448
  20610117.734 6 108306897.704 6  84395008.17649  20610126.94549
  22962093.992 6 120666612.824 6  94025970.48349  22962103.10549
  22977611.953 5 120748168.449 5  94089511.81647  22977619.85247
  21836407.680 6 114751126.425 6  89416457.65047  21836414.16447
  23325109.039 1 122574148.543 1  95512469.26445  23325120.96945
  20389245.234 6 107146323.227 6  83490541.59949  20389254.25049
  24075015.195 5 126515053.869 5  98583188.58147  24075024.47347
 20  5 16  1 55  6.0000000  0  8G04G08G09G11G16G26G27G31             0.000435890
  21686094.156 6 113961189.882 6  88800953.33148  21686102.07448
  20609941.281 6 108305970.873 6  84394285.96749  20609950.80149
  22961951.773 6 120665864.375 6  94025387.27949  22961960.98049
  22977004.414 5 120744975.617 5  94087023.89847  22977012.00047
  21836669.602 6 114752504.540 6  89417531.50747  21836676.39547
  23325456.859 1 122575974.144 1  95513891.80345  23325468.49645
  20389477.844 6 107147542.462 6  83491491.65149  20389486.50849
  24075542.258 5 126517822.457 5  98585345.92547  24075551.41047
 20  5 16  1 55  7.0000000  0  8G04G08G09G11G16G26G27G31             0.000435951
  21686311.719 6 113962333.206 6  88801844.22948  21686319.79348
  20609765.500 6 108305045.249 6  84393564.70549  20609774.66449
  22961809.586 6 120665117.148 6  94024805.02449  22961818.33249
  22976397.422 5 120741783.629 5  94084536.63947  22976405.40247
  21836932.797 6 114753883.362 6  89418605.91347  21836938.67247
  23325803.297 1 122577800.340 1  95515314.82745  23325815.93045
  20389709.719 6 107148762.911 6  83492442.64449  20389718.71949
  24076069.758 5 126520591.942 5  98587503.96847  24076078.63747
 20  5 16  1 55  8.0000000  0  8G04G08G09G11G16G26G27G31             0.000436014
  21686528.992 6 113963477.789 6  88802736.11248  21686537.55948
  20609589.133 6 108304120.861 6  84392844.40449  20609598.58249
  22961667.289 6 120664371.224 6  94024223.78249  22961676.75049
  22975789.617 5 120738592.486 5  94082050.04147  22975797.62947
  21837194.891 6 114755262.930 6  89419680.90247  21837201.50847
  23326151.672 1 122579627.200 1  95516738.37645  23326163.25045
  20389942.094 6 107149984.590 6  83493394.60449  20389951.08249
  24076596.906 5 126523362.353 5  98589662.72347  24076606.07447
 20  5 16  1 55  9.0000000  0  8G04G08G09G11G16G26G27G31             0.000436077
  21686747.398 6 113964623.412 6  88803628.80548  21686755.63748
  20609413.961 6 108303197.539 6  84392124.93049  20609422.78549
  22961525.406 6 120663626.361 6  94023643.36449  22961534.62549
  22975182.484 5 120735402.025 5  94079563.96947  22975190.67647
  21837457.875 6 114756643.011 6  89420756.29347  21837464.05147
  23326498.984 1                                
  20390174.695 6 107151207.296 6  83494347.36049  20390183.52349
  24077123.680 5 126526133.500 5  98591822.05147  24077133.13347
 20  5 16  1 55 10.0000000  0  8G04G08G09G11G16G26G27G31             0.000436140
  21686965.898 6 113965770.313 6  88804522.49248  21686973.82048
  20609238.141 6 108302275.521 6  84391406.46949  20609247.50049
  22961383.883 6 120662882.830 6  94023063.99349  22961393.55149
  22974575.688 5 120732212.489 5  94077078.61747  22974583.66447
  21837720.078 6 114758023.898 6  89421832.30447  21837726.56647
  23326848.242 1 122583282.72911  95519586.78755  23326859.12145
  20390407.797 7 107152431.299 7  83495301.13049  20390416.60549
  24077651.078 5 126528905.642 5  98593982.16147  24077661.03947
 20  5 16  1 55 11.0000000  0  8G04G08G09G11G16G26G27G31             0.000436205
  21687184.188 6 113966918.248 6  88805416.98248  21687192.43448
  20609063.156 6 108301354.448 6  84390688.75449  20609072.26249
  22961242.648 6 120662140.298 6  94022485.39249  22961252.45749
  22973968.984 5 120729023.519 5  94074593.71247  22973976.83247
  21837982.906 6 114759405.269 6  89422908.69247  21837989.27047
  23327196.734 1 122585111.308 1  95521011.65645  23327206.96145
  20390640.789 6 107153656.248 6  83496255.63249  20390650.17249
  24078178.828 5 126531678.473 5  98596142.80247  24078188.18847
 20  5 16  1 55 12.0000000  0  8G04G08G09G11G16G26G27G31             0.000436268
  21687402.477 6 113968067.313 6  88806312.35648  21687411.31348
  20608888.297 6 108300434.591 6  84389971.97749  20608897.16849
  22961101.375 6 120661398.986 6  94021907.74249  22961111.10549
  22973362.781 5 120725835.355 5  94072109.43147  22973370.48447
  21838246.172 6 114760787.295 6  89423985.59547  21838252.79747
  23327544.359 1 122586940.549 1  95522437.03545  23327555.21945
  20390874.000 6 107154882.375 6  83497211.05649  20390883.19949
  24078706.609 5 126534452.158 5  98598304.10647  24078716.28547
 20  5 16  1 55 13.0000000  0  8G04G08G09G11G16G26G27G31             0.000436333
  21687621.758 6 113969217.531 6  88807208.62948  21687630.00048
  20608713.109 6 108299515.851 6  84389256.07949  20608722.41449
  22960960.641 6 120660658.823 6  94021330.99349  22960970.15649
  22972755.883 5 120722647.953 5  94069625.74347  22972763.54747
  21838508.969 6 114762169.940 6  89425062.98347  21838515.62547
  23327892.617 1 122588770.291 1  95523862.83045  23327902.97745
  20391107.883 6 107156109.612 6  83498167.34549  20391116.71549
  24079234.992 5 126537226.632 5  98600466.03447  24079244.36747
 20  5 16  1 55 14.0000000  0  8G04G08G09G11G16G26G27G31             0.000436398
  21687841.156 6 113970368.827 6  88808105.74248  21687848.86748
  20608538.273 6 108298598.229 6  84388541.04549  20608547.44149
  22960820.031 6 120659919.783 6  94020755.11649  22960829.53149
  22972149.375 5 120719461.250 5  94067142.59947  22972157.27747
  21838772.156 6 114763553.195 6  89426140.84147  21838778.51647
  23328240.875 1 122590600.624 1  95525289.08845  23328251.51645
  20391341.188 6 107157337.914 6  83499124.46149  20391350.46549
  24079763.656 5 126540001.881 5  98602628.56347  24079772.51647
 20  5 16  1 55 15.0000000  0  8G04G08G09G11G16G26G27G31             0.000436462
  21688060.219 6 113971521.195 6  88809003.69548  21688068.35548
  20608364.008 6 108297681.679 6  84387826.85449  20608373.09849
  22960679.430 6 120659181.879 6  94020180.12249  22960689.32049
  22971543.305 5 120716275.258 5  94064660.00447  22971551.06347
  21839035.414 6 114764937.004 6  89427219.13947  21839041.72747
  23328588.891 1 122592431.565 1  95526715.78745  23328600.33245
  20391575.219 7 107158567.311 7  83500082.43449  20391584.58249
  24080291.844 5 126542777.973 5  98604791.74847  24080300.64547
 20  5 16  1 55 16.0000000  0  8G04G08G09G11G16G26G27G31             0.000436527
  21688279.305 6 113972674.696 6  88809902.52248  21688287.53148
  20608189.750 6 108296766.299 6  84387113.57149  20608198.98049
  22960539.352 6 120658445.133 6  94019606.03349  22960548.97349
  22970937.266 5 120713090.045 5  94062178.02247  22970944.75447
  21839299.172 6 114766321.443 6  89428297.92647  21839305.84447
  23328938.086 1 122594262.974 1  95528142.84545  23328948.04745
  20391809.852 6 107159797.811 6  83501041.26349  20391818.63349
  24080820.156 5 126545554.856 5  98606955.55947  24080828.85547
 20  5 16  1 55 17.0000000  0  8G04G08G09G11G16G26G27G31             0.000436594
  21688499.320 6 113973829.284 6  88810802.19848  21688507.53948
  20608015.648 6 108295851.978 6  84386401.10849  20608025.23449
  22960399.320 6 120657709.445 6  94019032.76349  22960409.06649
  22970330.852 5 120709905.466 5  94059696.53547  22970338.87147
  21839562.359 6 114767706.428 6  89429377.13247  21839568.96947
  23329287.242 1 122596094.932 1  95529570.38345  23329297.48845
  20392043.945 6 107161029.354 6  83502000.90449  20392053.25049
  24081348.328 5 126548332.471 5  98609119.93147  24081357.84047
 20  5 16  1 55 18.0000000  0  8G04G08G09G11G16G26G27G31             0.000436659
  21688719.359 6 113974985.080 6  88811702.81948  21688727.50848
  20607842.078 6 108294938.907 6  84385689.62949  20607851.21549
  22960260.172 6 120656975.014 6  94018460.47949  22960269.49249
  22969725.172 5 120706721.773 5  94057215.74047  22969732.77047
  21839826.289 6 114769092.156 6  89430456.91847  21839832.81647
  23329635.805 1 122597927.603 1  95530998.43145  23329646.25845
  20392278.500 6 107162262.111 6  83502961.49249  20392287.49649
  24081877.617 5 126551111.021 5  98611285.02647  24081886.13347
 20  5 16  1 55 19.0000000  0  8G04G08G09G11G16G26G27G31             0.000436726
  21688939.234 6 113976141.865 6  88812604.20848  21688947.82848
  20607668.281 6 108294026.820 6  84384978.90949  20607677.59849
  22960120.602 6 120656241.628 6  94017889.00549  22960129.84849
  22969119.219 5 120703538.666 5  94054735.39947  22969127.28547
  21840089.516 6 114770478.341 6  89431537.06347  21840096.34047
  23329984.828 1 122599760.691 1  95532426.81445  23329994.62945
  20392513.313 7 107163495.859 7  83503922.85449  20392522.41849
  24082406.258 5 126553890.247 5  98613450.64947  24082415.66047
 20  5 16  1 55 20.0000000  0  8G04G08G09G11G16G26G27G31             0.000436792
  21689159.633 6 113977299.844 6  88813506.52848  21689167.99648
  20607495.469 6 108293115.918 6  84384269.11349  20607504.68449
  22959980.781 6 120655509.459 6  94017318.48749  22959990.29349
  22968513.695 5 120700356.379 5  94052255.69847  22968521.69147
  21840354.148 6 114771865.225 6  89432617.75247  21840360.59047
  23330333.438 1 122601594.390 1  95533855.67145  23330343.58245
  20392748.234 6 107164730.763 6  83504885.11949  20392757.31349
  24082934.969 5 126556670.354 5  98615616.96347  24082944.41447
 20  5 16  1 55 21.0000000  0  8G04G08G09G11G16G26G27G31             0.000436859
  21689380.484 6 113978458.898 6  88814409.68648  21689388.67648
  20607322.070 6 108292206.097 6  84383560.15949  20607330.83249
  22959841.711 6 120654778.371 6  94016748.80949  22959851.08649
  22967908.844 5 120697174.758 5  94049776.50547  22967916.28547
  21840618.508 6 114773252.653 6  89433698.85947  21840624.63347
  23330682.586 1 122603428.653 1  95535284.94345  23330692.87545
  20392983.344 7 107165966.731 7  83505848.21049  20392992.53549
  24083464.266 5 126559451.217 5  98617783.86847  24083473.23447
 20  5 16  1 55 22.0000000  0  8G04G08G09G11G16G26G27G31             0.000436928
  21689600.891 6 113979619.087 6  88815313.73248  21689609.03948
  20607149.203 6 108291297.438 6  84382852.11449  20607158.48849
  22959703.172 6 120654048.439 6  94016180.02849  22959712.16049
  22967302.992 5 120693993.929 5  94047297.93847  22967311.05947
  21840882.117 6 114774640.722 6  89434780.47047  21840888.99247
  23331031.820 1 122605263.478 1  95536714.66145  23331042.11345
  20393218.680 7 107167203.817 7  83506812.17349  20393228.09849
  24083993.648 5 126562232.941 5  98619951.44647  24084002.61347
 20  5 16  1 55 23.0000000  0  8G04G08G09G11G16G26G27G31             0.000436995
  21689821.945 6 113980780.404 6  88816218.65348  21689830.24248
  20606976.367 6 108290389.910 6  84382144.94949  20606985.88349
  22959564.203 5 120653319.710 5  94015612.18849  22959573.65649
  22966697.805 5 120690813.838 5  94044819.95347  22966705.90247
  21841146.578 6 114776029.408 6  89435862.55947  21841152.57447
  23331380.836 1 122607098.916 1  95538144.83345  23331391.18045
  20393454.406 7 107168442.028 7  83507777.01549  20393463.42649
  24084523.297 5 126565015.458 5  98622119.63747  24084532.25447
 20  5 16  1 55 24.0000000  0  8G04G08G09G11G16G26G27G31             0.000437063
  21690043.102 6 113981942.771 6  88817124.38748  21690051.14848
  20606803.813 6 108289483.427 6  84381438.59649  20606813.32849
  22959425.539 6 120652592.021 6  94015045.15849  22959435.29749
  22966092.867 5 120687634.414 5  94042342.47547  22966100.78947
  21841410.922 6 114777418.641 6  89436945.07447  21841417.07447
  23331729.531 1 122608934.791 1  95539575.37045  23331740.66445
  20393690.445 7 107169681.275 7  83508742.66249  20393699.44549
  24085052.750 5 126567798.728 5  98624288.41247  24085062.24247
 20  5 16  1 55 25.0000000  0  8G04G08G09G11G16G26G27G31             0.000437132
  21690264.211 6 113983106.271 6  88818031.01348  21690272.71548
  20606631.727 6 108288578.061 6  84380733.12149  20606641.15249
