     2.10           OBSERVATION DATA    GPS(GPS)            RINEX VERSION / TYPE
cnvtToRINEX 3.07.0  convertToRINEX OPR  19-May-20 12:30 UTC PGM / RUN BY / DATE 
----------------------------------------------------------- COMMENT             
G054                                                        MARKER NAME         
G054                                                        MARKER NUMBER       
GNSS Observer       Trimble                                 OBSERVER / AGENCY   
0220327801          5700                2.32                REC # / TYPE / VERS 
                    TRM39105.00                             ANT # / TYPE        
 -3048826.9850  4929231.7455  2653477.5806                  APPROX POSITION XYZ 
       -0.0460        0.0000        0.0000                  ANTENNA: DELTA H/E/N
     1     1     0                                          WAVELENGTH FACT L1/2
     4    C1    L1    L2    P2                              # / TYPES OF OBSERV 
  2020     5    16     5    20    9.0000000     GPS         TIME OF FIRST OBS   
  2020     5    16     6    22    0.0000000     GPS         TIME OF LAST OBS    
     0                                                      RCV CLOCK OFFS APPL 
    18                                                      LEAP SECONDS        
     8                                                      # OF SATELLITES     
   G01  3712  3712  3712  3712                              PRN / # OF OBS      
   G03  3712  3712  3712  3712                              PRN / # OF OBS      
   G07  3712  3712  3712  3712                              PRN / # OF OBS      
   G11  2806  2700  2363  2363                              PRN / # OF OBS      
   G17  3712  3712  3712  3712                              PRN / # OF OBS      
   G22  3712  3712  3712  3712                              PRN / # OF OBS      
   G28  3677  3677  3677  3677                              PRN / # OF OBS      
   G30  3684  3684  3684  3684                              PRN / # OF OBS      
CARRIER PHASE MEASUREMENTS: PHASE SHIFTS REMOVED            COMMENT             
                                                            END OF HEADER       
 20  5 16  5 20  9.0000000  0  5G01G03G07G17G22                      0.000304457
  20259010.10217    -10295.64517     -3687.61359  20259011.03959
  23277211.35215    -78627.24215    -20728.41459  23277214.01259
  21078962.60916     -1280.71916      -250.01559  21078958.47359
  24064077.35915    -40998.55915    -12933.73059  24064077.10559
  22633359.36716    -54336.86316    -28480.53558  22633355.87158
 20  5 16  5 20 10.0000000  0  5G01G03G07G17G22                      0.000303444
  20258859.961 7    -11084.727 7     -4302.49249  20258860.95749
  23276395.758 5    -82912.504 5    -24067.57449  23276399.23849
  21078910.141 6     -1557.820 6      -465.91049  21078905.33249
  24063508.016 5    -43990.172 5    -15264.85948  24063507.68448
  22632793.906 6    -57305.215 6    -30793.53548  22632791.37948
 20  5 16  5 20 11.0000000  0  5G01G03G07G17G22                      0.000302429
  20258709.609 7    -11876.191 7     -4919.22749  20258710.39549
  23275579.977 6    -87200.668 6    -27409.00049  23275582.46949
  21078856.852 6     -1837.340 6      -683.76549  21078851.59449
  24062938.125 5    -46984.672 5    -17598.22748  24062938.02048
  22632228.898 6    -60276.164 6    -33108.55948  22632225.92248
 20  5 16  5 20 12.0000000  0  5G01G03G07G17G22                      0.000301407
  20258558.438 7    -12670.152 7     -5537.88749  20258559.34049
  23274763.422 6    -91491.863 6    -30752.78549  23274766.29749
  21078803.320 6     -2119.418 6      -903.54749  21078797.55149
  24062367.617 5    -49982.215 5    -19933.96948  24062367.23048
  22631662.719 6    -63249.859 6    -35425.72748  22631660.09848
 20  5 16  5 20 13.0000000  0  5G01G03G07G17G22                      0.000300390
  20258406.945 7    -13466.480 7     -6158.39849  20258407.97349
  23273945.828 5    -95785.896 5    -34098.78849  23273949.14549
  21078748.992 6     -2403.902 6     -1125.23049  21078744.88749
  24061796.867 5    -52982.602 5    -22271.93048  24061796.48448
  22631096.656 6    -66226.137 6    -37744.90648  22631093.38748
 20  5 16  5 20 14.0000000  0  5G01G03G07G17G22                      0.000299368
  20258254.820 7    -14265.063 7     -6780.66049  20258256.41049
  23273128.250 5   -100082.781 5    -37447.00049  23273131.51249
  21078694.336 7     -2690.672 7     -1348.70349  21078692.46949
  24061225.172 5    -55985.797 5    -24612.09448  24061225.04348
  22630529.734 6    -69204.895 6    -40066.01648  22630526.93848
 20  5 16  5 20 15.0000000  0  5G01G03G07G17G22                      0.000298347
  20258102.695 7    -15065.758 7     -7404.57449  20258103.76649
  23272309.836 5   -104382.254 5    -40797.23049  23272313.37549
  21078639.195 7     -2979.621 7     -1573.86349  21078638.03549
  24060653.836 5    -58991.625 5    -26954.30148  24060652.73448
  22629962.219 6    -72186.000 6    -42388.96148  22629959.22748
 20  5 16  5 20 16.0000000  0  5G01G03G07G17G22                      0.000297323
  20257949.875 7    -15868.430 7     -8030.03949  20257950.75849
  23271491.758 5   -108684.211 5    -44149.40649  23271494.60249
  21078584.172 6     -3270.582 6     -1800.58649  21078582.32449
  24060081.453 5    -61999.926 5    -29298.42248  24060080.63348
  22629394.336 6    -75169.309 6    -44713.62148  22629391.42248
 20  5 16  5 20 17.0000000  0  5G01G03G07G17G22                      0.000296299
  20257796.516 7    -16673.008 7     -8656.98849  20257797.98449
  23270672.375 6   -112988.617 6    -47503.48849  23270675.64149
  21078528.109 6     -3563.492 6     -2028.83249  21078526.86349
  24059507.984 5    -65010.672 5    -31644.44948  24059507.35248
  22628826.336 6    -78154.734 6    -47039.92648  22628823.89548
 20  5 16  5 20 18.0000000  0  5G01G03G07G17G22                      0.000295273
  20257643.281 7    -17479.125 7     -9285.13749  20257644.39849
  23269852.703 6   -117295.090 6    -50859.18049  23269855.69549
  21078471.992 6     -3858.012 6     -2258.32849  21078470.93049
  24058934.758 5    -68023.473 5    -33992.08248  24058934.29748
  22628258.031 6    -81141.953 6    -49367.62948  22628255.33248
 20  5 16  5 20 19.0000000  0  5G01G03G07G17G22                      0.000294245
  20257489.625 7    -18286.734 7     -9914.44549  20257490.55549
  23269033.297 6   -121603.566 6    -54216.43049  23269036.16449
  21078416.000 6     -4154.047 6     -2488.99649  21078414.28949
  24058360.758 5    -71038.277 5    -36341.28148  24058360.14548
  22627689.672 6    -84130.867 6    -51696.64848  22627686.34448
 20  5 16  5 20 20.0000000  0  5G01G03G07G17G22                      0.000293215
  20257335.406 7    -19095.941 7    -10544.98849  20257336.61749
  23268213.203 6   -125914.121 6    -57575.30149  23268215.78549
  21078359.234 6     -4451.715 6     -2720.94949  21078357.51649
  24057786.875 5    -74055.207 5    -38692.13748  24057786.21148
  22627120.164 6    -87121.613 6    -54027.09848  22627117.28548
 20  5 16  5 20 21.0000000  0  5G01G03G07G17G22                      0.000292185
  20257181.352 7    -19906.383 7    -11176.50449  20257182.16049
  23267392.359 6   -130226.484 6    -60935.58249  23267395.35949
  21078302.047 6     -4750.684 6     -2953.90649  21078300.95749
  24057212.859 5    -77073.879 5    -41044.34448  24057211.92648
  22626550.523 6    -90113.836 6    -56358.69948  22626547.73048
 20  5 16  5 20 22.0000000  0  5G01G03G07G17G22                      0.000291153
  20257026.844 7    -20718.094 7    -11809.00849  20257027.82849
  23266571.273 6   -134540.609 6    -64297.23449  23266574.30549
  21078245.305 6     -5050.984 6     -3187.91449  21078243.74249
  24056638.102 5    -80094.387 5    -43397.98848  24056637.29748
  22625980.852 6    -93107.543 6    -58691.45748  22625978.12548
 20  5 16  5 20 23.0000000  0  5G01G03G07G17G22                      0.000290121
  20256872.305 7    -21530.824 7    -12442.30549  20256873.25849
  23265749.297 6   -138856.266 6    -67660.07849  23265752.68049
  21078187.789 6     -5352.340 6     -3422.73449  21078186.10249
  24056062.672 5    -83116.410 5    -45752.80548  24056061.81348
  22625411.023 6    -96102.523 6    -61025.21148  22625408.06348
 20  5 16  5 20 24.0000000  0  5G01G03G07G17G22                      0.000289087
  20256717.328 7    -22344.414 7    -13076.27349  20256718.47349
  23264928.648 6   -143173.363 6    -71024.05149  23264931.56649
  21078130.328 6     -5654.609 6     -3658.27049  21078128.56349
  24055487.672 5    -86139.848 5    -48108.72748  24055486.36748
  22624840.875 6    -99098.586 6    -63359.80548  22624837.94548
 20  5 16  5 20 25.0000000  0  5G01G03G07G17G22                      0.000288054
  20256562.445 7    -23158.879 7    -13710.91849  20256563.38349
  23264106.781 6   -147491.770 6    -74389.03949  23264109.47349
  21078072.383 6     -5957.781 6     -3894.50449  21078071.03149
  24054911.938 5    -89164.652 5    -50465.71148  24054911.01248
  22624270.797 6   -102095.730 6    -65695.24248  22624267.55148
 20  5 16  5 20 26.0000000  0  5G01G03G07G17G22                      0.000287018
  20256407.273 7    -23974.359 7    -14346.35949  20256408.29749
  23263284.953 6   -151811.754 6    -77755.26249  23263287.34049
  21078014.516 6     -6262.012 6     -4131.57449  21078013.03149
  24054336.320 6    -92190.965 6    -52823.86748  24054335.55548
  22623700.070 6   -105094.109 6    -68031.64548  22623697.06648
 20  5 16  5 20 27.0000000  0  5G01G03G07G17G22                      0.000285980
  20256252.000 7    -24790.723 7    -14982.48449  20256252.77349
  23262463.133 6   -156133.125 6    -81122.55949  23262465.04349
  21077956.648 6     -6567.172 6     -4369.36349  21077955.18449
  24053759.625 5    -95218.703 5    -55183.13748  24053758.88348
  22623129.242 6   -108093.605 6    -70368.91448  22623126.52348
 20  5 16  5 20 28.0000000  0  5G01G03G07G17G22                      0.000284943
  20256096.188 7    -25607.742 7    -15619.12549  20256097.29349
  23261639.641 6   -160455.691 6    -84490.78549  23261642.61749
  21077898.188 6     -6873.074 6     -4607.73049  21077897.01249
  24053183.164 6    -98247.656 6    -57543.36348  24053182.36748
  22622558.008 6   -111094.020 6    -72706.90248  22622555.19148
 20  5 16  5 20 29.0000000  0  5G01G03G07G17G22                      0.000283905
  20255940.813 7    -26425.199 7    -16256.10549  20255941.73449
  23260817.195 6   -164779.184 6    -87859.73849  23260819.80549
  21077840.117 6     -7179.414 6     -4846.44149  21077838.91449
  24052606.930 6   -101277.523 6    -59904.29748  24052605.98048
  22621987.289 6   -114095.070 6    -75045.38348  22621984.13348
 20  5 16  5 20 30.0000000  0  5G01G03G07G17G22                      0.000282866
  20255785.023 7    -27243.230 7    -16893.53549  20255786.26249
  23259994.422 6   -169103.793 6    -91229.55549  23259996.93849
  21077781.859 6     -7486.406 6     -5085.65649  21077779.88349
  24052030.719 6   -104308.488 6    -62266.09448  24052029.71148
  22621415.859 6   -117096.945 6    -77384.50848  22621412.75848
 20  5 16  5 20 31.0000000  0  5G01G03G07G17G22                      0.000281826
  20255629.281 7    -28062.055 7    -17531.57449  20255630.44949
  23259171.258 6   -173429.652 6    -94600.35949  23259174.31349
  21077723.500 6     -7794.176 6     -5325.48449  21077721.23449
  24051453.984 6   -107340.777 6    -64628.90648  24051452.73048
  22620844.992 6   -120099.797 6    -79724.39148  22620841.50848
 20  5 16  5 20 32.0000000  0  5G01G03G07G17G22                      0.000280787
  20255473.430 7    -28881.293 7    -18169.94949  20255474.28149
  23258347.820 6   -177756.543 6    -97971.96549  23258350.36349
  21077664.367 6     -8102.469 6     -5565.71549  21077662.91849
  24050876.203 5   -110374.016 5    -66992.46948  24050875.10248
  22620272.938 6   -123103.320 6    -82064.79748  22620269.85248
 20  5 16  5 20 33.0000000  0  5G01G03G07G17G22                      0.000279745
  20255317.094 7    -29700.949 7    -18808.64549  20255318.07449
  23257524.922 6   -182084.297 6   -101344.23849  23257526.98449
  21077605.375 6     -8411.215 6     -5806.29349  21077603.74249
  24050298.727 5   -113408.168 5    -69356.73848  24050297.44948
  22619701.320 6   -126107.492 6    -84405.71548  22619698.00048
 20  5 16  5 20 34.0000000  0  5G01G03G07G17G22                      0.000278704
  20255161.484 7    -30520.926 7    -19447.58649  20255162.34449
  23256700.766 6   -186412.930 6   -104717.19949  23256702.95349
  21077547.055 6     -8720.324 6     -6047.15649  21077545.21549
  24049720.820 5   -116443.195 5    -71721.69948  24049719.94948
  22619129.742 6   -129112.191 6    -86747.04348  22619126.40248
 20  5 16  5 20 35.0000000  0  5G01G03G07G17G22                      0.000277662
  20255005.008 7    -31341.152 7    -20086.72349  20255006.25849
  23255876.469 6   -190742.305 6   -108090.73049  23255878.91849
  21077487.820 6     -9029.742 6     -6288.25849  21077486.35249
  24049143.711 5   -119478.977 5    -74087.23848  24049142.39848
  22618557.766 6   -132117.383 6    -89088.75448  22618554.18048
 20  5 16  5 20 36.0000000  0  5G01G03G07G17G22                      0.000276619
  20254849.203 7    -32161.852 7    -20726.23049  20254850.02749
  23255052.641 6   -195072.699 6   -111465.06349  23255054.83649
  21077428.992 6     -9339.641 6     -6529.74249  21077427.32849
  24048565.094 5   -122515.727 5    -76453.53548  24048564.46148
  22617985.703 6   -135123.262 6    -91430.99648  22617982.10548
 20  5 16  5 20 37.0000000  0  7G01G03G07G11G17G22G30                0.000275576
  20254693.000 7    -32982.930 7    -21366.03549  20254693.82449
  23254228.695 6   -199403.957 6   -114840.07049  23254230.30549
  21077369.930 6     -9650.012 6     -6771.59049  21077368.31349
  21371533.39116     13776.02316     10317.10558  21371531.35958
  24047987.578 5   -125553.398 5    -78820.55548  24047986.30948
  22617413.531 6   -138129.770 6    -93773.73848  22617410.37948
  21678488.59416    -73079.25016    -50942.76659  21678488.72759
 20  5 16  5 20 38.0000000  0  7G01G03G07G11G17G22G30                0.000274532
  20254536.406 7    -33804.230 7    -22006.00449  20254537.69149
  23253403.883 6   -203735.941 6   -118215.63749  23253406.16449
  21077310.594 6     -9960.645 6     -7013.63749  21077309.25449
  21371618.031 6     14218.617 6     10661.97748  21371615.17648
  24047409.328 5   -128591.809 5    -81188.14548  24047408.49648
  22616841.602 6   -141136.684 6    -96116.78548  22616838.08248
  21678053.531 6    -75364.527 6    -52723.50049  21678053.88349
 20  5 16  5 20 39.0000000  0  7G01G03G07G11G17G22G30                0.000273489
  20254380.539 7    -34625.676 7    -22646.09449  20254381.27049
  23252579.688 6   -208068.617 6   -121591.75049  23252581.84849
  21077251.773 6    -10271.461 6     -7255.84049  21077250.41849
  21371702.305 6     14660.684 6     11006.44548  21371699.71948
  24046830.820 5   -131630.898 5    -83556.26648  24046829.73848
  22616269.133 6   -144143.992 6    -98460.13348  22616265.63348
  21677618.508 6    -77649.969 6    -54504.36749  21677618.86749
 20  5 16  5 20 40.0000000  0  7G01G03G07G11G17G22G30                0.000272444
  20254223.992 7    -35447.438 7    -23286.42649  20254224.92249
  23251754.969 6   -212402.102 6   -124968.49249  23251756.97349
  21077192.656 6    -10582.637 6     -7498.31349  21077190.99249
  21371785.828 6     15102.047 6     11350.36348  21371783.46148
  24046252.922 5   -134670.797 5    -85925.02048  24046251.48048
  22615696.844 6   -147151.844 6   -100803.91048  22615693.60948
  21677183.766 6    -79935.727 6    -56285.47749  21677184.30149
 20  5 16  5 20 41.0000000  0  7G01G03G07G11G17G22G30                0.000271399
  20254067.539 7    -36269.301 7    -23926.83649  20254068.43049
  23250929.813 6   -216736.203 6   -128345.70749  23250932.34049
  21077133.383 6    -10893.973 6     -7740.92249  21077131.53549
  21371869.727 6     15542.906 6     11693.89148  21371867.58648
  24045673.898 5   -137711.340 5    -88294.26648  24045672.80148
  22615124.492 6   -150160.012 6   -103147.93448  22615121.17248
  21676748.680 6    -82221.613 6    -58066.69549  21676748.96549
 20  5 16  5 20 42.0000000  0  7G01G03G07G11G17G22G30                0.000270351
  20253910.984 7    -37091.250 7    -24567.32049  20253912.11749
  23250104.906 6   -221070.938 6   -131723.42249  23250107.48449
  21077074.305 6    -11205.434 6     -7983.61749  21077072.16449
  21371953.508 6     15983.293 6     12037.04748  21371951.34848
  24045095.070 5   -140752.492 5    -90663.99248  24045094.35948
  22614551.922 6   -153168.492 6   -105492.20748  22614548.02348
  21676313.547 6    -84507.586 6    -59847.97349  21676314.27749
 20  5 16  5 20 43.0000000  0  7G01G03G07G11G17G22G30                0.000269304
  20253754.617 7    -37913.168 7    -25207.77349  20253755.72349
  23249280.039 5   -225406.141 5   -135101.50449  23249282.23049
  21077014.828 6    -11516.934 6     -8226.35249  21077012.98049
  21372037.422 6     16423.309 6     12379.91448  21372035.20348
  24044516.742 5   -143794.121 5    -93034.09848  24044515.43848
  22613979.352 6   -156177.199 6   -107836.65648  22613975.96948
  21675878.844 6    -86793.559 6    -61629.25449  21675878.87949
 20  5 16  5 20 44.0000000  0  8G01G03G07G11G17G22G28G30             0.000268257
  20253598.547 7    -38735.141 7    -25848.27749  20253599.53549
  23248454.648 5   -229741.934 5   -138480.03149  23248457.30149
  21076955.172 6    -11828.527 6     -8469.15249  21076953.66849
  21372121.039 6     16862.898 6     12722.44548  21372118.58248
  24043937.742 5   -146836.355 5    -95404.66448  24043936.64848
  22613406.523 6   -159186.172 6   -110181.31348  22613403.57848
  23598177.71115   -162236.00415    -92503.03156  23598174.98456
  21675443.414 6    -89079.594 6    -63410.57849  21675444.21549
 20  5 16  5 20 45.0000000  0  8G01G03G07G11G17G22G28G30             0.000267210
  20253441.930 7    -39557.047 7    -26488.72349  20253442.80949
  23247629.734 5   -234078.160 5   -141858.91049  23247631.98449
  21076896.391 6    -12140.090 6     -8711.93049  21076894.10549
  21372204.836 6     17302.168 6     13064.73048  21372202.45748
  24043358.445 5   -149879.000 5    -97775.55948  24043357.29748
  22612834.234 6   -162195.285 6   -112526.07448  22612830.84448
  23597379.102 5   -166431.457 5    -95772.21146  23597376.77046
  21675008.625 6    -91365.559 6    -65191.84849  21675009.42249
 20  5 16  5 20 46.0000000  0  8G01G03G07G11G17G22G28G30             0.000266163
  20253285.633 7    -40378.813 7    -27129.05949  20253286.78549
  23246804.875 5   -238414.738 5   -145238.05949  23246806.97749
  21076836.758 6    -12451.578 6     -8954.64849  21076835.11349
  21372287.781 6     17741.203 6     13406.83248  21372285.66848
  24042779.586 5   -152922.055 5   -100146.77748  24042778.29348
  22612261.734 6   -165204.480 6   -114870.90248  22612258.21548
  23596580.898 5   -170627.469 5    -99041.83246  23596578.30546
  21674573.922 6    -93651.387 6    -66973.01649  21674574.30149
 20  5 16  5 20 47.0000000  0  8G01G03G07G11G17G22G28G30             0.000265116
  20253129.352 7    -41200.633 7    -27769.44549  20253130.16449
  23245979.234 5   -242751.911 5   -148617.67949  23245981.50849
  21076777.695 6    -12763.133 6     -9197.42249  21076775.64149
  21372371.813 6     18179.789 6     13748.59048  21372369.24648
  24042200.242 5   -155965.648 5   -102518.41048  24042199.06348
  22611689.117 6   -168213.973 6   -117215.96548  22611685.24648
  23595781.781 4   -174824.211 4   -102312.02046  23595779.60946
  21674139.109 6    -95937.277 6    -68754.22749  21674139.05149
 20  5 16  5 20 48.0000000  0  8G01G03G07G11G17G22G28G30             0.000264067
  20252972.906 7    -42022.332 7    -28409.72749  20252973.43449
  23245153.539 5   -247089.453 5   -151997.57849  23245156.05149
  21076718.617 6    -13074.621 6     -9440.14149  21076716.64549
  21372454.852 6     18618.109 6     14090.14548  21372452.44948
  24041620.703 5   -159009.641 5   -104890.34848  24041620.24248
  22611116.227 6   -171223.551 6   -119561.09848  22611112.87948
  23594983.492 4   -179021.555 4   -105582.67246  23594980.72346
  21673704.227 6    -98223.051 6    -70535.35249  21673704.06649
 20  5 16  5 20 49.0000000  0  8G01G03G07G11G17G22G28G30             0.000263018
  20252816.250 7    -42843.969 7    -29049.96549  20252817.36749
  23244327.984 6   -251427.488 6   -155377.85949  23244331.09449
  21076659.109 6    -13386.102 6     -9682.85249  21076657.32849
  21372538.383 6     19056.102 6     14431.43448  21372535.79748
  24041041.469 5   -162054.113 5   -107262.66448  24041040.94548
  22610543.016 6   -174233.301 6   -121906.35248  22610539.98048
  23594184.945 4   -183219.500 4   -108853.80146  23594182.34446
  21673269.008 6   -100508.777 6    -72316.43449  21673269.35549
 20  5 16  5 20 50.0000000  0  8G01G03G07G11G17G22G28G30             0.000261969
  20252660.133 7    -43665.313 7    -29689.97749  20252660.91449
  23243502.672 5   -255765.738 5   -158758.31349  23243505.28949
  21076600.047 6    -13697.367 6     -9925.39549  21076598.00449
  21372621.758 6     19493.992 6     14772.64148  21372619.54748
  24040462.258 5   -165098.824 5   -109635.17248  24040461.33648
  22609970.750 6   -177242.992 6   -124251.56348  22609967.35948
  23593385.461 5   -187417.879 5   -112125.25446  23593383.16846
  21672834.289 7   -102794.230 7    -74097.31349  21672834.45349
 20  5 16  5 20 51.0000000  0  8G01G03G07G11G17G22G28G30             0.000260920
  20252503.680 7    -44486.547 7    -30329.90249  20252505.10249
  23242677.273 5   -260104.355 5   -162139.04749  23242679.46149
  21076540.430 6    -14008.535 6    -10167.86749  21076538.61349
  21372705.141 6     19931.629 6     15113.66048  21372702.63348
  24039882.719 5   -168143.930 5   -112007.98048  24039881.86348
  22609397.750 6   -180252.754 6   -126596.82048  22609394.19548
  23592586.633 4   -191616.844 4   -115397.18446  23592584.42646
  21672399.313 6   -105079.590 6    -75878.10549  21672399.73049
 20  5 16  5 20 52.0000000  0  8G01G03G07G11G17G22G28G30             0.000259871
  20252347.375 7    -45307.691 7    -30969.75849  20252348.82849
  23241851.742 5   -264443.395 5   -165520.12149  23241854.18049
  21076481.461 6    -14319.637 6    -10410.28949  21076479.69549
  21372788.148 6     20368.992 6     15454.46148  21372785.74648
  24039302.883 5   -171189.453 5   -114381.11348  24039302.91048
  22608825.516 6   -183262.672 6   -128942.21548  22608821.55948
  23591786.953 4   -195816.355 4   -118669.53546  23591784.87946
  21671964.156 7   -107364.824 7    -77658.81349  21671964.76649
 20  5 16  5 20 53.0000000  0  8G01G03G07G11G17G22G28G30             0.000258820
  20252191.406 7    -46128.570 7    -31609.39849  20252192.43049
  23241025.641 5   -268782.723 5   -168901.41449  23241028.23449
  21076422.305 6    -14630.574 6    -10652.57449  21076420.63749
  21372871.539 6     20806.184 6     15795.12948  21372868.60248
  24038723.227 5   -174235.285 5   -116754.48448  24038722.64848
  22608252.008 6   -186272.570 6   -131287.59448  22608248.57048
  23590987.938 4   -200016.391 4   -121942.29746  23590985.32046
  21671529.227 7   -109649.867 7    -79439.37149  21671529.80149
 20  5 16  5 20 54.0000000  0  8G01G03G07G11G17G22G28G30             0.000257769
  20252034.977 7    -46949.414 7    -32249.02049  20252035.98049
  23240199.922 5   -273122.512 5   -172283.06349  23240202.73049
  21076363.078 6    -14941.488 6    -10894.84849  21076361.42649
  21372954.336 6     21243.039 6     16135.53948  21372952.10948
  24038143.891 5   -177281.563 5   -119128.21148  24038143.15248
  22607679.422 6   -189282.613 6   -133633.08248  22607676.18448
  23590188.461 2   -204216.863 2   -125215.37946  23590186.23046
  21671094.844 6   -111934.852 6    -81219.87949  21671095.14549
 20  5 16  5 20 55.0000000  0  8G01G03G07G11G17G22G28G30             0.000256720
  20251878.945 7    -47769.965 7    -32888.39849  20251879.97749
  23239374.336 5   -277462.578 5   -175664.92249  23239377.30949
  21076303.641 6    -15252.203 6    -11136.96949  21076301.92649
  21373037.734 6     21679.797 6     16475.87148  21373035.50048
  24037563.680 5   -180328.063 5   -121502.10248  24037563.61348
  22607106.789 6   -192292.637 6   -135978.55148  22607103.54348
  23589389.109 3   -208418.031 3   -128488.96546  23589386.87146
  21670659.414 6   -114219.566 6    -83000.17249  21670659.75449
 20  5 16  5 20 56.0000000  0  8G01G03G07G11G17G22G28G30             0.000255669
  20251722.930 7    -48590.320 7    -33527.63749  20251723.93049
  23238548.008 5   -281802.820 5   -179046.92249  23238550.73849
  21076244.664 6    -15562.691 6    -11378.90649  21076243.28149
  21373120.664 6     22116.371 6     16816.05948  21373118.23048
  24036983.938 5   -183374.879 5   -123876.25448  24036983.62148
  22606534.109 6   -195302.629 6   -138323.98448  22606530.71148
  23588589.430 4   -212619.566 4   -131762.89546  23588587.53146
  21670225.313 7   -116504.043 7    -84780.27749  21670225.22749
 20  5 16  5 20 57.0000000  0  8G01G03G07G11G17G22G28G30             0.000254618
  20251566.961 7    -49410.266 7    -34166.56349  20251567.84049
  23237721.719 5   -286143.277 5   -182429.09849  23237724.68049
  21076185.344 6    -15872.855 6    -11620.59049  21076184.04749
  21373203.734 6     22552.996 6     17156.28148  21373201.12148
  24036404.219 5   -186421.797 5   -126250.46948  24036403.98048
  22605961.484 6   -198312.457 6   -140669.31348  22605957.59848
  23587790.398 4   -216821.351 4   -135037.03046  23587787.92246
  21669790.336 6   -118788.148 6    -86560.10549  21669790.87549
 20  5 16  5 20 58.0000000  0  8G01G03G07G11G17G22G28G30             0.000253567
  20251410.828 7    -50229.852 7    -34805.20749  20251412.19149
  23236895.789 5   -290483.879 5   -185811.38749  23236899.04349
  21076127.063 6    -16182.742 6    -11862.05949  21076125.10249
  21373287.125 6     22989.539 6     17496.44148  21373284.47348
  24035824.859 5   -189468.926 5   -128624.85248  24035824.09048
  22605389.070 6   -201322.176 6   -143014.54348  22605384.88748
  23586990.367 3   -221023.516 3   -138311.45746  23586987.78546
  21669355.820 6   -121071.914 6    -88339.66449  21669356.21149
 20  5 16  5 20 59.0000000  0  8G01G03G07G11G17G22G28G30             0.000252514
  20251255.008 7    -51049.148 7    -35443.60949  20251256.36349
  23236069.727 5   -294824.641 5   -189193.79349  23236073.06349
  21076067.891 6    -16492.332 6    -12103.29349  21076066.18849
  21373370.266 6     23426.035 6     17836.56648  21373367.59048
  24035244.273 5   -192516.211 5   -130999.35948  24035244.20348
  22604815.773 6   -204331.793 6   -145359.70348  22604812.18448
  23586191.125 3   -225226.102 3   -141586.21546  23586188.47346
  21668921.109 6   -123355.406 6    -90119.01649  21668921.24649
 20  5 16  5 21  0.0000000  0  8G01G03G07G11G17G22G28G30             0.000251463
  20251099.359 7    -51868.113 7    -36081.77049  20251100.14849
  23235244.000 5   -299165.645 5   -192576.38349  23235246.79349
  21076008.844 6    -16801.637 6    -12344.31649  21076007.16449
  21373453.516 6     23862.461 6     18176.63348  21373450.30148
  24034665.141 5   -195563.762 5   -133374.06548  24034664.38748
  22604243.328 6   -207341.324 6   -147704.79348  22604239.56648
  23585391.430 4   -229428.973 4   -144861.17646  23585388.05546
  21668486.672 6   -125638.527 6    -91898.07449  21668486.92649
 20  5 16  5 21  1.0000000  0  8G01G03G07G11G17G22G28G30             0.000250412
  20250943.461 7    -52686.902 7    -36719.78549  20250943.94949
  23234417.883 5   -303506.984 5   -195959.24649  23234421.25449
  21075950.273 6    -17110.828 6    -12585.25449  21075948.43849
  21373535.938 6     24298.676 6     18516.54348  21373533.18448
  24034085.117 5   -198611.594 5   -135749.00048  24034084.24648
  22603670.695 6   -210350.902 6   -150049.92248  22603666.44148
  23584591.164 4   -233632.473 4   -148136.63746  23584588.44946
  21668052.203 6   -127921.516 6    -93677.02749  21668052.82049
 20  5 16  5 21  2.0000000  0  8G01G03G07G11G17G22G28G30             0.000249359
  20250787.813 7    -53505.504 7    -37357.66049  20250788.42249
  23233592.102 5   -307848.641 5   -199342.35549  23233594.78549
  21075891.633 6    -17419.926 6    -12826.10949  21075889.85249
  21373618.992 6     24734.676 6     18856.27348  21373616.67648
  24033504.969 5   -201659.816 5   -138124.23448  24033504.48848
  22603097.914 6   -213360.527 6   -152395.08648  22603094.07448
  23583791.422 4   -237836.434 4   -151412.45346  23583788.27346
  21667618.023 6   -130204.336 6    -95455.85549  21667618.19549
 20  5 16  5 21  3.0000000  0  8G01G03G07G11G17G22G28G30             0.000248306
  20250632.234 7    -54323.879 7    -37995.35549  20250632.66849
  23232765.141 5   -312190.563 5   -202725.66449  23232767.84849
  21075832.445 6    -17728.801 6    -13066.79749  21075830.80149
  21373701.969 6     25170.492 6     19195.87548  21373699.56348
  24032925.109 5   -204708.285 5   -140499.66848  24032924.56648
  22602525.102 6   -216370.129 6   -154740.22748  22602521.51648
  23582991.516 4   -242040.801 4   -154688.58246  23582988.43446
  21667183.828 6   -132486.930 6    -97234.50449  21667184.00849
 20  5 16  5 21  4.0000000  0  8G01G03G07G11G17G22G28G30             0.000247255
  20250476.016 7    -55141.836 7    -38632.72749  20250476.73449
  23231939.023 5   -316532.582 5   -206109.05549  23231942.11749
  21075774.039 6    -18037.316 6    -13307.19949  21075772.30149
  21373784.977 6     25606.367 6     19535.51648  21373782.14548
  24032344.758 4   -207756.867 4   -142875.18848  24032344.11748
  22601952.570 6   -219379.547 6   -157085.22748  22601948.59048
  23582191.133 4   -246245.500 4   -157964.96946  23582188.39546
  21666749.281 6   -134769.113 6    -99012.82849  21666749.60949
 20  5 16  5 21  5.0000000  0  8G01G03G07G11G17G22G28G30             0.000246202
  20250320.609 7    -55959.762 7    -39270.07049  20250321.68849
  23231112.672 5   -320875.090 5   -209492.82049  23231116.27749
  21075715.367 6    -18345.824 6    -13547.59449  21075713.28949
  21373867.742 6     26041.910 6     19874.90248  21373864.96548
  24031764.383 5   -210805.982 5   -145251.12948  24031763.99248
  22601379.852 6   -222389.121 6   -159430.34448  22601376.04748
  23581391.273 4   -250450.828 4   -161241.85946  23581388.28146
  21666315.188 6   -137051.277 6   -100791.13349  21666315.41849
 20  5 16  5 21  6.0000000  0  8G01G03G07G11G17G22G28G30             0.000245150
  20250164.727 7    -56777.395 7    -39907.18849  20250165.57449
  23230286.281 5   -325217.824 5   -212876.77049  23230289.21949
  21075656.828 6    -18654.129 6    -13787.83249  21075654.73449
  21373951.172 6     26477.313 6     20214.18048  21373948.29748
  24031184.180 5   -213855.219 5   -147627.16848  24031183.38748
  22600807.195 6   -225398.668 6   -161775.43848  22600802.79348
  23580591.219 4   -254656.605 4   -164519.08646  23580587.94946
  21665881.039 6   -139333.133 6   -102569.19549  21665880.86349
 20  5 16  5 21  7.0000000  0  8G01G03G07G11G17G22G28G30             0.000244095
  20250010.008 7    -57594.637 7    -40544.00449  20250010.42649
  23229460.234 5   -329560.688 5   -216260.82449  23229463.40649
  21075598.070 6    -18962.035 6    -14027.76649  21075596.04349
  21374033.773 6     26912.754 6     20553.48048  21374031.17248
  24030603.602 4   -216904.648 4   -150003.35548  24030603.16848
  22600234.375 6   -228408.004 6   -164120.39148  22600230.59048
  23579791.141 3   -258862.500 3   -167796.39546  23579787.71946
  21665446.430 6   -141614.594 6   -104346.94949  21665447.00449
 20  5 16  5 21  8.0000000  0  8G01G03G07G11G17G22G28G30             0.000243042
  20249853.977 7    -58411.574 7    -41180.57449  20249855.35949
  23228633.297 5   -333903.711 5   -219644.98849  23228636.68849
  21075539.383 6    -19269.746 6    -14267.53949  21075537.44949
  21374116.453 6     27348.070 6     20892.68048  21374113.69148
  24030023.484 5   -219954.309 5   -152379.73048  24030023.23048
  22599662.461 6   -231417.273 6   -166465.26648  22599657.91448
  23578989.547 3   -263068.945 3   -171074.13346  23578987.09446
  21665012.344 6   -143895.816 6   -106124.52749  21665012.76249
 20  5 16  5 21  9.0000000  0  8G01G03G07G11G17G22G28G30             0.000241989
  20249698.734 7    -59228.246 7    -41816.95349  20249699.58649
  23227806.961 5   -338247.016 5   -223029.37149  23227810.07849
  21075480.969 6    -19577.195 6    -14507.10249  21075479.31349
  21374199.336 6     27783.301 6     21231.82048  21374196.91848
  24029442.766 5   -223004.215 5   -154756.28948  24029442.82848
  22599089.211 6   -234426.465 6   -168810.10248  22599085.30148
  23578189.227 2   -267275.824 2   -174352.20746  23578186.56646
  21664578.211 6   -146176.746 6   -107901.88349  21664578.69549
 20  5 16  5 21 10.0000000  0  8G01G03G07G11G17G22G28G30             0.000240934
  20249543.430 7    -60044.699 7    -42453.15249  20249544.57049
  23226980.336 5   -342590.590 5   -226413.95749  23226983.75849
  21075422.758 6    -19884.496 6    -14746.54749  21075420.60949
  21374281.992 6     28218.340 6     21570.80948  21374279.24248
  24028862.297 5   -226054.395 5   -157133.03948  24028862.45348
  22598516.586 6   -237435.723 6   -171154.98848  22598512.77348
  23577389.063 3   -271483.082 3   -177630.59446  23577385.77046
  21664144.563 6   -148457.445 6   -109679.05549  21664145.24249
 20  5 16  5 21 11.0000000  0  8G01G03G07G11G17G22G28G30             0.000239880
  20249387.961 7    -60860.836 7    -43089.09849  20249389.00849
  23226153.773 5   -346934.363 5   -229798.71949  23226156.37549
  21075363.820 6    -20191.504 6    -14985.75849  21075362.60949
  21374365.141 6     28653.328 6     21909.77048  21374362.05948
  24028282.180 5   -229104.773 5   -159509.95748  24028282.16448
  22597944.164 6   -240444.844 6   -173499.77048  22597940.13748
  23576588.188 3   -275690.832 3   -180909.37146  23576585.36346
  21663710.773 6   -150737.879 6   -111456.02049  21663710.82449
 20  5 16  5 21 12.0000000  0  8G01G03G07G11G17G22G28G30             0.000238827
  20249232.828 7    -61676.750 7    -43724.87149  20249233.52749
  23225326.914 5   -351278.461 5   -233183.73849  23225329.90649
  21075305.477 6    -20498.340 6    -15224.84449  21075304.29749
  21374447.672 6     29088.137 6     22248.58248  21374444.91448
  24027701.516 5   -232155.516 5   -161887.14848  24027701.57848
  22597371.508 6   -243453.977 6   -175844.55148  22597367.26248
  23575786.875 3   -279899.016 3   -184188.48446  23575784.19146
  21663276.078 6   -153018.070 6   -113232.80149  21663277.10549
 20  5 16  5 21 13.0000000  0  8G01G03G07G11G17G22G28G30             0.000237772
  20249077.305 7    -62492.367 7    -44360.41449  20249078.44149
  23224500.680 5   -355622.766 5   -236568.91049  23224503.68849
  21075247.219 6    -20804.957 6    -15463.77749  21075245.75449
  21374530.250 6     29522.855 6     22587.32448  21374527.84848
  24027120.781 5   -235206.465 5   -164264.50448  24027120.98048
  22596798.625 6   -246463.043 6   -178189.27348  22596794.72748
  23574985.727 3   -284107.625 3   -187467.89846  23574983.93046
  21662842.773 6   -155297.988 6   -115009.35549  21662843.27049
 20  5 16  5 21 14.0000000  0  8G01G03G07G11G17G22G28G30             0.000236717
  20248922.305 7    -63307.551 7    -44995.62149  20248922.65649
  23223673.664 5   -359967.160 5   -239954.15049  23223676.81649
  21075188.797 6    -21111.141 6    -15702.35949  21075187.17249
  21374612.625 6     29957.617 6     22926.09848  21374609.99248
  24026541.680 4   -238257.406 4   -166641.86348  24026540.19148
  22596226.172 6   -249471.938 6   -180533.84848  22596222.07848
  23574184.945 3   -288316.426 3   -190747.46946  23574182.74646
  21662408.922 6   -157577.430 6   -116785.54749  21662408.73449
 20  5 16  5 21 15.0000000  0  8G01G03G07G11G17G22G28G30             0.000235662
  20248767.633 7    -64122.465 7    -45630.62949  20248767.76649
  23222846.539 6   -364311.750 6   -243339.53549  23222850.71949
  21075130.391 6    -21417.160 6    -15940.81649  21075129.19549
  21374695.469 6     30392.281 6     23264.80148  21374693.30148
  24025960.352 4   -241308.684 4   -169019.48048  24025959.41048
  22595653.820 6   -252480.742 6   -182878.34448  22595649.17248
  23573384.008 3   -292525.676 3   -194027.40646  23573382.21546
  21661975.094 6   -159856.668 6   -118561.57849  21661975.09049
 20  5 16  5 21 16.0000000  0  8G01G03G07G11G17G22G28G30             0.000234606
  20248612.711 7    -64937.109 7    -46265.41049  20248613.11749
  23222020.313 5   -368656.605 5   -246725.12949  23222024.36749
  21075072.555 6    -21722.910 6    -16179.05949  21075070.66849
  21374778.328 6     30826.801 6     23603.37548  21374775.79748
  24025379.281 5   -244360.172 5   -171397.26648  24025378.49648
  22595081.141 6   -255489.465 6   -185222.78948  22595076.92648
  23572583.195 3   -296735.348 3   -197307.67646  23572581.01646
  21661541.352 6   -162135.641 6   -120337.40649  21661541.33649
 20  5 16  5 21 17.0000000  0  8G01G03G07G11G17G22G28G30             0.000233551
  20248457.102 7    -65751.504 7    -46900.00849  20248457.82049
  23221193.789 5   -373001.723 5   -250110.91449  23221197.43449
  21075014.555 6    -22028.461 6    -16417.15249  21075012.82849
  21374860.820 6     31261.172 6     23941.84048  21374858.42648
  24024799.508 3   -247411.977 3   -173775.29348  24024797.66848
  22594508.930 6   -258498.203 6   -187567.25848  22594504.21948
  23571781.961 2   -300945.469 2   -200588.30946  23571779.98846
  21661107.773 6   -164414.344 6   -122113.02349  21661108.01249
 20  5 16  5 21 18.0000000  0  8G01G03G07G11G17G22G28G30             0.000232496
  20248302.477 7    -66565.402 7    -47534.22749  20248302.89849
  23220366.023 5   -377346.824 5   -253496.71149  23220370.79749
  21074957.008 6    -22333.598 6    -16654.93449  21074954.44549
  21374943.641 6     31695.684 6     24280.42248  21374940.68448
  24024218.094 3   -250463.781 3   -176153.27747  24024216.99247
  22593936.406 6   -261506.645 6   -189911.50847  22593931.67247
  23570980.242 2   -305155.809 2   -203869.08246  23570979.14146
  21660674.328 6   -166692.570 6   -123888.26249  21660673.87149
 20  5 16  5 21 19.0000000  0  8G01G03G07G11G17G22G28G30             0.000231440
  20248147.563 7    -67379.070 7    -48168.25049  20248148.59049
  23219539.664 5   -381692.262 5   -256882.76649  23219543.86749
  21074898.914 6    -22638.496 6    -16892.53149  21074896.75849
  21375026.430 6     32130.012 6     24618.85548  21375023.54348
  24023637.469 3   -253515.883 3   -178531.50447  24023635.67247
  22593363.289 6   -264515.082 6   -192255.74247  22593359.34047
  23570179.547 1   -309366.551 1   -207150.16445  23570177.62545
  21660240.836 6   -168970.574 6   -125663.32849  21660240.87149
 20  5 16  5 21 20.0000000  0  8G01G03G07G11G17G22G28G30             0.000230383
  20247992.711 7    -68192.547 7    -48802.12949  20247993.27749
  23218712.188 5   -386037.961 5   -260269.02049  23218716.93849
  21074840.852 6    -22943.266 6    -17130.01649  21074838.57449
  21375108.992 6     32564.156 6     24957.16448  21375106.36748
  24023057.211 3   -256568.324 3   -180910.02347  24023054.89147
  22592791.133 6   -267523.559 6   -194600.00847  22592786.57847
  23569378.227 1   -313577.820 1   -210431.66045  23569375.95345
  21659807.820 6   -171248.406 6   -127438.25849  21659807.52049
 20  5 16  5 21 21.0000000  0  8G01G03G07G11G17G22G28G30             0.000229328
  20247838.023 7    -69005.555 7    -49435.64149  20247838.56649
  23217884.898 5   -390383.684 5   -263655.29749  23217889.94149
  21074782.563 6    -23247.660 6    -17367.19949  21074781.12949
  21375191.500 6     32998.410 6     25295.54748  21375189.07848
  24022476.109 3   -259620.793 3   -183288.57847  24022473.93847
  22592218.680 6   -270531.742 6   -196944.04747  22592214.03147
  23568576.273 2   -317789.293 2   -213713.32845  23568574.72345
  21659374.180 6   -173525.754 6   -129212.81349  21659373.68849
 20  5 16  5 21 22.0000000  0  8G01G03G07G11G17G22G28G30             0.000228271
  20247683.453 7    -69818.184 7    -50068.85249  20247683.91049
  23217058.359 5   -394729.551 5   -267041.70349  23217062.68449
  21074724.961 6    -23551.723 6    -17604.12149  21074723.10249
  21375273.898 6     33432.621 6     25633.89148  21375271.53148
  24021895.094 3   -262673.484 3   -185667.31347  24021892.61347
  22591646.211 6   -273539.809 6   -199287.99247  22591641.77047
  23567775.438 3   -322001.109 3   -216995.27745  23567773.41045
  21658940.648 6   -175802.758 6   -130987.10249  21658940.35949
 20  5 16  5 21 23.0000000  0  8G01G03G07G11G17G22G28G30             0.000227215
  20247528.805 7    -70630.688 7    -50701.96549  20247529.42249
  23216231.094 5   -399075.844 5   -270428.43049  23216235.85949
  21074666.711 5    -23855.664 5    -17840.95349  21074664.64849
  21375356.820 6     33866.609 6     25972.05548  21375354.22348
  24021313.336 4   -265726.469 4   -188046.27347  24021311.68447
  22591073.781 6   -276547.926 6   -201631.97347  22591069.24647
  23566973.063 2   -326213.438 2   -220277.63345  23566971.72345
  21658507.813 6   -178079.629 6   -132761.28949  21658507.27349
 20  5 16  5 21 24.0000000  0  8G01G03G07G11G17G22G28G30             0.000226158
  20247374.367 7    -71442.762 7    -51334.75849  20247374.84449
  23215404.063 5   -403422.121 5   -273815.14549  23215408.60549
  21074609.266 6    -24159.254 6    -18077.52049  21074607.50449
  21375438.906 6     34300.605 6     26310.22348  21375436.40248
  24020732.859 3   -268779.551 3   -190425.30147  24020730.60547
  22590501.258 6   -279555.863 6   -203975.82047  22590496.66447
  23566171.945 2   -330426.094 2   -223560.21545  23566169.85245
  21658074.516 6   -180356.082 6   -134535.15249  21658073.92649
 20  5 16  5 21 25.0000000  0  8G01G03G07G11G17G22G28G30             0.000225101
  20247220.023 7    -72254.566 7    -51967.32849  20247220.37949
  23214577.313 5   -407768.727 5   -277202.10949  23214581.62549
  21074551.484 6    -24462.613 6    -18313.90649  21074549.68049
  21375521.875 6     34734.504 6     26648.32848  21375519.58648
  24020151.016 2   -271832.895 2   -192804.51247  24020149.80147
  22589929.031 6   -282563.727 6   -206319.61348  22589924.62148
  23565370.305 2   -334639.168 2   -226843.13745  23565368.51245
  21657641.086 6   -182632.266 6   -136308.80549  21657640.71149
 20  5 16  5 21 26.0000000  0  8G01G03G07G11G17G22G28G30             0.000224043
  20247065.641 7    -73065.934 7    -52599.56349  20247066.09049
  23213750.680 5   -412115.367 5   -280589.10249  23213754.05949
  21074493.641 6    -24765.566 6    -18549.97349  21074491.94949
  21375604.250 6     35168.422 6     26986.44148  21375601.77048
  24019570.070 3   -274886.391 3   -195183.85547  24019568.45347
  22589356.422 6   -285571.383 6   -208663.24248  22589352.49248
  23564568.922 3   -338852.445 3   -230126.19145  23564566.62145
  21657207.898 6   -184908.027 6   -138082.12149  21657207.71149
 20  5 16  5 21 27.0000000  0  8G01G03G07G11G17G22G28G30             0.000222986
  20246911.063 7    -73877.059 7    -53231.61349  20246911.57449
  23212923.516 5   -416462.266 5   -283976.27749  23212927.20749
  21074436.211 6    -25068.336 6    -18785.89549  21074434.18849
  21375687.164 6     35602.246 6     27324.48848  21375684.48848
  24018989.422 4   -277940.098 4   -197563.37147  24018987.08247
  22588784.109 6   -288579.035 6   -211006.85248  22588780.37548
  23563766.922 3   -343066.188 3   -233409.62945  23563765.09045
  21656774.711 6   -187183.563 6   -139855.26249  21656774.64849
 20  5 16  5 21 28.0000000  0  8G01G03G07G11G17G22G28G30             0.000221928
  20246756.688 7    -74687.824 7    -53863.37149  20246757.63349
  23212096.180 5   -420809.367 5   -287363.62149  23212099.93449
  21074378.961 6    -25370.809 6    -19021.58249  21074377.13349
  21375769.781 6     36035.992 6     27662.47348  21375766.82448
  24018407.750 5   -280994.012 5   -199943.06347  24018406.22347
  22588212.289 6   -291586.563 6   -213350.36348  22588208.16848
  23562963.828 2   -347280.297 2   -236693.33645  23562963.17245
  21656341.781 6   -189458.742 6   -141628.12949  21656341.97349
 20  5 16  5 21 29.0000000  0  8G01G03G07G11G17G22G28G30             0.000220871
  20246602.648 7    -75498.410 7    -54494.99649  20246602.88749
  23211269.094 5   -425156.727 5   -290751.18049  23211273.03549
  21074321.477 6    -25673.098 6    -19257.11749  21074319.42649
  21375852.109 6     36469.570 6     28000.31648  21375849.55148
  24017826.055 5   -284048.199 5   -202322.96948  24017824.95348
  22587640.016 6   -294594.055 6   -215693.86748  22587635.09848
  23562161.992 1   -351494.820 1   -239977.37945  23562161.03945
  21655908.961 6   -191733.727 6   -143400.84849  21655908.89549
 20  5 16  5 21 30.0000000  0  8G01G03G07G11G17G22G28G30             0.000219812
  20246448.609 7    -76308.359 7    -55126.12549  20246449.15249
  23210441.969 5   -429503.953 5   -294138.63749  23210445.87949
  21074263.539 6    -25974.840 6    -19492.24649  21074262.02049
  21375934.633 6     36903.395 6     28338.35548  21375932.10948
  24017245.117 5   -287102.266 5   -204702.77048  24017243.83648
  22587067.359 6   -297601.172 6   -218037.07848  22587062.79748
  23561360.547 1   -355709.422 1   -243261.50045  23561358.85245
  21655476.008 6   -194008.074 6   -145173.06349  21655476.50049
 20  5 16  5 21 31.0000000  0  8G01G03G07G11G17G22G28G30             0.000218756
  20246294.656 7    -77117.895 7    -55756.93049  20246294.98849
  23209614.336 5   -433851.297 5   -297526.19549  23209618.48849
  21074206.852 6    -26276.188 6    -19727.06649  21074204.50849
  21376017.125 6     37337.227 6     28676.41048  21376014.92648
  24016664.727 5   -290156.445 5   -207082.64848  24016662.70348
  22586495.313 6   -300608.074 6   -220380.12147  22586490.19947
  23560558.203 2   -359924.355 2   -246545.86345  23560556.77345
  21655043.453 6   -196282.039 6   -146944.98449  21655043.59449
 20  5 16  5 21 32.0000000  0  8G01G03G07G11G17G22G28G30             0.000217697
  20246140.531 7    -77927.141 7    -56387.51249  20246141.09449
  23208787.242 5   -438198.875 5   -300913.93048  23208791.28148
  21074149.406 6    -26577.328 6    -19961.72749  21074147.09049
  21376099.500 6     37770.969 6     29014.39148  21376097.56348
  24016083.063 5   -293210.891 5   -209462.73448  24016081.79748
  22585923.016 6   -303614.938 6   -222723.12547  22585918.65247
  23559756.641 2   -364139.656 2   -249830.52045  23559754.68845
  21654610.969 6   -198555.727 6   -148716.69149  21654611.14549
 20  5 16  5 21 33.0000000  0  8G01G03G07G11G17G22G28G30             0.000216639
  20245986.484 7    -78736.074 7    -57017.85549  20245986.94549
  23207960.125 5   -442546.652 5   -304301.80948  23207963.91448
  21074092.219 6    -26878.199 6    -20196.16849  21074090.25849
  21376182.320 6     38204.625 6     29352.30948  21376179.76648
  24015501.727 5   -296265.539 5   -211842.97748  24015500.30148
  22585351.070 6   -306621.703 6   -225066.06347  22585346.15247
  23558953.688 2   -368355.363 2   -253115.47745  23558952.58245
  21654178.500 6   -200829.109 6   -150488.15649  21654178.55149
 20  5 16  5 21 34.0000000  0  8G01G03G07G11G17G22G28G30             0.000215580
  20245832.656 7    -79544.711 7    -57647.96149  20245833.09449
  23207132.898 5   -446894.629 5   -307689.83249  23207136.54349
  21074035.211 6    -27178.816 6    -20430.42249  21074032.88349
  21376264.539 6     38638.203 6     29690.15648  21376262.28148
  24014920.836 5   -299320.457 5   -214223.43848  24014919.06648
  22584778.453 6   -309628.336 6   -227408.90248  22584774.46148
  23558151.734 2   -372571.469 2   -256400.75045  23558150.34445
  21653745.398 6   -203102.211 6   -152259.40249  21653746.30549
 20  5 16  5 21 35.0000000  0  8G01G03G07G11G17G22G28G30             0.000214521
  20245678.844 7    -80353.039 7    -58277.82449  20245679.97749
  23206306.102 5   -451242.738 5   -311077.96549  23206308.29349
  21073977.383 7    -27479.191 7    -20664.51649  21073975.37549
  21376347.445 6     39071.754 6     30027.99248  21376344.71948
  24014339.375 4   -302375.430 4   -216603.94948  24014338.14548
  22584206.930 6   -312634.910 6   -229751.68848  22584202.67648
  23557350.539 3   -376787.965 3   -259686.33245  23557347.97345
  21653312.930 6   -205374.977 6   -154030.38349  21653313.64549
 20  5 16  5 21 36.0000000  0  8G01G03G07G11G17G22G28G30             0.000213461
  20245525.023 7    -81160.922 7    -58907.35549  20245526.00049
  23205478.344 5   -455590.980 5   -314466.21149  23205480.73049
  21073920.289 6    -27779.117 6    -20898.26649  21073918.16449
  21376429.469 6     39505.270 6     30365.80948  21376427.23048
  24013757.180 5   -305430.766 5   -218984.73448  24013756.27048
  22583634.156 6   -315641.250 6   -232094.28948  22583629.88348
  23556547.922 4   -381004.703 4   -262972.11345  23556545.55145
  21652880.453 6   -207647.391 6   -155801.09049  21652880.95349
 20  5 16  5 21 37.0000000  0  8G01G03G07G11G17G22G28G30             0.000212402
  20245370.984 7    -81968.590 7    -59536.69949  20245371.99649
  23204650.000 5   -459939.551 5   -317854.70349  23204653.59049
  21073863.063 7    -28078.898 7    -21131.87949  21073861.45349
  21376512.469 6     39938.645 6     30703.50448  21376509.79748
  24013176.031 6   -308486.262 6   -221365.64148  24013175.41448
  22583062.258 6   -318647.621 6   -234436.91848  22583058.44948
  23555745.297 5   -385221.945 5   -266258.27746  23555743.10946
  21652448.336 6   -209919.500 6   -157571.56649  21652448.80949
 20  5 16  5 21 38.0000000  0  8G01G03G07G11G17G22G28G30             0.000211344
  20245217.664 7    -82775.965 7    -60165.82049  20245218.54349
  23203822.406 5   -464288.258 5   -321243.29749  23203825.60249
  21073806.281 6    -28378.445 6    -21365.29349  21073804.20349
  21376595.188 6     40371.938 6     31041.13348  21376592.55548
  24012594.703 6   -311541.941 6   -223746.68048  24012594.82448
  22582489.984 6   -321653.891 6   -236779.46948  22582486.39848
  23554942.508 5   -389439.477 5   -269544.68046  23554940.41046
  21652016.000 6   -212191.340 6   -159341.84449  21652016.50849
 20  5 16  5 21 39.0000000  0  8G01G03G07G11G17G22G28G30             0.000210283
  20245064.031 7    -83583.004 7    -60794.68849  20245065.10549
  23202995.273 5   -468637.160 5   -324632.05149  23202998.39849
  21073749.555 6    -28677.668 6    -21598.44549  21073747.50849
  21376677.344 6     40805.176 6     31378.71148  21376674.53548
  24012013.438 6   -314597.816 6   -226127.87948  24012012.94548
  22581917.828 6   -324660.047 6   -239121.92648  22581914.06348
  23554140.039 5   -393657.391 5   -272831.35246  23554137.82046
  21651583.836 6   -214462.840 6   -161111.85249  21651584.73449
 20  5 16  5 21 40.0000000  0  8G01G03G07G11G17G22G28G30             0.000209223
  20244910.352 7    -84389.859 7    -61423.40649  20244911.51249
  23202167.703 5   -472986.402 5   -328021.07849  23202170.59849
  21073692.539 7    -28976.805 7    -21831.53149  21073690.27749
  21376759.750 6     41238.180 6     31716.10948  21376756.78148
  24011432.203 6   -317654.016 6   -228509.33248  24011431.41848
  22581346.125 6   -327666.254 6   -241464.41848  22581342.45348
  23553337.063 5   -397875.824 5   -276118.44146  23553335.09846
  21651151.422 6   -216734.168 6   -162881.72349  21651152.23449
 20  5 16  5 21 41.0000000  0  8G01G03G07G11G17G22G28G30             0.000208164
  20244756.898 7    -85196.387 7    -62051.87149  20244757.74649
  23201339.797 5   -477335.813 5   -331410.23049  23201342.58649
  21073635.594 7    -29275.629 7    -22064.37949  21073633.51649
  21376842.141 6     41671.145 6     32053.48448  21376839.74648
  24010850.305 6   -320710.398 6   -230890.93048  24010849.89548
  22580773.891 6   -330672.324 6   -243806.80948  22580770.19948
  23552534.352 5   -402094.602 5   -279405.80546  23552532.09446
  21650718.984 6   -219005.184 6   -164651.34449  21650719.92649
 20  5 16  5 21 42.0000000  0  8G01G03G07G11G17G22G28G30             0.000207104
  20244603.508 7    -86002.637 7    -62680.11349  20244604.45349
  23200512.102 5   -481685.453 5   -334799.55949  23200515.10549
  21073578.695 7    -29574.258 7    -22297.07449  21073576.50049
  21376924.273 6     42104.016 6     32390.77748  21376921.74248
  24010269.375 6   -323767.051 6   -233272.73448  24010268.83248
  22580201.727 6   -333678.375 6   -246149.18448  22580198.20348
  23551731.570 5   -406313.801 5   -282693.50446  23551729.50446
  21650287.125 6   -221275.918 6   -166420.74649  21650287.87949
 20  5 16  5 21 43.0000000  0  8G01G03G07G11G17G22G28G30             0.000206043
  20244450.266 7    -86808.434 7    -63308.01249  20244451.07449
  23199684.016 5   -486035.172 5   -338188.94149  23199687.29749
  21073522.070 7    -29872.477 7    -22529.45349  21073520.01649
  21377006.820 6     42536.914 6     32728.10948  21377004.31348
  24009687.648 6   -326823.762 6   -235654.59048  24009686.86348
  22579629.977 6   -336684.188 6   -248491.37148  22579626.32448
  23550928.203 5   -410533.273 5   -285981.39846  23550926.27746
  21649854.898 6   -223546.227 6   -168189.81349  21649855.67249
 20  5 16  5 21 44.0000000  0  8G01G03G07G11G17G22G28G30             0.000204983
  20244296.906 7    -87613.910 7    -63935.65649  20244297.71149
  23198856.602 5   -490385.016 5   -341578.43449  23198859.23449
  21073465.219 7    -30170.410 7    -22761.61749  21073463.15649
  21377088.992 6     42969.754 6     33065.38748  21377086.37948
  24009105.836 6   -329880.656 6   -238036.58248  24009104.86348
  22579057.898 6   -339689.859 6   -250833.45748  22579054.28548
  23550125.508 5   -414753.059 5   -289269.53946  23550123.18846
  21649423.156 6   -225816.207 6   -169958.62949  21649423.92649
 20  5 16  5 21 45.0000000  0  8G01G03G07G11G17G22G28G30             0.000203922
  20244143.914 7    -88419.082 7    -64563.05949  20244145.05549
  23198028.586 5   -494735.066 5   -344968.08649  23198031.77749
  21073408.711 7    -30468.094 7    -22993.58249  21073406.37549
  21377171.352 6     43402.531 6     33402.61348  21377168.73048
  24008523.813 6   -332937.773 6   -240418.74649  24008523.33649
  22578485.992 6   -342695.473 6   -253175.49248  22578482.27748
  23549322.102 5   -418973.246 5   -292557.99646  23549320.11346
  21648991.500 6   -228085.879 6   -171727.20349  21648991.91849
 20  5 16  5 21 46.0000000  0  8G01G03G07G11G17G22G28G30             0.000202860
  20243990.648 7    -89223.848 7    -65190.14849  20243991.66849
  23197200.195 5   -499085.219 5   -348357.81349  23197203.86749
  21073351.961 7    -30765.395 7    -23225.24649  21073349.95749
  21377253.750 6     43835.328 6     33739.86348  21377251.18048
  24007941.953 6   -335994.965 6   -242800.97348  24007941.43848
  22577913.750 6   -345700.832 6   -255517.33248  22577910.33248
  23548519.258 5   -423193.676 5   -295846.65246  23548516.79746
  21648559.766 6   -230355.145 6   -173495.46149  21648559.78949
 20  5 16  5 21 47.0000000  0  8G01G03G07G11G17G22G28G30             0.000201799
  20243837.672 7    -90028.230 7    -65816.93849  20243838.10949
  23196372.844 5   -503435.496 5   -351747.63749  23196375.84049
  21073295.656 7    -31062.355 7    -23456.64149  21073293.09049
  21377336.344 6     44268.117 6     34077.09848  21377333.64848
  24007359.547 6   -339052.316 6   -245183.32849  24007359.36349
  22577342.180 6   -348706.078 6   -257859.08648  22577338.29348
  23547715.891 5   -427414.496 5   -299135.60246  23547713.82846
  21648127.914 6   -232623.996 6   -175263.40649  21648128.08249
 20  5 16  5 21 48.0000000  0  8G01G03G07G11G17G22G28G30             0.000200737
  20243684.539 7    -90832.215 7    -66443.42249  20243685.23849
  23195545.242 5   -507785.922 5   -355137.58249  23195547.99249
  21073239.297 7    -31359.020 7    -23687.80549  21073237.09849
  21377419.094 6     44700.918 6     34414.34848  21377415.86748
  24006778.359 6   -342109.816 6   -247565.80148  24006777.62148
  22576770.367 6   -351711.133 6   -260200.68848  22576766.78148
  23546912.930 5   -431635.535 5   -302424.72746  23546910.57846
  21647696.164 6   -234892.523 6   -177031.09049  21647696.68849
 20  5 16  5 21 49.0000000  0  8G01G03G07G11G17G22G28G30             0.000199677
  20243531.672 7    -91635.852 7    -67069.63749  20243532.55149
  23194717.336 5   -512136.469 5   -358527.62549  23194720.00049
  21073182.852 7    -31655.324 7    -23918.69149  21073180.53549
  21377501.195 6     45133.691 6     34751.57448  21377498.44548
  24006196.109 6   -345167.453 6   -249948.37148  24006195.60248
  22576198.328 6   -354716.031 6   -262542.16448  22576195.07848
  23546109.391 5   -435856.922 5   -305714.11346  23546107.31346
  21647264.625 6   -237160.652 6   -178798.46549  21647264.84049
 20  5 16  5 21 50.0000000  0  8G01G03G07G11G17G22G28G30             0.000198614
  20243378.984 7    -92439.063 7    -67695.51649  20243379.77749
  23193889.414 5   -516487.102 5   -361917.72349  23193892.13349
  21073126.461 7    -31951.293 7    -24149.32049  21073124.34449
  21377583.508 6     45566.492 6     35088.81648  21377580.63748
  24005615.078 6   -348225.219 6   -252331.04748  24005613.87948
  22575626.359 6   -357720.750 6   -264883.50848  22575622.93448
  23545306.352 5   -440078.574 5   -309003.69946  23545303.61746
  21646832.938 6   -239428.410 6   -180565.55149  21646833.23049
 20  5 16  5 21 51.0000000  0  8G01G03G07G11G17G22G28G30             0.000197554
  20243225.828 7    -93241.988 7    -68321.17249  20243226.91449
  23193060.898 5   -520837.938 5   -365307.97749  23193064.16849
  21073070.133 7    -32247.008 7    -24379.75449  21073067.96549
  21377665.906 6     45999.184 6     35425.97748  21377663.25448
  24005032.391 6   -351283.199 6   -254713.87948  24005032.27048
  22575055.078 6   -360725.398 6   -267224.78948  22575050.96548
  23544502.453 5   -444300.676 5   -312293.64146  23544500.25446
  21646401.867 6   -241695.875 6   -182332.40649  21646401.78949
 20  5 16  5 21 52.0000000  0  8G01G03G07G11G17G22G28G30             0.000196491
  20243073.180 7    -94044.598 7    -68946.57449  20243073.79749
  23192233.188 5   -525188.984 5   -368698.39849  23192236.22749
  21073013.977 7    -32542.453 7    -24609.96949  21073011.83249
  21377748.508 6     46431.816 6     35763.08248  21377745.19148
  24004450.664 6   -354341.379 6   -257096.87148  24004449.62148
  22574482.695 6   -363729.906 6   -269565.96548  22574479.70748
  23543699.336 5   -448523.113 5   -315583.85546  23543696.75846
  21645970.383 6   -243963.035 6   -184099.02349  21645970.48449
 20  5 16  5 21 53.0000000  0  8G01G03G07G11G17G22G28G30             0.000195429
  20242920.453 7    -94846.805 7    -69571.67249  20242921.39549
  23191405.195 5   -529540.117 5   -372088.89149  23191408.31649
  21072957.773 7    -32837.531 7    -24839.90249  21072955.76249
  21377830.695 6     46864.461 6     36100.21548  21377827.58248
  24003868.797 6   -357399.684 6   -259479.96548  24003867.85248
  22573911.422 6   -366734.246 6   -271907.00848  22573908.29748
  23542895.781 5   -452745.824 5   -318874.30146  23542893.43046
  21645538.648 6   -246229.781 6   -185865.32049  21645539.19949
 20  5 16  5 21 54.0000000  0  8G01G03G07G11G17G22G28G30             0.000194366
  20242768.008 7    -95648.648 7    -70196.48849  20242769.03149
  23190576.891 5   -533891.372 5   -375479.47349  23190580.69149
  21072901.844 7    -33132.320 7    -25069.60549  21072899.47349
  21377912.617 6     47297.063 6     36437.30548  21377910.23048
  24003286.516 5   -360458.148 5   -261863.18448  24003285.68448
  22573339.586 6   -369738.461 6   -274247.94948  22573336.32448
  23542091.711 5   -456968.867 5   -322164.98846  23542089.44946
  21645107.539 6   -248496.184 6   -187631.34849  21645108.00849
