     2.10           OBSERVATION DATA    GPS(GPS)            RINEX VERSION / TYPE
cnvtToRINEX 3.07.0  convertToRINEX OPR  19-May-20 12:30 UTC PGM / RUN BY / DATE 
----------------------------------------------------------- COMMENT             
GI03                                                        MARKER NAME         
GI03                                                        MARKER NUMBER       
GNSS Observer       Trimble                                 OBSERVER / AGENCY   
0220327801          5700                2.32                REC # / TYPE / VERS 
                    TRM39105.00                             ANT # / TYPE        
 -3050562.1698  4928000.2859  2653872.6138                  APPROX POSITION XYZ 
       -0.0460        0.0000        0.0000                  ANTENNA: DELTA H/E/N
     1     1     0                                          WAVELENGTH FACT L1/2
     4    C1    L1    L2    P2                              # / TYPES OF OBSERV 
  2020     5    16     0    13   13.0000000     GPS         TIME OF FIRST OBS   
  2020     5    16     1    34    6.0000000     GPS         TIME OF LAST OBS    
     0                                                      RCV CLOCK OFFS APPL 
    18                                                      LEAP SECONDS        
    10                                                      # OF SATELLITES     
   G04  4823  4822  4823  4823                              PRN / # OF OBS      
   G08  4853  4852  4848  4848                              PRN / # OF OBS      
   G09  2927  2927  2927  2927                              PRN / # OF OBS      
   G11  1818  1818  1818  1818                              PRN / # OF OBS      
   G14  2967  2966  2967  2967                              PRN / # OF OBS      
   G16  4854  4853  4854  4854                              PRN / # OF OBS      
   G21  3597  3596  3597  3597                              PRN / # OF OBS      
   G26  4847  4846  4847  4847                              PRN / # OF OBS      
   G27  4854  4853  4854  4854                              PRN / # OF OBS      
   G31  4854  4853  4854  4854                              PRN / # OF OBS      
CARRIER PHASE MEASUREMENTS: PHASE SHIFTS REMOVED            COMMENT             
                                                            END OF HEADER       
 20  5 16  0 13 13.0000000  0  3G16G27G31                            0.000245670
  20724011.93017    -81864.32817    -51020.51259  20724008.87159
  21248373.07817   -289902.96517   -182693.36359  21248372.65659
  21906500.07016    -27516.42216    -16964.00058  21906497.52758
 20  5 16  0 13 14.0000000  0  5G08G14G16G27G31                      0.000244869
  23505019.03914   -183943.02314    -89868.31658  23505020.41058
  22245324.82016     87618.18016     61011.65658  22245322.47758
  20723793.000 7    -83015.805 7    -51917.75849  20723789.69549
  21247607.758 7   -293925.188 7   -185827.55949  21247607.65249
  21906425.227 6    -27910.645 6    -17271.18848  21906422.49648
 20  5 16  0 13 15.0000000  0  5G08G14G16G27G31                      0.000243996
  23504063.898 4   -188962.789 4    -93779.81648  23504065.46548
  22245642.531 6     89289.199 6     62313.74648  22245640.69548
  20723573.914 7    -84167.457 7    -52815.15249  20723570.79349
  21246842.445 7   -297947.391 7   -188961.74249  21246842.13749
  21906349.813 6    -28305.141 6    -17578.59048  21906347.32848
 20  5 16  0 13 16.0000000  0  5G08G14G16G27G31                      0.000243122
  23503108.594 4   -193982.859 4    -97691.55948  23503110.07448
  22245960.648 6     90960.063 6     63615.71948  22245958.74248
  20723354.414 6    -85319.258 6    -53712.65649  20723351.42249
  21246077.031 7   -301969.598 7   -192095.93049  21246076.76249
  21906274.875 6    -28699.879 6    -17886.18048  21906272.64848
 20  5 16  0 13 17.0000000  0  5G08G14G16G27G31                      0.000242249
  23502153.398 5   -199003.465 5   -101603.71948  23502154.55148
  22246279.047 6     92630.582 6     64917.41848  22246276.57048
  20723135.641 6    -86471.402 6    -54610.43849  20723132.42249
  21245311.750 7   -305992.016 7   -195230.28549  21245311.41849
  21906199.867 6    -29095.109 6    -18194.16048  21906197.25448
 20  5 16  0 13 18.0000000  0  5G08G14G16G27G31                      0.000241375
  23501198.102 4   -204024.480 4   -105516.19548  23501199.14148
  22246596.172 6     94300.867 6     66218.93447  22246594.44547
  20722915.992 6    -87623.777 6    -55508.39149  20722913.03949
  21244545.961 7   -310014.477 7   -198364.66849  21244545.90649
  21906124.570 6    -29490.648 6    -18502.36748  21906121.74648
 20  5 16  0 13 19.0000000  0  5G08G14G16G27G31                      0.000240501
  23500242.406 4   -209045.773 4   -109428.88748  23500243.56348
  22246914.031 6     95971.059 6     67520.37948  22246912.42248
  20722696.648 6    -88776.289 6    -56406.45749  20722693.61349
  21243780.945 7   -314036.941 7   -201499.05949  21243780.36749
  21906049.078 6    -29886.453 6    -18810.78548  21906046.30148
 20  5 16  0 13 20.0000000  0  6G08G14G16G26G27G31                   0.000239626
  23499286.297 5   -214067.258 5   -113341.73048  23499287.89848
  22247231.875 6     97641.184 6     68821.77348  22247229.87948
  20722477.281 6    -89928.828 6    -57304.54349  20722474.43849
  21305180.54717      5894.60917      2856.68059  21305180.89559
  21243015.406 7   -318059.297 7   -204633.35949  21243014.64149
  21905974.023 6    -30282.402 6    -19119.32448  21905971.25848
 20  5 16  0 13 21.0000000  0  6G08G14G16G26G27G31                   0.000238752
  23498331.914 4   -219089.165 4   -117254.90948  23498331.98848
  22247549.898 6     99311.098 6     70123.00448  22247547.63348
  20722258.188 6    -91081.605 6    -58202.80949  20722254.79349
  21305210.148 7      6049.723 7      2977.54749  21305210.23849
  21242249.758 7   -322081.730 7   -207767.72349  21242249.58249
  21905898.844 6    -30678.691 6    -19428.12148  21905895.77348
 20  5 16  0 13 22.0000000  0  6G08G14G16G26G27G31                   0.000237877
  23497375.102 4   -224111.332 4   -121168.29748  23497376.45748
  22247867.711 6    100980.852 6     71424.11348  22247865.29748
  20722038.648 6    -92234.547 6    -59101.19949  20722035.71149
  21305239.609 7      6204.426 7      3098.09849  21305239.62549
  21241484.313 7   -326104.145 7   -210902.07449  21241484.13349
  21905822.891 6    -31075.270 6    -19737.14548  21905820.30548
 20  5 16  0 13 23.0000000  0  6G08G14G16G26G27G31                   0.000237001
  23496418.914 5   -229134.098 5   -125082.14548  23496420.56348
  22248185.336 6    102650.313 6     72724.99248  22248183.21548
  20721819.227 6    -93387.824 6    -59999.86348  20721815.80148
  21305268.805 6      6358.594 6      3218.22349  21305269.21949
  21240718.789 7   -330126.766 7   -214036.58649  21240718.39149
  21905746.875 6    -31472.273 6    -20046.50448  21905744.74648
 20  5 16  0 13 24.0000000  0  6G08G14G16G26G27G31                   0.000236126
  23495463.711 5   -234157.047 5   -128996.11748  23495465.23048
  22248503.016 6    104319.652 6     74025.78148  22248500.94548
  20721599.867 6    -94541.199 6    -60898.59049  20721596.32849
  21305298.273 7      6512.453 7      3338.11749  21305298.52349
  21239953.242 7   -334149.301 7   -217171.02349  21239953.17649
  21905671.516 6    -31869.473 6    -20356.00848  21905669.54748
 20  5 16  0 13 25.0000000  0  6G08G14G16G26G27G31                   0.000235249
  23494507.961 4   -239180.199 4   -132910.26648  23494509.20348
  22248820.648 6    105989.008 6     75326.57048  22248818.48048
  20721380.531 6    -95694.574 6    -61797.32449  20721377.12549
  21305327.391 7      6666.070 7      3457.81649  21305327.74649
  21239187.984 7   -338171.707 7   -220305.37549  21239188.07449
  21905595.961 6    -32266.828 6    -20665.63348  21905593.71548
 20  5 16  0 13 26.0000000  0  6G08G14G16G26G27G31                   0.000234373
  23493551.602 5   -244203.727 5   -136824.69948  23493553.16448
  22249138.422 6    107658.125 6     76627.17648  22249136.28548
  20721160.664 6    -96848.180 6    -62696.23049  20721157.15649
  21305356.602 7      6819.238 7      3577.16849  21305356.62549
  21238422.563 7   -342194.180 7   -223439.77349  21238422.26249
  21905520.492 6    -32664.488 6    -20975.50448  21905517.62548
 20  5 16  0 13 27.0000000  0  6G08G14G16G26G27G31                   0.000233496
  23492596.672 5   -249227.645 5   -140739.43848  23492597.16048
  22249455.828 6    109327.012 6     77927.60248  22249453.87148
  20720941.250 6    -98002.043 6    -63595.34849  20720937.97349
  21305385.898 7      6971.945 7      3696.16049  21305385.76649
  21237656.695 7   -346216.758 7   -226574.25049  21237656.53149
  21905444.617 6    -33062.547 6    -21285.67248  21905442.04348
 20  5 16  0 13 28.0000000  0  6G08G14G16G26G27G31                   0.000232620
  23491639.836 5   -254251.785 5   -144654.35548  23491640.93848
  22249773.445 6    110995.852 6     79227.99648  22249771.43848
  20720721.867 6    -99155.953 6    -64494.50049  20720718.35249
  21305414.711 7      7124.367 7      3814.93449  21305414.46549
  21236891.586 7   -350239.223 7   -229708.63749  21236891.23849
  21905368.953 6    -33460.734 6    -21595.95348  21905366.57448
 20  5 16  0 13 29.0000000  0  6G08G14G16G26G27G31                   0.000231743
  23490684.055 5   -259276.285 5   -148569.54748  23490684.98848
  22250090.977 6    112664.492 6     80528.23848  22250089.00048
  20720502.109 6   -100310.082 6    -65393.82449  20720498.68449
  21305443.664 7      7276.363 7      3933.37149  21305443.42249
  21236126.211 7   -354261.742 7   -232843.06649  21236125.65649
  21905293.234 6    -33859.250 6    -21906.48448  21905290.41848
 20  5 16  0 13 30.0000000  0  6G08G14G16G26G27G31                   0.000230864
  23489727.836 5   -264301.145 5   -152485.02348  23489728.96148
  22250408.500 6    114332.930 6     81828.31648  22250406.47348
  20720282.703 6   -101464.414 6    -66293.30549  20720279.40249
  21305472.445 7      7427.918 7      4051.46149  21305472.76249
  21235360.242 7   -358284.320 7   -235977.54349  21235360.39149
  21905217.219 6    -34258.074 6    -22217.25848  21905214.53148
 20  5 16  0 13 31.0000000  0  6G08G14G16G26G27G31                   0.000229986
  23488771.367 5   -269326.293 5   -156400.71948  23488772.44948
  22250725.508 6    116001.266 6     83128.31648  22250723.88348
  20720062.398 6   -102618.871 6    -67192.88749  20720059.39849
  21305501.336 7      7579.160 7      4169.31349  21305501.28949
  21234595.203 7   -362306.875 7   -239112.00449  21234594.96549
  21905141.117 6    -34657.137 6    -22528.21548  21905138.97748
 20  5 16  0 13 32.0000000  0  6G08G14G16G26G27G31                   0.000229109
  23487815.266 5   -274351.660 5   -160316.59448  23487815.71548
  22251043.313 6    117669.492 6     84428.23448  22251041.11748
  20719843.109 6   -103773.406 6    -68092.52349  20719840.00049
  21305530.164 6      7730.086 6      4286.91049  21305530.52749
  21233829.563 7   -366329.332 7   -242246.38349  21233829.54349
  21905065.586 6    -35056.430 6    -22839.35248  21905062.78548
 20  5 16  0 13 33.0000000  0  6G08G14G16G26G27G31                   0.000228230
  23486859.055 5   -279377.320 5   -164232.69148  23486859.77348
  22251360.516 6    119337.641 6     85728.09048  22251358.66848
  20719623.164 6   -104928.078 6    -68992.27349  20719619.98049
  21305558.422 7      7880.652 7      4404.23449  21305558.85549
  21233064.125 7   -370351.777 7   -245380.75449  21233064.08249
  21904989.273 6    -35455.941 6    -23150.66848  21904986.96948
 20  5 16  0 13 34.0000000  0  6G08G14G16G26G27G31                   0.000227350
  23485902.695 5   -284403.277 5   -168149.02348  23485903.29348
  22251678.047 6    121005.688 6     87027.86348  22251675.98048
  20719403.633 6   -106082.793 6    -69892.05149  20719400.00849
  21305587.117 6      8030.910 6      4521.32049  21305587.01249
  21232299.188 7   -374374.145 7   -248515.06649  21232298.55549
  21904913.656 6    -35855.625 6    -23462.10248  21904911.07448
 20  5 16  0 13 35.0000000  0  6G08G14G16G26G27G31                   0.000226471
  23484945.961 4   -289429.578 4   -172065.62148  23484947.18048
  22251995.758 6    122673.523 6     88327.47348  22251993.50448
  20719183.531 7   -107237.770 7    -70792.03949  20719180.74249
  21305615.703 6      8180.695 6      4638.03949  21305616.09449
  21231533.492 7   -378396.590 7   -251649.43849  21231533.19949
  21904837.094 6    -36255.691 6    -23773.84448  21904834.55948
 20  5 16  0 13 36.0000000  0  6G08G14G16G26G27G31                   0.000225592
  23483989.391 5   -294456.234 5   -175982.49248  23483990.40248
  22252313.039 6    124341.129 6     89626.90648  22252310.69548
  20718963.805 7   -108392.953 7    -71692.18049  20718960.82849
  21305644.305 7      8330.086 7      4754.46149  21305644.75849
  21230767.922 7   -382419.109 7   -254783.86749  21230767.73849
  21904761.164 6    -36656.055 6    -24085.82048  21904758.33648
 20  5 16  0 13 37.0000000  0  6G08G14G16G26G27G31                   0.000224712
  23483032.586 5   -299483.199 5   -179899.61348  23483033.68048
  22252630.180 6    126008.648 6     90926.27348  22252628.20348
  20718744.055 7   -109548.242 7    -72592.39849  20718740.78949
  21305672.727 7      8479.141 7      4870.60249  21305672.71949
  21230002.461 7   -386441.566 7   -257918.25449  21230002.28949
  21904684.875 6    -37056.652 6    -24397.98048  21904682.02348
 20  5 16  0 13 38.0000000  0  6G08G14G16G26G27G31                   0.000223833
  23482076.328 5   -304510.520 5   -183817.00048  23482077.33248
  22252947.391 6    127675.961 6     92225.47748  22252945.50848
  20718524.141 7   -110703.746 7    -73492.79749  20718521.01649
  21305700.758 6      8627.758 6      4986.39549  21305700.70349
  21229237.031 7   -390464.078 7   -261052.68049  21229236.95749
  21904608.164 6    -37457.523 6    -24710.34848  21904605.88748
 20  5 16  0 13 39.0000000  0  6G08G14G16G26G27G31                   0.000222952
  23481119.148 5   -309538.160 5   -187734.63348  23481120.62548
  22253264.867 6    129343.133 6     93524.57048  22253262.68048
  20718304.211 7   -111859.406 7    -74393.31349  20718301.22349
  21305728.602 6      8775.992 6      5101.90249  21305729.42649
  21228471.734 7   -394486.590 7   -264187.10249  21228471.23449
  21904532.094 6    -37858.730 6    -25022.98048  21904529.41048
 20  5 16  0 13 40.0000000  0  6G08G14G16G26G27G31                   0.000222071
  23480162.680 5   -314566.137 5   -191652.54348  23480163.57848
  22253581.883 6    131010.098 6     94823.50048  22253580.00848
  20718084.102 7   -113015.285 7    -75293.99248  20718081.34048
  21305756.906 6      8923.805 6      5217.07049  21305757.17249
  21227706.313 6   -398509.164 6   -267321.57849  21227706.20749
  21904455.695 6    -38260.242 6    -25335.84848  21904452.89548
 20  5 16  0 13 41.0000000  0  6G08G14G16G26G27G31                   0.000221191
  23479205.945 5   -319594.492 5   -195570.74648  23479206.51248
  22253899.172 6    132676.840 6     96122.25448  22253897.18848
  20717864.258 7   -114171.387 7    -76194.85948  20717861.18048
  21305785.055 6      9071.137 6      5331.87149  21305785.50449
  21226940.320 7   -402531.801 7   -270456.09849  21226940.50849
  21904379.156 6    -38662.063 6    -25648.94948  21904376.69148
 20  5 16  0 13 42.0000000  0  6G08G14G16G26G27G31                   0.000220308
  23478248.992 5   -324623.207 5   -199489.23448  23478249.81348
  22254216.422 6    134343.445 6     97420.89848  22254214.37148
  20717644.172 7   -115327.629 7    -77095.82049  20717640.91849
  21305813.172 6      9218.137 6      5446.42249  21305813.44949
  21226175.375 7   -406554.434 7   -273590.60949  21226174.79749
  21904302.734 6    -39064.156 6    -25962.27748  21904300.19148
 20  5 16  0 13 43.0000000  0  6G08G14G16G26G27G31                   0.000219427
  23477291.844 5   -329652.047 5   -203407.81348  23477292.74648
  22254533.586 6    136010.000 6     98719.50448  22254531.69948
  20717424.352 7   -116483.930 7    -77996.83649  20717421.13349
  21305841.086 6      9364.867 6      5560.75849  21305841.08649
  21225409.563 7   -410576.922 7   -276725.02049  21225409.75449
  21904226.320 6    -39466.398 6    -26275.71548  21904223.42248
 20  5 16  0 13 44.0000000  0  7G04G08G14G16G26G27G31                0.000218544
  22541196.93816   -130233.16016    -91964.72757  22541196.09057
  23476335.102 5   -334681.102 5   -207326.56348  23476335.50048
  22254850.414 6    137676.543 6    100018.11348  22254848.77748
  20717204.430 7   -117640.246 7    -78897.86748  20717200.79748
  21305868.773 6      9511.344 6      5674.89149  21305869.28149
  21224644.156 7   -414599.305 7   -279859.34849  21224644.08649
  21904149.852 6    -39868.754 6    -26589.23848  21904147.27348
 20  5 16  0 13 45.0000000  0  7G04G08G14G16G26G27G31                0.000217661
  22540457.625 5   -134116.160 5    -94990.44147  22540457.27747
  23475378.266 5   -339710.426 5   -211245.52048  23475379.14548
  22255168.023 6    139343.012 6    101316.66448  22255165.63748
  20716984.289 7   -118796.676 7    -79798.97748  20716980.78948
  21305896.703 6      9657.508 6      5788.78949  21305897.09449
  21223878.703 7   -418621.621 7   -282993.62149  21223878.53549
  21904073.320 6    -40271.336 6    -26902.93848  21904070.75448
 20  5 16  0 13 46.0000000  0  7G04G08G14G16G26G27G31                0.000216780
  22539719.445 5   -137999.301 5    -98016.25847  22539718.26647
  23474420.383 5   -344740.141 5   -215164.77048  23474421.67648
  22255484.656 6    141009.227 6    102615.02048  22255482.54748
  20716763.867 7   -119953.344 7    -80700.27748  20716760.85548
  21305924.555 6      9803.211 6      5902.31649  21305924.39849
  21223113.492 7   -422644.016 7   -286127.95349  21223113.24249
  21903996.461 6    -40674.277 6    -27216.91848  21903993.94948
 20  5 16  0 13 47.0000000  0  7G04G08G14G16G26G27G31                0.000215897
  22538979.734 6   -141882.539 6   -101042.17247  22538979.17247
  23473463.680 5   -349770.242 5   -219084.31648  23473464.46148
  22255801.328 6    142675.242 6    103913.21548  22255799.98848
  20716543.633 6   -121110.227 6    -81601.74649  20716540.67649
  21305952.070 7      9948.480 7      6015.52049  21305952.27349
  21222347.953 7   -426666.492 7   -289262.35549  21222347.92649
  21903919.352 6    -41077.527 6    -27531.14148  21903917.21148
 20  5 16  0 13 48.0000000  0  7G04G08G14G16G26G27G31                0.000215014
  22538241.203 5   -145765.723 5   -104068.04747  22538240.43047
  23472505.711 5   -354800.484 5   -223003.97348  23472507.33248
  22256118.656 6    144341.246 6    105211.39548  22256116.63348
  20716323.680 7   -122267.117 7    -82503.21549  20716320.52049
  21305979.211 6     10093.508 6      6128.53149  21305979.98849
  21221582.633 6   -430688.805 6   -292396.62949  21221582.52749
  21903842.914 6    -41480.910 6    -27845.46948  21903840.13748
 20  5 16  0 13 49.0000000  0  7G04G08G14G16G26G27G31                0.000214128
  22537502.094 6   -149649.000 6   -107093.99648  22537501.51248
  23471549.297 5   -359831.105 5   -226923.94948  23471549.99248
  22256435.961 6    146007.098 6    106509.45348  22256433.68448
  20716103.375 7   -123424.188 7    -83404.82449  20716100.60549
  21306006.992 6     10238.145 6      6241.22749  21306007.47349
  21220816.992 6   -434711.145 6   -295530.91849  21220817.01249
  21903765.977 6    -41884.559 6    -28159.99248  21903763.37948
 20  5 16  0 13 50.0000000  0  7G04G08G14G16G26G27G31                0.000213245
  22536763.047 6   -153532.367 6   -110120.01248  22536762.16048
  23470591.836 4   -364861.957 4   -230844.06648  23470592.70348
  22256752.625 6    147672.820 6    107807.41848  22256750.81648
  20715883.391 7   -124581.406 7    -84306.55549  20715880.39849
  21306034.633 7     10382.430 7      6353.66449  21306035.00849
  21220051.656 7   -438733.422 7   -298665.16449  21220051.44549
  21903689.047 6    -42288.480 6    -28474.73448  21903686.75448
 20  5 16  0 13 51.0000000  0  7G04G08G14G16G26G27G31                0.000212360
  22536024.242 6   -157415.754 6   -113146.02348  22536023.23848
  23469633.992 5   -369893.184 5   -234764.48848  23469635.21948
  22257069.570 6    149338.414 6    109105.29347  22257067.70347
  20715662.906 7   -125738.789 7    -85208.41449  20715660.03149
  21306061.953 7     10526.305 7      6465.76649  21306062.04749
  21219286.406 7   -442755.738 7   -301799.44549  21219285.85249
  21903612.461 6    -42692.660 6    -28789.68048  21903609.26248
 20  5 16  0 13 52.0000000  0  7G04G08G14G16G26G27G31                0.000211477
  22535285.234 6   -161299.227 6   -116172.10248  22535284.28548
  23468676.414 5   -374924.695 5   -238685.15248  23468677.73448
  22257386.594 6    151003.797 6    110402.96948  22257384.72748
  20715442.797 7   -126896.328 7    -86110.38349  20715439.73449
  21306089.336 7     10669.805 7      6577.58249  21306089.44549
  21218520.953 7   -446778.094 7   -304933.76649  21218520.53949
  21903535.078 6    -43097.117 6    -29104.81348  21903532.73048
 20  5 16  0 13 53.0000000  0  7G04G08G14G16G26G27G31                0.000210592
  22534546.141 6   -165182.711 6   -119198.19548  22534545.19548
  23467719.383 5   -379956.469 5   -242606.03148  23467720.05148
  22257703.641 6    152669.105 6    111700.58248  22257701.50848
  20715222.602 7   -128053.969 7    -87012.44149  20715219.13749
  21306116.430 6     10812.980 6      6689.14549  21306116.46149
  21217755.398 7   -450800.344 7   -308067.99649  21217755.53949
  21903458.227 6    -43501.781 6    -29420.12948  21903455.69148
 20  5 16  0 13 54.0000000  0  7G04G08G14G16G26G27G31                0.000209707
  22533807.430 6   -169066.164 6   -122224.25448  22533806.03148
  23466761.219 5   -384988.410 5   -246527.03548  23466762.34848
  22258020.477 6    154334.352 6    112998.16048  22258018.20348
  20715002.016 7   -129211.680 7    -87914.55949  20714998.60249
  21306143.828 6     10955.883 6      6800.50849  21306144.16849
  21216990.070 7   -454822.512 7   -311202.15249  21216989.72749
  21903381.219 6    -43906.609 6    -29735.59048  21903379.03948
 20  5 16  0 13 55.0000000  0  7G04G08G14G16G26G27G31                0.000208822
  22533068.461 6   -172949.672 6   -125250.36348  22533067.27048
  23465803.430 5   -390020.699 5   -250448.30148  23465804.77348
  22258337.555 6    155999.469 6    114295.64848  22258335.49648
  20714782.234 6   -130369.523 6    -88816.77349  20714778.77749
  21306171.008 7     11098.434 7      6911.59049  21306171.06649
  21216224.867 7   -458844.652 7   -314336.27749  21216224.40649
  21903304.375 6    -44311.668 6    -30051.23848  21903301.42248
 20  5 16  0 13 56.0000000  0  7G04G08G14G16G26G27G31                0.000207935
  22532329.352 6   -176833.141 6   -128276.43848  22532328.64848
  23464846.375 5   -395053.191 5   -254369.71148  23464847.44548
  22258653.531 6    157664.469 6    115593.07447  22258652.25447
  20714561.586 6   -131527.480 6    -89719.08649  20714558.27749
  21306198.047 6     11240.656 6      7022.41449  21306198.06649
  21215459.289 7   -462866.742 7   -317470.36349  21215459.13349
  21903227.023 6    -44716.980 6    -30367.07848  21903224.38748
 20  5 16  0 13 57.0000000  0  7G04G08G14G16G26G27G31                0.000207050
  22531589.805 6   -180716.840 6   -131302.70748  22531589.44548
  23463889.359 5   -400086.113 5   -258291.47349  23463889.77049
  22258970.789 6    159329.305 6    116890.39147  22258968.55947
  20714341.172 6   -132685.629 6    -90621.54348  20714337.93848
  21306224.898 7     11382.449 7      7132.89849  21306225.18049
  21214693.844 7   -466888.859 7   -320604.47749  21214693.66849
  21903149.672 7    -45122.598 7    -30683.14548  21903146.89148
 20  5 16  0 13 58.0000000  0  7G04G08G14G16G26G27G31                0.000206163
  22530851.203 6   -184600.531 6   -134328.95748  22530850.28148
  23462931.188 5   -405119.355 5   -262213.47349  23462931.85949
  22259287.625 6    160993.965 6    118187.55147  22259285.74647
  20714120.523 6   -133843.957 6    -91524.14848  20714117.53948
  21306251.578 7     11523.836 7      7243.07449  21306252.33249
  21213928.453 7   -470910.996 7   -323738.61349  21213928.22749
  21903072.750 6    -45528.461 6    -30999.39548  21903069.60948
 20  5 16  0 13 59.0000000  0  7G04G08G14G16G26G27G31                0.000205276
  22530112.336 6   -188484.215 6   -137355.20748  22530111.21148
  23461973.250 5   -410152.781 5   -266135.61749  23461973.90249
  22259604.313 6    162658.582 6    119484.65247  22259602.25047
  20713900.164 6   -135002.324 6    -92426.76648  20713897.10548
  21306278.906 7     11664.969 7      7353.05549  21306279.35249
  21213163.266 7   -474933.016 7   -326872.66049  21213163.10949
  21902995.359 6    -45934.484 6    -31315.77048  21902992.86748
 20  5 16  0 14  0.0000000  0  7G04G08G14G16G26G27G31                0.000204390
  22529372.750 6   -192367.891 6   -140381.45348  22529372.10248
  23461015.250 6   -415186.484 6   -270057.97349  23461016.00449
  22259921.195 6    164323.105 6    120781.66047  22259918.76647
  20713679.898 6   -136160.809 6    -93329.47748  20713676.72348
  21306305.484 6     11805.770 6      7462.77749  21306306.10549
  21212397.773 7   -478955.035 7   -330006.70349  21212397.50049
  21902918.219 6    -46340.734 6    -31632.35549  21902915.27749
 20  5 16  0 14  1.0000000  0  7G04G08G14G16G26G27G31                0.000203503
  22528633.844 5   -196251.508 5   -143407.64147  22528633.26647
  23460057.648 6   -420220.316 6   -273980.46549  23460057.70349
  22260238.063 6    165987.574 6    122078.62947  22260236.08247
  20713459.219 6   -137319.316 6    -94232.22348  20713456.31648
  21306332.117 6     11946.355 6      7572.32049  21306332.82449
  21211632.414 7   -482976.867 7   -333140.60549  21211632.35249
  21902840.664 6    -46747.129 6    -31949.04348  21902838.18048
 20  5 16  0 14  2.0000000  0  7G04G08G14G16G26G27G31                0.000202616
  22527895.211 5   -200135.109 5   -146433.80147  22527894.02347
  23459099.477 6   -425254.469 6   -277903.22749  23459099.94149
  22260554.695 6    167651.957 6    123375.55547  22260552.58247
  20713238.930 6   -138477.922 6    -95135.03148  20713235.62948
  21306358.820 7     12086.574 7      7681.55549  21306359.28149
  21210867.203 7   -486998.664 7   -336274.46149  21210867.12149
  21902763.648 6    -47153.734 6    -32265.87948  21902760.81648
 20  5 16  0 14  3.0000000  0  7G04G08G14G16G26G27G31                0.000201729
  22527155.680 5   -204018.648 5   -149459.92647  22527155.05947
  23458141.531 6   -430288.777 6   -281826.08249  23458141.63749
  22260871.039 6    169316.348 6    124672.49647  22260869.04747
  20713018.328 6   -139636.547 6    -96037.85948  20713015.01648
  21306385.430 7     12226.563 7      7790.62149  21306385.99649
  21210101.742 7   -491020.340 7   -339408.23849  21210101.76649
  21902685.898 6    -47560.484 6    -32582.81648  21902683.23848
 20  5 16  0 14  4.0000000  0  7G04G08G14G16G26G27G31                0.000200840
  22526416.313 5   -207902.414 5   -152486.25047  22526415.57447
  23457183.305 5   -435323.555 5   -285749.27049  23457184.13349
  22261187.875 6    170980.453 6    125969.21547  22261185.84447
  20712797.852 6   -140795.496 6    -96940.93048  20712794.55148
  21306412.000 7     12366.027 7      7899.29749  21306411.75449
  21209336.727 7   -495042.145 7   -342542.10949  21209336.58249
  21902608.141 7    -47967.602 7    -32900.04348  21902605.93448
 20  5 16  0 14  5.0000000  0  7G04G08G14G16G26G27G31                0.000199953
  22525677.422 5   -211786.137 5   -155512.53547  22525677.10547
  23456225.227 4   -440358.418 4   -289672.52348  23456226.05548
  22261504.625 6    172644.559 6    127265.90648  22261503.73448
  20712577.742 6   -141954.434 6    -97843.98448  20712574.36348
  21306438.523 7     12505.234 7      8007.78149  21306438.91049
  21208571.156 6   -499063.852 6   -345675.89149  21208571.08249
  21902530.789 6    -48374.891 6    -33217.40248  21902528.52048
 20  5 16  0 14  6.0000000  0  7G04G08G14G16G26G27G31                0.000199064
  22524938.828 4   -215669.754 4   -158538.73446  22524938.11746
  23455267.445 5   -445393.598 5   -293596.06649  23455267.98449
  22261821.242 6    174308.555 6    128562.47748  22261819.55548
  20712356.797 6   -143113.449 6    -98747.10948  20712353.46148
  21306464.758 6     12644.191 6      8116.07049  21306464.89549
  21207805.750 7   -503085.391 7   -348809.54749  21207805.69149
  21902452.945 6    -48782.320 6    -33534.86748  21902450.66048
 20  5 16  0 14  7.0000000  0  7G04G08G14G16G26G27G31                0.000198175
  22524199.344 5   -219553.496 5   -161565.02046  22524198.84046
  23454308.891 6   -450429.066 6   -297519.84449  23454309.88749
  22262137.555 6    175972.406 6    129858.95748  22262136.07848
  20712136.453 6   -144272.648 6    -99650.37548  20712133.21148
  21306491.352 6     12782.734 6      8224.02749  21306492.01249
  21207040.602 7   -507106.941 7   -351943.21949  21207040.59049
  21902375.992 6    -49190.035 6    -33852.57848  21902373.08248
 20  5 16  0 14  8.0000000  0  7G04G08G14G16G26G27G31                0.000197287
  22523460.586 5   -223437.336 5   -164591.36747  22523459.89547
  23453350.406 6   -455464.766 6   -301443.76249  23453351.65649
  22262453.914 6    177636.078 6    131155.33648  22262452.48048
  20711915.430 6   -145432.020 6   -100553.78948  20711912.75848
  21306517.797 6     12920.898 6      8331.68449  21306518.13749
  21206275.234 7   -511128.453 7   -355076.86749  21206274.78549
  21902298.281 6    -49598.008 6    -34170.49648  21902295.84848
 20  5 16  0 14  9.0000000  0  7G04G08G14G16G26G27G31                0.000196396
  22522721.703 5   -227320.988 5   -167617.58647  22522720.57447
  23452392.055 5   -460500.609 5   -305367.77749  23452393.25849
  22262770.797 6    179299.836 6    132451.81647  22262769.46947
  20711695.039 6   -146591.305 6   -101457.12948  20711691.82048
  21306543.844 6     13058.902 6      8439.21149  21306544.33649
  21205509.961 7   -515149.801 7   -358210.40649  21205509.75449
  21902220.328 6    -50006.047 6    -34488.45748  21902218.05148
 20  5 16  0 14 10.0000000  0  7G04G08G14G16G26G27G31                0.000195507
  22521982.711 5   -231204.648 5   -170643.81347  22521981.52347
  23451434.375 6   -465536.723 6   -309292.01249  23451434.80949
  22263087.242 6    180963.527 6    133748.23047  22263086.03947
  20711474.250 6   -147750.711 6   -102360.57048  20711471.25848
  21306569.969 6     13196.598 6      8546.50849  21306570.97749
  21204744.852 7   -519171.090 7   -361343.89149  21204744.60249
  21902143.117 6    -50414.297 6    -34806.57048  21902140.12948
 20  5 16  0 14 11.0000000  0  7G04G08G14G16G26G27G31                0.000194618
  22521243.484 5   -235088.359 5   -173670.08647  22521242.54747
  23450475.414 5   -470573.145 5   -313216.48849  23450476.13749
  22263404.133 6    182627.031 6    135044.48847  22263402.75847
  20711253.594 6   -148910.242 6   -103264.09848  20711250.69548
  21306596.422 7     13333.887 7      8653.48049  21306596.77349
  21203979.719 7   -523192.352 7   -364477.34449  21203979.54349
  21902065.086 6    -50822.781 6    -35124.87548  21902062.24248
 20  5 16  0 14 12.0000000  0  7G04G08G14G16G26G27G31                0.000193727
  22520504.414 5   -238971.973 5   -176696.29347  22520503.75047
  23449516.938 5   -475609.656 5   -317141.04349  23449517.91049
  22263720.953 6    184290.645 6    136340.81647  22263718.96147
  20711032.930 6   -150069.770 6   -104167.63348  20711030.07848
  21306622.313 7     13471.023 7      8760.34449  21306622.89849
  21203214.461 7   -527213.422 7   -367610.64549  21203214.59049
  21901987.273 6    -51231.352 6    -35443.23048  21901984.85248
 20  5 16  0 14 13.0000000  0  7G04G08G14G16G26G27G31                0.000192837
  22519765.242 5   -242855.711 5   -179722.58647  22519764.27047
  23448558.773 6   -480646.625 6   -321065.95349  23448559.46549
  22264036.945 6    185953.934 6    137636.87547  22264035.39547
  20710812.367 6   -151229.535 6   -105071.34448  20710809.09448
  21306648.188 7     13607.664 7      8866.81349  21306649.04749
  21202449.156 7   -531234.613 7   -370744.03949  21202449.08649
  21901909.563 6    -51640.285 6    -35761.87948  21901906.43048
 20  5 16  0 14 14.0000000  0  7G04G08G14G16G26G27G31                0.000191946
  22519025.898 5   -246739.512 5   -182748.91447  22519025.34847
  23447600.086 6   -485683.918 6   -324991.11749  23447600.86749
  22264354.109 6    187617.156 6    138932.87947  22264351.60247
  20710591.688 6   -152389.445 6   -105975.16048  20710588.71948
  21306674.117 7     13743.980 7      8973.03149  21306674.79349
  21201684.016 7   -535255.777 7   -373877.41049  21201683.92249
  21901831.633 6    -52049.457 6    -36080.71948  21901829.16048
 20  5 16  0 14 15.0000000  0  7G04G08G14G16G26G27G31                0.000191055
  22518286.906 4   -250623.223 4   -185775.17247  22518286.24247
  23446641.281 4   -490721.313 4   -328916.35948  23446641.87948
  22264670.102 6    189280.297 6    140228.77748  22264668.09448
  20710370.758 6   -153549.277 6   -106878.93448  20710368.16448
  21306700.234 6     13880.098 6      9079.09049  21306700.70349
  21200919.008 6   -539276.707 6   -377010.57049  21200918.89149
  21901753.828 6    -52458.711 6    -36399.62148  21901751.18848
 20  5 16  0 14 16.0000000  0  7G04G08G14G16G26G27G31                0.000190165
  22517548.789 4   -254506.957 4   -188801.46146  22517547.15646
  23445682.594 4   -495759.031 4   -332841.86348  23445683.22348
  22264986.578 6    190943.355 6    141524.64147  22264984.93847
  20710149.938 6   -154709.355 6   -107782.89848  20710147.59448
  21306726.031 6     14015.789 6      9184.81649  21306726.76249
  21200154.273 6   -543297.691 6   -380143.76249  21200153.65249
  21901675.891 6    -52868.277 6    -36718.75848  21901673.21948
 20  5 16  0 14 17.0000000  0  7G04G08G14G16G26G27G31                0.000189272
  22516809.125 4   -258390.789 4   -191827.82846  22516808.18446
  23444724.461 5   -500797.027 5   -336767.57047  23444724.27047
  22265303.563 6    192606.238 6    142820.37948  22265301.27048
  20709929.234 6   -155869.594 6   -108686.98048  20709926.45348
  21306751.922 7     14151.082 7      9290.23849  21306752.31649
  21199388.594 6   -547318.691 6   -383276.99649  21199388.30949
  21901598.016 6    -53278.082 6    -37038.08248  21901595.29748
 20  5 16  0 14 18.0000000  0  7G04G08G14G16G26G27G31                0.000188381
  22516070.133 4   -262274.656 4   -194854.23846  22516069.16046
  23443765.586 5   -505835.348 5   -340693.53147  23443765.41447
  22265619.453 6    194268.965 6    144116.00448  22265617.87148
  20709708.086 6   -157029.949 6   -109591.15648  20709706.02748
  21306777.547 7     14286.020 7      9395.38749  21306778.70749
  21198623.281 6   -551339.645 6   -386410.21949  21198623.21549
  21901520.195 6    -53688.152 6    -37357.62548  21901517.07048
 20  5 16  0 14 19.0000000  0  7G04G08G14G16G26G27G31                0.000187489
  22515330.875 4   -266158.809 4   -197880.85246  22515329.59046
  23442807.141 4   -510874.152 4   -344619.87947  23442806.70747
  22265936.063 6    195931.371 6    145411.39548  22265933.75048
  20709487.281 6   -158190.637 6   -110495.59048  20709485.11748
  21306802.906 7     14420.434 7      9500.12949  21306803.78149
  21197858.070 6   -555360.762 6   -389543.56349  21197857.90249
  21901441.555 6    -54098.652 6    -37677.50048  21901439.10548
 20  5 16  0 14 20.0000000  0  7G04G08G14G16G26G27G31                0.000186596
  22514592.313 4   -270042.891 4   -200907.40246  22514591.01246
  23441847.727 4   -515913.125 4   -348546.34047  23441847.79347
  22266252.281 6    197593.727 6    146706.75048  22266249.91448
  20709266.273 6   -159351.402 6   -111400.07848  20709264.10948
  21306828.633 6     14554.535 6      9604.62149  21306829.23849
  21197093.305 6   -559381.789 6   -392676.83649  21197092.60949
  21901363.672 6    -54509.324 6    -37997.50848  21901361.42248
 20  5 16  0 14 21.0000000  0  7G04G08G14G16G26G27G31                0.000185703
  22513852.914 4   -273926.926 4   -203933.91846  22513851.87946
  23440889.070 5   -520952.363 5   -352473.00847  23440888.16847
  22266568.563 6    199256.027 6    148002.05948  22266566.47348
  20709045.898 6   -160512.219 6   -112304.60948  20709043.23848
  21306853.883 7     14688.355 7      9708.89849  21306854.82449
  21196328.008 6   -563402.727 6   -395810.04749  21196327.54349
  21901285.375 6    -54920.188 6    -38317.66448  21901282.83648
 20  5 16  0 14 22.0000000  0  7G04G08G14G16G26G27G31                0.000184809
  22513113.258 4   -277810.867 4   -206960.37546  22513112.57846
  23439929.484 5   -525991.715 5   -356399.77347  23439929.46547
  22266884.922 6    200918.336 6    149297.36748  22266883.12148
  20708824.859 6   -161673.016 6   -113209.12548  20708822.62948
  21306879.367 6     14821.988 6      9813.02749  21306880.16849
  21195562.680 6   -567423.473 6   -398943.09449  21195562.54749
  21901207.336 6    -55331.109 6    -38637.86348  21901204.53948
 20  5 16  0 14 23.0000000  0  7G04G08G14G16G26G27G31                0.000183916
  22512374.516 4   -281694.645 4   -209986.68046  22512373.48846
  23438971.094 5   -531031.109 5   -360326.58247  23438970.53947
  22267200.977 6    202580.730 6    150592.73048  22267199.27748
  20708603.836 6   -162833.758 6   -114113.59848  20708601.64148
  21306904.648 6     14955.434 6      9917.01649  21306905.64149
  21194797.445 6   -571444.016 6   -402075.98049  21194797.54349
  21901128.836 6    -55742.082 6    -38958.10248  21901126.41848
 20  5 16  0 14 24.0000000  0  7G04G08G14G16G26G27G31                0.000183023
  22511635.656 5   -285578.492 5   -213013.04346  22511634.34046
  23438011.781 4   -536070.828 4   -364253.63747  23438011.53147
  22267517.813 6    204243.016 6    151888.00848  22267515.59848
  20708382.828 6   -163994.641 6   -115018.18448  20708380.41848
  21306930.094 6     15088.566 6     10020.75449  21306931.16449
  21194032.492 6   -575464.484 6   -405208.81649  21194032.26249
  21901051.195 6    -56153.277 6    -39278.50848  21901048.28948
 20  5 16  0 14 25.0000000  0  7G04G08G14G16G26G27G31                0.000182129
  22510896.422 4   -289462.414 4   -216039.48046  22510895.55146
  23437053.453 5   -541110.898 5   -368180.95747  23437052.49647
  22267834.242 6    205905.055 6    153183.10248  22267832.26248
  20708162.117 6   -165155.719 6   -115922.91448  20708159.49648
  21306955.352 6     15221.258 6     10124.14549  21306956.21149
  21193267.563 6   -579485.035 6   -408341.70749  21193267.68849
  21900972.359 6    -56564.813 6    -39599.19148  21900969.91848
 20  5 16  0 14 26.0000000  0  7G04G08G14G16G26G27G31                0.000181234
  22510156.984 4   -293346.313 4   -219065.89846  22510156.75446
  23436093.930 5   -546151.196 5   -372108.45547  23436092.80547
  22268149.898 6    207567.066 6    154478.17648  22268148.35248
  20707941.211 6   -166316.844 6   -116827.69548  20707938.59448
  21306980.484 6     15353.672 6     10227.31349  21306981.44149
  21192502.156 6   -583505.461 6   -411474.50049  21192502.34049
  21900894.242 6    -56976.492 6    -39919.97748  21900891.87148
 20  5 16  0 14 27.0000000  0  7G04G08G14G16G26G27G31                0.000180340
  22509418.391 5   -297230.230 5   -222092.32846  22509417.17246
  23435134.727 4   -551191.730 4   -376036.15647  23435134.22347
  22268466.523 6    209228.961 6    155773.16847  22268464.71947
  20707720.305 6   -167478.090 6   -117732.56648  20707717.71548
  21307005.859 6     15485.754 6     10330.22749  21307007.10949
  21191737.047 6   -587525.781 6   -414607.21549  21191737.01649
  21900815.750 6    -57388.367 6    -40240.91848  21900813.24648
 20  5 16  0 14 28.0000000  0  7G04G08G14G16G26G27G31                0.000179445
  22508678.883 5   -301114.262 5   -225118.87146  22508678.07846
  23434176.078 3   -556232.641 3                
  22268782.586 6    210890.633 6    157068.00447  22268781.29747
  20707499.523 6   -168639.566 6   -118637.62148  20707496.58648
  21307030.531 6     15617.398 6     10432.80549  21307031.91849
  21190972.305 6   -591546.164 6   -417739.98449  21190971.89149
  21900737.445 6    -57800.570 6    -40562.11348  21900734.94948
 20  5 16  0 14 29.0000000  0  7G04G08G14G16G26G27G31                0.000178551
  22507939.391 5   -304998.285 5   -228145.38346  22507939.30546
  23433216.023 3   -561273.711 3                
  22269099.094 6    212552.273 6    158362.79347  22269096.73447
  20707278.273 6   -169801.090 6   -119542.70348  20707275.66848
  21307055.789 6     15748.734 6     10535.14549  21307056.46549
  21190207.453 6   -595566.527 6   -420872.73449  21190206.67649
  21900658.805 6    -58212.977 6    -40883.47348  21900656.27348
 20  5 16  0 14 30.0000000  0  7G04G08G14G16G26G27G31                0.000177656
  22507200.656 5   -308882.297 5   -231171.88746  22507199.98846
  23432257.297 3   -566315.047 3                
  22269415.133 6    214213.797 6    159657.48447  22269413.04347
  20707057.055 6   -170962.758 6   -120447.89848  20707054.69948
  21307080.461 6     15879.762 6     10637.24649  21307081.71149
  21189442.102 6   -599586.797 6   -424005.40649  21189441.95349
  21900580.258 6    -58625.578 6    -41204.98048  21900577.98848
 20  5 16  0 14 31.0000000  0  7G04G08G14G16G26G27G31                0.000176760
  22506461.102 4   -312766.207 4   -234198.30146  22506460.76646
  23431297.156 3   -571356.570 3                
  22269731.398 6    215875.313 6    160952.16447  22269729.26647
  20706835.727 6   -172124.414 6   -121353.07848  20706833.23048
  21307105.477 6     16010.547 6     10739.15649  21307106.37149
  21188677.195 6   -603606.906 6   -427137.95349  21188676.77049
  21900501.609 6    -59038.293 6    -41526.57848  21900499.36348
 20  5 16  0 14 32.0000000  0  7G04G08G14G16G26G27G31                0.000175863
  22505722.445 4   -316650.156 4   -237224.74246  22505721.82046
  23430338.156 3   -576398.371 3                
  22270047.289 6    217536.730 6    162246.77747  22270045.52347
  20706614.922 6   -173286.180 6   -122258.34848  20706612.49248
  21307130.484 6     16141.020 6     10840.82449  21307131.45749
  21187911.922 5   -607626.941 5   -430270.45349  21187911.72349
  21900423.266 6    -59451.223 6    -41848.34048  21900420.99248
 20  5 16  0 14 33.0000000  0  7G04G08G14G16G26G27G31                0.000174969
  22504983.492 5   -320534.098 5   -240251.18846  22504983.02046
  23429379.375 3   -581440.438 3   -380750.33256  23429374.43456
  22270363.617 6    219198.059 6    163541.32047  22270361.50047
  20706393.922 6   -174448.047 6   -123163.69948  20706391.27048
  21307154.813 6     16271.188 6     10942.25849  21307156.21949
  21187146.820 5   -611646.922 5   -433402.90249  21187146.47349
  21900344.875 6    -59864.344 6    -42170.25848  21900342.49248
 20  5 16  0 14 34.0000000  0  7G04G08G14G16G26G27G31                0.000174072
  22504244.906 5   -324417.918 5   -243277.55146  22504244.08646
  23428420.711 2   -586482.547 2   -384679.16046  23428415.37546
  22270680.000 6    220859.434 6    164835.90647  22270677.76647
  20706172.820 6   -175609.883 6   -124069.02748  20706170.38748
  21307179.648 6     16401.109 6     11043.49249  21307180.93049
  21186382.133 5   -615666.734 5   -436535.23049  21186381.70749
  21900265.594 6    -60277.547 6    -42492.24248  21900262.99248
 20  5 16  0 14 35.0000000  0  7G04G08G14G16G26G27G31                0.000173176
  22503505.820 6   -328301.734 6   -246303.90647  22503504.86747
  23427459.789 6   -591524.836 6   -388608.30149  23427458.49649
  22270995.648 6    222520.730 6    166130.41447  22270993.76247
  20705952.117 7   -176771.879 7   -124974.47748  20705948.85548
  21307204.742 7     16530.711 7     11144.48449  21307205.12549
  21185617.563 6   -619686.520 6   -439667.54749  21185617.56349
  21900187.203 6    -60691.016 6    -42814.43848  21900184.51648
 20  5 16  0 14 36.0000000  0  7G04G08G14G16G26G27G31                0.000172279
  22502766.914 6   -332185.508 6   -249330.23047  22502765.34847
  23426499.758 5   -596567.492 5   -392537.82049  23426500.60549
  22271311.703 6    224181.898 6    167424.82847  22271309.98847
  20705730.609 7   -177933.879 7   -125879.93449  20705727.60949
  21307229.805 7     16660.047 7     11245.26249  21307229.92249
  21184852.672 6   -623706.145 6   -442799.75049  21184852.40649
  21900108.688 6    -61104.578 6    -43136.69548  21900105.96548
 20  5 16  0 14 37.0000000  0  7G04G08G14G16G26G27G31                0.000171381
  22502027.906 5   -336069.137 5   -252356.44547  22502026.42247
  23425540.148 5   -601610.195 5   -396467.29749  23425540.71949
  22271627.875 6    225843.164 6    168719.30947  22271626.04747
  20705509.680 7   -179095.820 7   -126785.34449  20705506.70749
  21307254.078 7     16789.230 7     11345.92649  21307254.37549
  21184087.914 6   -627725.551 6   -445931.76249  21184087.77349
  21900029.852 6    -61518.191 6    -43458.99648  21900027.20348
 20  5 16  0 14 38.0000000  0  7G04G08G14G16G26G27G31                0.000170485
  22501289.172 6   -339952.566 6   -255382.48448  22501287.54348
  23424580.227 5   -606652.969 5   -400396.75849  23424582.86349
  22271944.586 6    227504.531 6    170013.88747  22271942.66047
  20705288.484 7   -180257.676 7   -127690.68049  20705285.80549
  21307278.867 7     16918.293 7     11446.49649  21307278.52349
  21183322.578 7   -631744.703 7   -449063.56349  21183322.37949
  21899950.883 6    -61931.855 6    -43781.33248  21899948.26248
 20  5 16  0 14 39.0000000  0  7G04G08G14G16G26G27G31                0.000169586
  22500549.781 6   -343835.930 6   -258408.47748  22500548.65648
  23423620.641 5   -611695.879 5   -404326.28149  23423624.50449
  22272260.344 6    229165.895 6    171308.46148  22272258.70348
  20705067.391 7   -181419.543 7   -128596.03949  20705064.63349
  21307303.086 7     17047.113 7     11546.87949  21307303.37149
  21182557.672 6   -635763.719 6   -452195.25849  21182557.73849
  21899872.414 6    -62345.625 6    -44103.75048  21899869.88748
 20  5 16  0 14 40.0000000  0  7G04G08G14G16G26G27G31                0.000168690
  22499810.906 6   -347719.348 6   -261434.52048  22499809.38348
  23422660.805 5   -616739.125 5   -408256.04749  23422662.62949
  22272576.500 6    230827.102 6    172602.90248  22272574.58648
  20704846.273 6   -182581.582 6   -129501.52349  20704843.39549
  21307327.414 7     17175.547 7     11646.95349  21307327.77049
  21181793.102 6   -639782.711 6   -455326.93449  21181793.32449
  21899793.352 6    -62759.656 6    -44426.37548  21899790.80148
 20  5 16  0 14 41.0000000  0  7G04G08G14G16G26G27G31                0.000167791
  22499071.898 6   -351602.926 6   -264460.68448  22499070.66848
  23421701.570 5   -621782.762 5   -412186.11749  23421702.45749
  22272892.563 6    232488.055 6    173897.15248  22272890.76248
  20704624.930 6   -183743.859 6   -130407.19549  20704622.20349
  21307351.781 7     17303.523 7     11746.67249  21307352.04349
  21181028.336 6   -643801.781 6   -458458.67249  21181028.03549
  21899714.898 6    -63174.027 6    -44749.26248  21899712.00848
 20  5 16  0 14 42.0000000  0  7G04G08G14G16G26G27G31                0.000166893
  22498332.805 6   -355486.488 6   -267486.83648  22498331.19948
  23420741.523 5   -626826.582 5   -416116.35249  23420742.39149
  22273208.352 6    234148.910 6    175191.32047  22273207.13747
  20704404.039 6   -184906.242 6   -131312.94949  20704401.24249
  21307376.148 7     17431.164 7     11846.13749  21307376.50049
  21180263.430 6   -647820.797 6   -461590.37149  21180263.19949
  21899636.203 6    -63588.625 6    -45072.32848  21899633.39848
 20  5 16  0 14 43.0000000  0  7G04G08G14G16G26G27G31                0.000165995
  22497593.344 6   -359369.938 6   -270512.89848  22497592.47348
  23419781.469 5   -631870.582 5   -420046.73849  23419782.36749
  22273524.656 6    235809.813 6    176485.52748  22273523.15648
  20704182.625 6   -186068.609 6   -132218.68849  20704179.62149
  21307400.422 7     17558.613 7     11945.44149  21307400.89549
  21179498.727 6   -651839.621 6   -464721.91849  21179498.69549
  21899557.250 6    -64003.301 6    -45395.45348  21899554.11348
 20  5 16  0 14 44.0000000  0  7G04G08G14G16G26G27G31                0.000165096
  22496854.742 6   -363253.379 6   -273538.96148  22496853.58248
  23418821.672 5   -636914.793 5   -423977.29749  23418822.77349
  22273840.617 6    237470.613 6    177779.65648  22273838.23448
  20703961.531 6   -187231.063 6   -133124.49649  20703958.40249
  21307424.586 7     17685.734 7     12044.49649  21307425.15249
  21178733.953 6   -655858.352 6   -467853.39849  21178733.88349
  21899478.125 6    -64418.133 6    -45718.70348  21899475.00048
 20  5 16  0 14 45.0000000  0  7G04G08G14G16G26G27G31                0.000164196
  22496115.555 6   -367136.738 6   -276564.94947  22496114.43047
  23417862.164 5   -641959.168 5   -427907.98849  23417862.75449
  22274157.109 6    239131.418 6    179073.78947  22274154.97747
  20703740.344 7   -188393.520 7   -134030.30949  20703737.34049
  21307448.547 7     17812.660 7     12143.40249  21307449.00049
  21177969.203 6   -659876.945 6   -470984.77349  21177969.08249
  21899399.039 6    -64833.129 6    -46042.07848  21899396.25448
 20  5 16  0 14 46.0000000  0  7G04G08G14G16G26G27G31                0.000163298
  22495376.805 6   -371019.898 6   -279590.80147  22495375.77347
  23416902.289 5   -647003.602 5   -431838.71949  23416902.76249
  22274472.773 6    240792.324 6    180368.00048  22274470.86748
  20703518.906 6   -189555.887 6   -134936.04749  20703515.92649
  21307472.719 7     17939.445 7     12242.19549  21307473.11749
  21177204.633 6   -663895.270 6   -474115.93849  21177204.78149
  21899320.203 6    -65248.109 6    -46365.43848  21899317.34448
 20  5 16  0 14 47.0000000  0  7G04G08G14G16G26G27G31                0.000162397
  22494637.867 6   -374903.074 6   -282616.65247  22494636.98847
  23415942.195 5   -652048.301 5   -435769.66449  23415942.74649
  22274788.508 6    242453.105 6    181662.11747  22274786.76647
  20703297.969 6   -190718.359 6   -135841.86749  20703294.71549
  21307496.750 7     18065.895 7     12340.73049  21307496.91449
  21176439.789 6   -667913.555 6   -477247.06649  21176439.90649
  21899241.336 6    -65663.324 6    -46688.98448  21899238.49648
 20  5 16  0 14 48.0000000  0  7G04G08G14G16G26G27G31                0.000161499
  22493898.633 6   -378786.297 6   -285642.54348  22493897.74648
  23414982.641 5   -657093.297 5   -439700.82849  23414982.94549
  22275104.836 6    244113.746 6    182956.12147  22275102.93047
  20703076.945 7   -191880.992 7   -136747.81649  20703073.78549
  21307520.664 7     18191.957 7     12438.95749  21307520.94149
  21175674.969 6   -671931.805 6   -480378.17249  21175675.27349
  21899162.188 6    -66078.766 6    -47012.70348  21899159.36348
 20  5 16  0 14 49.0000000  0  7G04G08G14G16G26G27G31                0.000160599
  22493159.977 6   -382669.512 6   -288668.42248  22493158.71948
  23414022.070 5   -662138.512 5   -443632.16049  23414022.75449
  22275420.836 6    245774.316 6    184250.07048  22275419.25448
  20702855.117 6   -193043.711 6   -137653.82849  20702852.24649
  21307544.719 7     18317.762 7     12536.98449  21307545.16449
  21174910.703 6   -675949.965 6   -483509.20749  21174910.84449
  21899083.359 6    -66494.410 6    -47336.59048  21899080.19948
 20  5 16  0 14 50.0000000  0  7G04G08G14G16G26G27G31                0.000159698
  22492420.797 6   -386552.691 6   -291694.27747  22492419.57847
  23413062.500 5   -667183.914 5   -447563.64549  23413062.33649
  22275736.734 6    247434.832 6    185543.97348  22275734.89548
  20702633.945 7   -194206.496 7   -138559.89549  20702631.08649
  21307568.328 7     18443.250 7     12634.76649  21307569.07849
  21174146.109 6   -679968.027 6   -486640.16049  21174146.07449
  21899003.836 6    -66910.223 6    -47660.60248  21899001.08248
 20  5 16  0 14 51.0000000  0  7G04G08G14G16G26G27G31                0.000158798
  22491682.289 6   -390435.770 6   -294720.04747  22491680.66447
  23412101.797 5   -672229.484 5   -451495.25849  23412102.59049
  22276052.477 6    249095.352 6    186837.88748  22276050.87948
  20702412.922 7   -195369.266 7   -139465.95349  20702409.68849
  21307592.656 6     18568.516 6     12732.37149  21307592.77049
  21173381.766 6   -683985.926 6   -489770.99249  21173381.38749
  21898924.688 6    -67326.145 6    -47984.69548  21898921.73848
 20  5 16  0 14 52.0000000  0  7G04G08G14G16G26G27G31                0.000157896
  22490943.039 6   -394318.672 6   -297745.68048  22490941.88748
  23411141.766 5   -677275.109 5   -455426.91449  23411142.22749
  22276368.766 6    250755.961 6    188131.86347  22276367.06347
  20702191.461 7   -196531.965 7   -140371.95349  20702188.67249
  21307616.453 7     18693.637 7     12829.87149  21307616.62949
  21172616.906 6   -688003.578 6   -492901.63349  21172616.74649
  21898845.867 6    -67742.074 6    -48308.79748  21898842.68448
 20  5 16  0 14 53.0000000  0  7G04G08G14G16G26G27G31                0.000156996
  22490204.523 6   -398201.539 6   -300771.29748  22490202.52348
  23410181.953 5   -682320.973 5   -459358.75049  23410182.18849
  22276684.758 6    252416.480 6    189425.77347  22276683.35947
  20701970.414 6   -197694.773 6   -141278.04349  20701967.66849
  21307640.570 7     18818.449 7     12927.12949  21307640.53949
  21171852.406 6   -692021.156 6   -496032.21149  21171852.54749
  21898766.563 6    -68158.211 6    -48633.05948  21898763.48048
 20  5 16  0 14 54.0000000  0  7G04G08G14G16G26G27G31                0.000156094
  22489465.844 6   -402084.527 6   -303796.99648  22489464.11348
  23409221.328 5   -687367.219 5   -463290.89549  23409221.78149
  22277001.000 6    254076.809 6    190719.53547  22276999.03147
  20701749.039 7   -198857.766 7   -142184.26649  20701746.14849
  21307664.180 7     18942.852 7     13024.05949  21307663.79749
  21171087.727 7   -696038.773 7   -499162.82049  21171087.80949
  21898687.234 6    -68574.648 6    -48957.55948  21898684.22348
 20  5 16  0 14 55.0000000  0  7G04G08G14G16G26G27G31                0.000155193
  22488726.266 6   -405967.461 6   -306822.66847  22488725.10947
  23408260.844 5   -692413.645 5   -467223.17249  23408261.56349
  22277316.531 6    255737.090 6    192013.26247  22277314.98447
  20701527.867 7   -200020.781 7   -143090.51249  20701524.89549
  21307687.492 7     19066.988 7     13120.78949  21307687.71949
  21170323.367 7   -700056.262 7   -502293.33249  21170323.43049
  21898607.969 6    -68991.219 6    -49282.16448  21898604.96148
 20  5 16  0 14 56.0000000  0  7G04G08G14G16G26G27G31                0.000154291
  22487987.414 6   -409850.379 6   -309848.31348  22487986.23448
  23407300.719 5   -697460.289 5   -471155.61349  23407301.06349
  22277632.711 6    257397.285 6    193306.91847  22277630.89147
  20701306.484 7   -201183.906 7   -143996.84849  20701303.80949
  21307710.836 7     19190.828 7     13217.28949  21307710.99649
  21169558.602 6   -704073.637 6   -505423.75849  21169558.86349
  21898528.359 6    -69407.988 6    -49606.92248  21898525.77048
 20  5 16  0 14 57.0000000  0  7G04G08G14G16G26G27G31                0.000153389
  22487248.602 6   -413733.281 6   -312873.95348  22487247.75048
  23406340.594 5   -702507.160 5   -475088.24249  23406340.67649
  22277948.453 6    259057.438 6    194600.54748  22277946.93048
  20701085.039 6   -202347.102 6   -144903.22749  20701082.00849
  21307734.391 7     19314.363 7     13313.55149  21307734.78149
  21168794.227 7   -708090.941 7   -508554.12549  21168794.55949
  21898448.945 6    -69824.941 6    -49931.82048  21898446.39548
 20  5 16  0 14 58.0000000  0  7G04G08G14G16G26G27G31                0.000152487
  22486509.273 5   -417616.039 5   -315899.47747  22486508.63747
  23405379.758 5   -707554.156 5   -479020.96949  23405380.25049
  22278264.539 6    260717.582 6    195894.16847  22278262.67647
  20700863.797 7   -203510.273 7   -145809.59049  20700860.54749
  21307758.250 7     19437.676 7     13409.63749  21307758.20349
  21168029.688 6   -712108.059 6   -511684.34449  21168029.77749
  21898369.750 6    -70241.980 6    -50256.78548  21898367.05948
 20  5 16  0 14 59.0000000  0  7G04G08G14G16G26G27G31                0.000151585
  22485770.586 5   -421498.805 5   -318925.01648  22485770.00048
  23404418.719 5   -712601.406 5   -482953.89849  23404419.96149
  22278579.945 6    262377.660 6    197187.73048  22278578.31348
  20700642.477 7   -204673.547 7   -146716.04349  20700639.48449
  21307781.359 6     19560.715 6     13505.51249  21307781.37549
  21167265.609 7   -716125.113 7   -514814.51649  21167265.66049
  21898290.633 6    -70659.199 6    -50581.89148  21898287.87548
 20  5 16  0 15  0.0000000  0  7G04G08G14G16G26G27G31                0.000150681
  22485031.852 6   -425381.539 6   -321950.51647  22485030.88347
  23403459.164 5   -717648.809 5   -486886.93849  23403459.32449
  22278896.125 6    264037.652 6    198481.23047  22278894.57047
  20700421.156 7   -205836.898 7   -147622.55949  20700417.95349
  21307804.617 6     19683.438 6     13601.13749  21307804.87149
  21166501.133 7   -720142.055 7   -517944.60249  21166500.94149
  21898211.031 6    -71076.590 6    -50907.13348  21898208.12548
 20  5 16  0 15  1.0000000  0  7G04G08G14G16G26G27G31                0.000149778
  22484293.477 6   -429264.180 6   -324975.94947  22484291.99247
  23402498.570 5   -722696.402 5   -490820.12949  23402498.70349
  22279212.094 6    265697.629 6    199774.71147  22279210.22347
  20700199.750 7   -207000.258 7   -148529.07049  20700196.61349
  21307827.969 6     19805.918 6     13696.57849  21307827.91849
  21165736.500 7   -724158.844 7   -521074.56349  21165736.29349
  21898131.719 6    -71494.121 6    -51232.48448  21898128.47748
 20  5 16  0 15  2.0000000  0  7G04G08G14G16G26G27G31                0.000148874
  22483554.703 6   -433146.969 6   -328001.50448  22483553.77748
  23401537.695 5   -727744.371 5   -494753.60949  23401538.00849
  22279527.820 6    267357.402 6    201068.03948  22279526.29748
  20699978.344 7   -208163.836 7   -149435.75849  20699975.30949
  21307851.203 7     19927.980 7     13791.68849  21307851.50049
  21164972.336 7   -728175.676 7   -524204.56649  21164972.32449
  21898051.953 6    -71911.957 6    -51558.07848  21898049.16848
 20  5 16  0 15  3.0000000  0  7G04G08G14G16G26G27G31                0.000147972
  22482815.609 6   -437029.707 6   -331027.01647  22482814.76247
  23400577.344 5   -732792.531 5   -498687.23849  23400577.72749
  22279843.641 6    269017.086 6    202361.30147  22279841.98047
  20699756.742 7   -209327.516 7   -150342.52349  20699753.89849
  21307874.273 7     20049.715 7     13886.54749  21307874.24649
  21164208.094 7   -732192.441 7   -527334.51249  21164207.97349
  21897972.563 6    -72329.996 6    -51883.82048  21897969.35948
 20  5 16  0 15  4.0000000  0  7G04G08G14G16G26G27G31                0.000147068
  22482076.680 5   -440912.480 5   -334052.55948  22482075.50848
  23399616.734 5   -737840.973 5   -502621.08249  23399616.64149
  22280159.164 6    270676.648 6    203654.46547  22280157.70347
  20699534.953 7   -210491.289 7   -151249.35949  20699532.31649
  21307897.438 7     20171.113 7     13981.13749  21307897.71549
  21163443.648 6   -736209.156 6   -530464.42249  21163443.37949
  21897893.266 6    -72748.266 6    -52209.74648  21897889.85948
 20  5 16  0 15  5.0000000  0  7G04G08G14G16G26G27G31                0.000146164
  22481337.766 6   -444795.246 6   -337078.08647  22481336.73047
  23398656.383 5   -742889.621 5   -506555.09049  23398656.29749
  22280475.414 6    272336.125 6    204947.56647  22280473.41847
