     2.10           OBSERVATION DATA    GPS(GPS)            RINEX VERSION / TYPE
cnvtToRINEX 3.07.0  convertToRINEX OPR  19-May-20 12:30 UTC PGM / RUN BY / DATE 
----------------------------------------------------------- COMMENT             
9038                                                        MARKER NAME         
9038                                                        MARKER NUMBER       
GNSS Observer       Trimble                                 OBSERVER / AGENCY   
0220327801          5700                2.32                REC # / TYPE / VERS 
                    TRM39105.00                             ANT # / TYPE        
 -3049879.6128  4927087.7414  2656212.1606                  APPROX POSITION XYZ 
       -0.0460        0.0000        0.0000                  ANTENNA: DELTA H/E/N
     1     1     0                                          WAVELENGTH FACT L1/2
     4    C1    L1    L2    P2                              # / TYPES OF OBSERV 
  2020     5    16     3    12   26.0000000     GPS         TIME OF FIRST OBS   
  2020     5    16     5     0   49.0000000     GPS         TIME OF LAST OBS    
     0                                                      RCV CLOCK OFFS APPL 
    18                                                      LEAP SECONDS        
    13                                                      # OF SATELLITES     
   G01  6480  6480  6480  6480                              PRN / # OF OBS      
   G03  1176  1176  1176  1176                              PRN / # OF OBS      
   G04  2074  2074  2074  2074                              PRN / # OF OBS      
   G07  6504  6504  6504  6504                              PRN / # OF OBS      
   G08  6504  6504  6504  6504                              PRN / # OF OBS      
   G09  3424  3412  3424  3424                              PRN / # OF OBS      
   G11  6480  6480  6480  6480                              PRN / # OF OBS      
   G16  3625  3599  3472  3472                              PRN / # OF OBS      
   G17   216   216   216   216                              PRN / # OF OBS      
   G22  3014  2867  2687  2687                              PRN / # OF OBS      
   G27  4758  4754  4743  4743                              PRN / # OF OBS      
   G28  1021  1015   705   705                              PRN / # OF OBS      
   G30  5370  5370  5370  5370                              PRN / # OF OBS      
CARRIER PHASE MEASUREMENTS: PHASE SHIFTS REMOVED            COMMENT             
                                                            END OF HEADER       
 20  5 16  3 12 26.0000000  0  5G07G08G09G16G27                      0.000163740
  22559704.18816    -72115.78516    -17590.20759  22559700.96959
  20678530.14817    -11346.21917     -2779.01659  20678522.81359
  23265746.44516     -5096.98016     -1474.52359  23265745.43859
  22972525.03116     -6306.44116     -1512.29757  22972521.87557
  22121571.32016     10485.91016      2990.87959  22121570.49659
 20  5 16  3 12 27.0000000  0  5G07G08G09G16G27                      0.000162487
  22558765.797 6    -77045.719 6    -21431.69149  22558763.26649
  20678377.531 7    -12147.203 7     -3403.17649  20678378.98849
  23265660.961 6     -5548.223 6     -1826.14549  23265660.14849
  22972436.938 6     -6768.906 6     -1872.66447  22972434.18047
  22121700.984 6     11164.656 6      3519.75049  22121699.86749
 20  5 16  3 12 28.0000000  0  5G07G08G09G16G27                      0.000161234
  22557826.703 6    -81980.313 6    -25276.82449  22557823.83649
  20678224.578 7    -12952.836 7     -4030.95749  20678224.67249
  23265573.961 6     -6004.059 6     -2181.33649  23265573.55549
  22972348.008 6     -7236.246 6     -2236.82847  22972345.34047
  22121828.984 6     11838.582 6      4044.88749  22121827.81649
 20  5 16  3 12 29.0000000  0  5G07G08G09G16G27                      0.000159975
  22556886.859 6    -86919.391 6    -29125.44549  22556884.33249
  20678070.750 7    -13762.895 7     -4662.18049  20678070.80549
  23265486.359 6     -6464.293 6     -2539.96549  23265485.78949
  22972258.273 6     -7708.270 6     -2604.64147  22972255.32047
  22121956.672 6     12507.859 6      4566.39849  22121955.16449
 20  5 16  3 12 30.0000000  0  5G07G08G09G16G27                      0.000158716
  22555945.836 6    -91862.723 6    -32977.39549  22555943.45749
  20677915.555 7    -14577.176 7     -5296.68849  20677915.77049
  23265397.422 6     -6928.750 6     -2901.88349  23265397.07049
  22972167.500 6     -8184.746 6     -2975.92247  22972164.66847
  22122083.031 6     13172.707 6      5084.46549  22122082.29349
 20  5 16  3 12 31.0000000  0  5G07G08G09G16G27                      0.000157452
  22555004.703 6    -96810.293 6    -36832.64549  22555002.10949
  20677759.711 7    -15395.660 7     -5934.45749  20677759.83649
  23265308.383 6     -7397.355 6     -3267.03949  23265308.10549
  22972075.672 6     -8665.676 6     -3350.67247  22972073.09847
  22122208.695 6     13833.152 6      5599.09849  22122207.50449
 20  5 16  3 12 32.0000000  0  5G07G08G09G16G27                      0.000156187
  22554062.313 6   -101761.953 6    -40691.09049  22554059.47749
  20677603.008 7    -16218.199 7     -6575.39549  20677602.94549
  23265218.758 6     -7870.016 6     -3635.35249  23265218.04349
  22971983.648 6     -9150.910 6     -3728.78947  22971981.13747
  22122333.648 6     14489.332 6      6110.41049  22122332.53149
 20  5 16  3 12 33.0000000  0  5G07G08G09G16G27                      0.000154917
  22553119.570 6   -106717.391 6    -44552.47349  22553116.78949
  20677445.742 7    -17044.488 7     -7219.26249  20677445.92649
  23265127.977 6     -8346.395 6     -4006.55549  23265127.28149
  22971890.313 6     -9640.102 6     -4109.97347  22971887.96947
  22122457.867 6     15141.563 6      6618.64849  22122456.70349
 20  5 16  3 12 34.0000000  0  5G07G08G09G16G27                      0.000153646
  22552175.625 6   -111676.461 6    -48416.68849  22552172.88749
  20677288.133 7    -17874.348 7     -7865.90649  20677288.42649
  23265036.547 6     -8826.355 6     -4380.55149  23265036.20749
  22971796.500 6    -10133.117 6     -4494.14147  22971794.01647
  22122581.039 6     15790.008 6      7123.93049  22122579.73849
 20  5 16  3 12 35.0000000  0  5G07G08G09G16G27                      0.000152370
  22551231.656 6   -116639.125 6    -52283.69549  22551228.65649
  20677129.484 7    -18707.742 7     -8515.30149  20677129.66049
  23264944.875 6     -9309.828 6     -4757.27349  23264943.84849
  22971702.000 6    -10629.941 6     -4881.27747  22971699.05147
  22122703.414 6     16434.707 6      7626.28949  22122702.78549
 20  5 16  3 12 36.0000000  0  5G07G08G09G16G27                      0.000151096
  22550286.398 6   -121605.039 6    -56153.23449  22550283.69549
  20676970.125 7    -19544.371 7     -9167.21949  20676970.19149
  23264852.297 6     -9796.473 6     -5136.47349  23264851.27049
  22971606.672 6    -11130.230 6     -5271.11347  22971603.84447
  22122825.617 6     17075.957 6      8125.95749  22122824.76249
 20  5 16  3 12 37.0000000  0  5G07G08G09G16G27                      0.000149817
  22549340.797 6   -126574.059 6    -60025.19949  22549337.94149
  20676810.445 7    -20384.055 7     -9821.51649  20676810.34449
  23264758.656 6    -10286.211 6     -5518.08649  23264758.09449
  22971511.039 6    -11633.809 6     -5663.50847  22971508.13747
  22122947.000 6     17713.949 6      8623.09449  22122946.03549
 20  5 16  3 12 38.0000000  0  5G07G08G09G16G27                      0.000148539
  22548394.383 6   -131546.051 6    -63899.48049  22548391.48849
  20676649.828 7    -21226.664 7    -10478.10249  20676649.87149
  23264664.914 6    -10778.820 6     -5901.93849  23264664.13349
  22971414.242 6    -12140.566 6     -6058.39147  22971411.98447
  22123067.648 6     18348.797 6      9117.77749  22123066.93849
 20  5 16  3 12 39.0000000  0  5G07G08G09G16G27                      0.000147255
  22547447.984 6   -136520.797 6    -67775.90249  22547445.56349
  20676489.359 7    -22072.023 7    -11136.82449  20676489.11749
  23264571.008 6    -11274.160 6     -6287.91449  23264570.21549
  22971317.391 6    -12650.285 6     -6455.57047  22971314.78147
  22123188.094 6     18980.707 6      9610.17249  22123187.23849
 20  5 16  3 12 40.0000000  0  5G07G08G09G16G27                      0.000145971
  22546500.414 6   -141498.035 6    -71654.27049  22546497.89149
  20676328.063 7    -22919.820 7    -11797.43849  20676328.18449
  23264476.344 6    -11771.918 6     -6675.78149  23264475.35549
  22971220.180 6    -13162.711 6     -6854.86747  22971217.14547
  22123307.414 6     19609.965 6     10100.50449  22123306.53549
 20  5 16  3 12 41.0000000  0  5G07G08G09G16G27                      0.000144684
  22545553.797 6   -146477.707 6    -75534.53149  22545550.49249
  20676166.578 7    -23770.023 7    -12459.93849  20676166.22749
  23264380.844 6    -12272.074 6     -7065.51649  23264380.05549
  22971122.367 6    -13677.785 6     -7256.23047  22971119.20347
  22123426.859 6     20236.613 6     10588.80149  22123426.06649
 20  5 16  3 12 42.0000000  0  5G07G08G09G16G27                      0.000143398
  22544604.953 6   -151459.621 6    -79416.54749  22544602.81349
  20676004.109 7    -24622.398 7    -13124.12949  20676003.99649
  23264285.750 6    -12774.375 6     -7456.91449  23264284.38749
  22971023.883 6    -14195.250 6     -7659.44947  22971020.90647
  22123545.898 6     20860.863 6     11075.22749  22123544.82849
 20  5 16  3 12 43.0000000  0  5G07G08G09G16G27                      0.000142109
  22543657.117 6   -156443.641 6    -83300.19949  22543654.44549
  20675841.164 7    -25476.855 7    -13789.93849  20675841.27349
  23264188.961 6    -13278.750 6     -7849.93849  23264188.49649
  22970924.961 6    -14715.094 6     -8064.52747  22970921.80947
  22123664.039 6     21482.828 6     11559.87149  22123663.15249
 20  5 16  3 12 44.0000000  0  5G07G08G09G16G27                      0.000140820
  22542708.063 6   -161429.602 6    -87185.36349  22542705.08649
  20675678.031 7    -26333.184 7    -14457.20349  20675678.30949
  23264093.398 6    -13785.000 6     -8244.42249  23264092.74649
  22970825.172 6    -15237.035 6     -8471.23447  22970822.16047
  22123782.484 6     22102.688 6     12042.87549  22123781.39549
 20  5 16  3 12 45.0000000  0  5G07G08G09G16G27                      0.000139526
  22541759.141 6   -166417.496 6    -91072.03549  22541756.56649
  20675514.703 7    -27191.441 7    -15125.97749  20675515.16049
  23263995.977 6    -14293.102 6     -8640.36349  23263995.77349
  22970725.063 6    -15761.133 6     -8879.62147  22970722.66847
  22123899.375 6     22720.449 6     12524.25449  22123898.77049
 20  5 16  3 12 46.0000000  0  5G07G08G09G16G27                      0.000138235
  22540809.352 6   -171407.375 6    -94960.25049  22540806.79349
  20675351.227 7    -28051.633 7    -15796.26249  20675351.35249
  23263899.102 6    -14803.176 6     -9037.83249  23263898.49249
  22970624.742 6    -16287.426 6     -9289.72747  22970622.49247
  22124016.664 6     23336.039 6     13003.92649  22124016.44149
 20  5 16  3 12 47.0000000  0  5G07G08G09G16G27                      0.000136940
  22539859.609 6   -176398.820 6    -98849.69149  22539856.60949
  20675187.023 7    -28913.371 7    -16467.74249  20675187.59049
  23263801.477 6    -15314.746 6     -9436.45349  23263801.07449
  22970524.688 6    -16815.465 6     -9701.17647  22970521.92247
  22124133.703 6     23949.898 6     13482.25849  22124132.94949
 20  5 16  3 12 48.0000000  0  5G07G08G09G16G27                      0.000135645
  22538909.703 6   -181391.457 6   -102740.05549  22538906.43449
  20675023.203 7    -29776.238 7    -17140.11349  20675023.05949
  23263704.133 6    -15827.418 6     -9835.93449  23263703.43849
  22970424.000 6    -17344.879 6    -10113.71147  22970421.63747
  22124250.016 6     24562.445 6     13959.55949  22124249.10549
 20  5 16  3 12 49.0000000  0  5G07G08G09G16G27                      0.000134348
  22537959.461 6   -186385.477 6   -106631.50049  22537956.47749
  20674858.492 7    -30640.477 7    -17813.54349  20674858.74649
  23263606.789 6    -16341.441 6    -10236.46149  23263605.98049
  22970322.500 6    -17875.961 6    -10527.53547  22970320.28147
  22124366.773 6     25173.375 6     14435.61349  22124365.77749
 20  5 16  3 12 50.0000000  0  8G01G04G07G08G09G11G16G27             0.000133051
  22575425.71115   -165384.85915    -77459.43459  22575428.02759
  23390961.03913     17809.55513      8424.62156  23390961.00856
  22537008.563 6   -191380.844 6   -110523.98849  22537005.92649
  20674693.836 7    -31506.051 7    -18488.01649  20674693.58649
  23263507.906 6    -16856.785 6    -10638.03149  23263507.75449
  20622445.77317    -94913.55117    -63122.14559  20622443.00459
  22970221.695 6    -18408.559 6    -10942.55547  22970219.20347
  22124482.070 6     25782.785 6     14910.47349  22124481.30949
 20  5 16  3 12 51.0000000  0  8G01G04G07G08G09G11G16G27             0.000131752
  22574372.172 5   -170921.762 5    -81773.89849  22574374.45349
  23391069.656 4     18378.121 4      8867.65646  23391069.21546
  22536058.008 6   -196377.500 6   -114417.48849  22536054.92249
  20674528.727 7    -32372.816 7    -19163.41849  20674528.71949
  23263410.266 6    -17373.297 6    -11040.51249  23263409.46149
  20621765.523 7    -98488.750 7    -65908.01249  20621762.45349
  22970120.391 6    -18942.648 6    -11358.73447  22970117.20347
  22124598.188 6     26390.777 6     15384.23449  22124597.11749
 20  5 16  3 12 52.0000000  0  8G01G04G07G08G09G11G16G27             0.000130453
  22573317.695 5   -176459.828 5    -86089.27749  22573320.14849
  23391177.836 4     18945.379 4      9309.67246  23391177.57046
  22535107.281 6   -201375.238 6   -118311.82849  22535104.01249
  20674363.602 7    -33240.645 7    -19839.64849  20674363.78549
  23263311.898 6    -17890.871 6    -11443.82049  23263311.05949
  20621084.852 7   -102064.793 7    -68694.53949  20621081.78949
  22970018.383 6    -19478.004 6    -11775.89847  22970015.71147
  22124713.383 6     26997.492 6     15857.00049  22124712.56349
 20  5 16  3 12 53.0000000  0  8G01G04G07G08G09G11G16G27             0.000129152
  22572263.719 5   -181999.016 5    -90405.52349  22572266.22349
  23391285.742 4     19511.355 4      9750.68446  23391285.11746
  22534155.656 6   -206374.059 6   -122207.01249  22534152.76649
  20674198.414 7    -34109.543 7    -20516.70749  20674198.18849
  23263213.398 6    -18409.504 6    -11847.94949  23263212.34849
  20620404.766 7   -105641.723 7    -71481.75849  20620401.35549
  22969915.961 6    -20014.684 6    -12194.09847  22969913.58247
  22124828.727 6     27602.938 6     16328.77349  22124827.99249
 20  5 16  3 12 54.0000000  0  8G01G04G07G08G09G11G16G27             0.000127853
  22571209.430 5   -187539.293 5    -94722.62149  22571211.82449
  23391393.836 4     20076.121 4     10190.76646  23391392.49246
  22533203.953 6   -211373.887 6   -126102.98049  22533201.07849
  20674032.852 7    -34979.355 7    -21194.48049  20674032.75049
  23263114.859 6    -18929.059 6    -12252.79349  23263113.46549
  20619723.750 6   -109219.359 6    -74269.53149  20619720.76249
  22969813.938 6    -20552.547 6    -12613.21547  22969810.96547
  22124943.500 6     28207.219 6     16799.63749  22124943.04749
 20  5 16  3 12 55.0000000  0  8G01G04G07G08G09G11G16G27             0.000126549
  22570155.078 5   -193080.566 5    -99040.49249  22570157.74249
  23391500.117 3     20639.691 3     10629.90646  23391499.40246
  22532252.727 6   -216374.707 6   -129999.71949  22532249.87149
  20673867.297 7    -35850.152 7    -21873.03149  20673867.44549
  23263015.281 6    -19449.570 6    -12658.38749  23263014.50449
  20619042.797 6   -112797.762 6    -77057.89549  20619039.57449
  22969711.211 6    -21091.602 6    -13033.25047  22969709.02347
  22125058.461 6     28810.359 6     17269.62149  22125057.40249
 20  5 16  3 12 56.0000000  0  8G01G04G07G08G09G11G16G27             0.000125250
  22569100.398 5   -198622.910 5   -103359.19949  22569103.29749
  23391606.680 4     21202.027 4     11068.06346  23391606.49646
  22531300.578 6   -221376.531 6   -133897.24649  22531297.74249
  20673701.320 7    -36721.938 7    -22552.34449  20673701.32449
  23262915.680 6    -19971.008 6    -13064.69949  23262915.12149
  20618361.602 7   -116376.918 7    -79846.84449  20618358.70349
  22969608.078 6    -21631.914 6    -13454.27047  22969605.89147
  22125173.086 6     29412.277 6     17738.64149  22125172.27749
 20  5 16  3 12 57.0000000  0  8G01G04G07G08G09G11G16G27             0.000123945
  22568045.594 5   -204166.164 5   -107678.61749  22568048.02349
  23391713.906 4     21763.387 4     11505.47746  23391713.71146
  22530348.984 6   -226379.168 6   -137795.41049  22530346.08649
  20673535.438 7    -37594.500 7    -23232.26649  20673535.13749
  23262816.805 6    -20493.203 6    -13471.60249  23262816.27049
  20617680.406 7   -119956.641 7    -82636.23849  20617677.65249
  22969505.352 6    -22173.207 6    -13876.05947  22969503.00447
  22125287.633 6     30013.242 6     18206.92649  22125286.52349
 20  5 16  3 12 58.0000000  0  8G01G04G07G08G09G11G16G27             0.000122643
  22566990.898 5   -209710.121 5   -111998.58649  22566992.79349
  23391821.094 4     22323.816 4     11942.16846  23391820.17646
  22529396.781 6   -231382.504 6   -141694.10949  22529393.85949
  20673369.234 7    -38467.695 7    -23912.67649  20673368.81349
  23262717.047 6    -21016.055 6    -13879.02049  23262716.67249
  20616999.148 7   -123536.797 7    -85425.96949  20616996.49649
  22969401.633 6    -22715.402 6    -14298.54747  22969399.44147
  22125401.781 6     30613.316 6     18674.51249  22125400.62149
 20  5 16  3 12 59.0000000  0  8G01G04G07G08G09G11G16G27             0.000121336
  22565935.836 5   -215254.906 5   -116319.19549  22565938.00849
  23391927.656 4     22883.254 4     12378.09446  23391926.85946
  22528444.211 6   -236386.617 6   -145593.42249  22528441.41449
  20673203.031 7    -39341.664 7    -24593.69149  20673202.37949
  23262617.336 6    -21539.613 6    -14286.98849  23262617.12149
  20616317.734 7   -127117.480 7    -88216.11749  20616314.75849
  22969298.695 6    -23258.578 6    -14721.80547  22969296.16847
  22125515.664 6     31212.445 6     19141.36749  22125514.68449
 20  5 16  3 13  0.0000000  0  8G01G04G07G08G09G11G16G27             0.000120033
  22564880.344 5   -220800.457 5   -120640.40649  22564882.62149
  23392033.477 4     23441.828 4     12813.35546  23392032.84846
  22527492.125 6   -241391.422 6   -149493.27049  22527489.29349
  20673036.133 7    -40216.289 7    -25275.21949  20673036.30549
  23262517.711 6    -22063.793 6    -14695.44149  23262517.35949
  20615636.047 6   -130698.609 6    -91006.60549  20615633.00049
  22969195.063 6    -23802.660 6    -15145.76247  22969193.10947
  22125629.680 6     31810.719 6     19607.55149  22125629.00449
 20  5 16  3 13  1.0000000  0  8G01G04G07G08G09G11G16G27             0.000118725
  22563825.164 5   -226346.738 5   -124962.18049  22563827.45349
  23392139.438 3     23999.480 3     13247.89146  23392139.27746
  22526539.656 6   -246396.891 6   -153393.62949  22526536.98849
  20672869.813 7    -41091.539 7    -25957.23049  20672869.78149
  23262417.539 6    -22588.625 6    -15104.40649  23262417.36749
  20614954.445 7   -134280.152 7    -93797.41449  20614951.37949
  22969091.398 6    -24347.617 6    -15570.40247  22969089.23847
  22125742.836 6     32408.168 6     20073.09449  22125742.32849
 20  5 16  3 13  2.0000000  0  8G01G04G07G08G09G11G16G27             0.000117420
  22562769.422 5   -231893.711 5   -129284.48849  22562771.66449
  23392246.234 3     24556.281 3     13681.78146  23392245.39146
  22525586.516 6   -251403.023 6   -157294.51649  22525584.00049
  20672703.063 7    -41967.418 7    -26639.73449  20672702.48049
  23262317.914 6    -23114.059 6    -15513.83649  23262317.71949
  20614272.867 7   -137862.109 7    -96588.55549  20614270.16049
  22968987.633 6    -24893.453 6    -15995.73447  22968985.35947
  22125856.367 6     33004.746 6     20537.96149  22125855.78149
 20  5 16  3 13  3.0000000  0  8G01G04G07G08G09G11G16G27             0.000116112
  22561713.844 5   -237441.316 5   -133607.29349  22561716.02049
  23392350.922 4     25112.336 4     14115.07446  23392351.00446
  22524633.883 6   -256409.727 6   -161195.84049  22524631.13349
  20672536.383 7    -42843.793 7    -27322.62949  20672535.89849
  23262217.484 6    -23639.996 6    -15923.66449  23262217.29349
  20613591.094 7   -141444.371 7    -99379.92249  20613588.33249
  22968883.750 6    -25440.020 6    -16421.62147  22968881.22747
  22125969.773 6     33600.637 6     21002.28949  22125969.31649
 20  5 16  3 13  4.0000000  0  8G01G04G07G08G09G11G16G27             0.000114807
  22560658.063 5   -242989.457 5   -137930.51249  22560660.31649
  23392456.406 3     25667.656 3     14547.78946  23392456.59846
  22523680.961 6   -261416.922 6   -165097.55149  22523678.50849
  20672369.352 7    -43720.633 7    -28005.87949  20672369.19549
  23262117.469 6    -24166.363 6    -16333.81649  23262117.45749
  20612909.484 7   -145026.867 7   -102171.47749  20612906.79749
  22968779.430 6    -25987.305 6    -16848.07447  22968776.94547
  22126083.141 6     34195.820 6     21466.07049  22126082.44949
 20  5 16  3 13  5.0000000  0  8G01G04G07G08G09G11G16G27             0.000113497
  22559602.266 5   -248538.078 5   -142254.11349  22559603.84449
  23392562.023 3     26222.406 3     14980.04346  23392562.16846
  22522728.195 6   -266424.531 6   -168999.58249  22522725.57049
  20672202.828 7    -44597.871 7    -28689.44549  20672202.22349
  23262017.422 6    -24693.094 6    -16744.25849  23262016.92249
  20612227.609 7   -148609.531 7   -104963.16849  20612224.85249
  22968675.586 6    -26535.199 6    -17275.01247  22968672.49247
  22126196.375 6     34790.434 6     21929.40649  22126195.93049
 20  5 16  3 13  6.0000000  0  8G01G04G07G08G09G11G16G27             0.000112190
  22558546.125 5   -254087.289 5   -146578.17249  22558548.29349
  23392667.578 3     26776.371 3     15411.68046  23392667.82846
  22521775.453 6   -271432.691 6   -172902.04749  22521772.53949
  20672035.805 7    -45475.637 7    -29373.41849  20672035.28949
  23261916.500 6    -25220.313 6    -17155.08249  23261916.82849
  20611545.781 7   -152192.520 7   -107755.10249  20611543.39149
  22968570.914 6    -27083.879 6    -17702.55947  22968568.41447
  22126309.477 6     35384.316 6     22392.17649  22126308.77749
 20  5 16  3 13  7.0000000  0  8G01G04G07G08G09G11G16G27             0.000110880
  22557490.250 5   -259637.063 5   -150902.67649  22557492.32049
  23392772.781 3     27329.637 3     15842.80546  23392773.13346
  22520822.109 6   -276441.328 6   -176804.87949  22520819.47349
  20671868.594 7    -46353.820 7    -30057.71949  20671868.39549
  23261816.422 6    -25748.000 6    -17566.25849  23261816.31349
  20610863.891 6   -155775.727 6   -110547.21549  20610861.70749
  22968466.258 6    -27633.215 6    -18130.60947  22968464.05947
  22126422.047 6     35977.566 6     22854.44149  22126421.46549
 20  5 16  3 13  8.0000000  0  8G01G04G07G08G09G11G16G27             0.000109573
  22556433.219 5   -265187.398 5   -155227.60949  22556436.10249
  23392878.070 3     27882.156 3     16273.32446  23392878.12946
  22519869.273 6   -281450.496 6   -180708.12549  22519866.82049
  20671701.297 7    -47232.539 7    -30742.43049  20671701.46149
  23261715.617 6    -26276.133 6    -17977.79349  23261715.90249
  20610182.063 6   -159359.199 6   -113339.53149  20610179.21149
  22968361.805 6    -28183.301 6    -18559.24647  22968359.40247
  22126535.078 6     36570.102 6     23316.15249  22126534.32449
 20  5 16  3 13  9.0000000  0  8G01G04G07G08G09G11G16G27             0.000108261
  22555377.484 5   -270738.211 5   -159552.91449  22555379.64849
  23392983.039 3     28434.070 3     16703.39546  23392983.14146
  22518915.820 6   -286460.117 6   -184611.73049  22518912.97749
  20671534.211 7    -48111.680 7    -31427.47349  20671533.91849
  23261615.500 6    -26804.672 6    -18389.63749  23261615.69549
  20609499.914 6   -162942.887 6   -116132.01249  20609497.32449
  22968257.109 6    -28734.055 6    -18988.40647  22968254.31647
  22126647.289 6     37161.977 6     23777.35549  22126646.66849
 20  5 16  3 13 10.0000000  0  8G01G04G07G08G09G11G16G27             0.000106953
  22554320.727 5   -276289.465 5   -163878.56349  22554323.15649
  23393088.195 3     28985.359 3     17132.97346  23393088.55146
  22517962.375 6   -291470.094 6   -188515.60249  22517959.60249
  20671366.836 7    -48991.152 7    -32112.78149  20671366.37949
  23261514.375 5    -27333.492 5    -18801.70749  23261514.85949
  20608818.344 6   -166526.691 6   -118924.58649  20608815.42249
  22968151.750 6    -29285.375 6    -19418.01247  22968149.33247
  22126760.492 6     37753.344 6     24238.15649  22126759.23849
 20  5 16  3 13 11.0000000  0  8G01G04G07G08G09G11G16G27             0.000105640
  22553264.625 5   -281840.941 5   -168204.38349  22553267.23849
  23393192.414 3     29536.344 3     17562.30546  23393192.67246
  22517008.977 6   -296480.219 6   -192419.59049  22517006.32049
  20671199.438 7    -49870.711 7    -32798.15249  20671198.87549
  23261413.789 6    -27862.422 6    -19213.86349  23261414.23849
  20608136.203 7   -170110.348 7   -121717.04349  20608133.62949
  22968046.602 6    -29836.992 6    -19847.84447  22968044.62147
  22126872.820 6     38344.422 6     24698.73449  22126872.02349
 20  5 16  3 13 12.0000000  0  8G01G04G07G08G09G11G16G27             0.000104332
  22552208.555 5   -287392.805 5   -172530.50849  22552210.03949
  23393297.313 3     30086.664 3     17991.12946  23393297.15246
  22516054.953 6   -301490.738 6   -196323.89849  22516052.82449
  20671031.805 7    -50750.664 7    -33483.83249  20671031.38349
  23261313.383 5    -28391.730 5    -19626.31349  23261313.29749
  20607454.688 7   -173694.219 7   -124509.67249  20607451.77049
  22967941.930 6    -30389.262 6    -20278.18047  22967939.32047
  22126984.781 6     38934.867 6     25158.82449  22126984.21149
 20  5 16  3 13 13.0000000  0  8G01G04G07G08G09G11G16G27             0.000103020
  22551151.477 5   -292945.230 5   -176857.07049  22551153.77049
  23393402.250 3     30636.383 3     18419.48046  23393401.89146
  22515102.125 6   -306501.730 6   -200228.55549  22515099.15249
  20670864.109 7    -51631.020 7    -34169.82449  20670863.97349
  23261211.961 5    -28921.406 5    -20039.05149  23261212.64849
  20606772.109 6   -177278.258 6   -127302.42649  20606769.72749
  22967836.938 6    -30942.195 6    -20709.03547  22967834.43847
  22127097.680 6     39524.730 6     25618.45749  22127096.39549
 20  5 16  3 13 14.0000000  0  8G01G04G07G08G09G11G16G27             0.000101709
  22550095.000 5   -298498.004 5   -181183.90649  22550097.19949
  23393506.383 3     31185.504 3     18847.35546  23393506.68046
  22514148.086 6   -311513.016 6   -204133.45349  22514145.33649
  20670696.656 7    -52511.656 7    -34856.03149  20670696.26649
  23261111.438 5    -29451.375 5    -20452.01649  23261111.73449
  20606090.320 6   -180862.375 6   -130095.25049  20606087.63749
  22967730.883 6    -31495.637 6    -21140.29347  22967728.97747
  22127209.555 6     40114.051 6     26077.66849  22127208.79349
 20  5 16  3 13 15.0000000  0  8G01G04G07G08G09G11G16G27             0.000100395
  22549038.227 5   -304051.164 5   -185511.03949  22549040.34049
  23393610.672 3     31734.148 3     19274.87146  23393611.17646
  22513194.469 6   -316524.629 6   -208038.60949  22513192.17249
  20670529.117 7    -53392.555 7    -35542.44549  20670528.85949
  23261010.875 5    -29981.574 5    -20865.15649  23261011.37549
  20605408.422 6   -184446.555 6   -132888.11349  20605405.22349
  22967625.953 6    -32049.586 6    -21571.93447  22967623.52747
  22127321.414 6     40702.938 6     26536.54749  22127320.68049
 20  5 16  3 13 16.0000000  0  8G01G04G07G08G09G11G16G27             0.000099085
  22547981.633 5   -309604.668 5   -189838.44549  22547983.10249
  23393715.656 3     32282.230 3     19701.93046  23393715.28946
  22512240.695 6   -321536.590 6   -211944.03549  22512237.82849
  20670361.547 7    -54273.746 7    -36229.09449  20670360.78549
  23260909.273 5    -30512.086 5    -21278.53949  23260909.93049
  20604725.906 6   -188030.805 6   -135681.03549  20604723.34449
  22967520.266 6    -32604.113 6    -22004.04347  22967517.88347
  22127433.352 6     41291.281 6     26994.99249  22127432.53949
 20  5 16  3 13 17.0000000  0  8G01G04G07G08G09G11G16G27             0.000097771
  22546924.563 5   -315158.574 5   -194166.15649  22546926.01249
  23393820.016 3     32829.805 3     20128.60946  23393819.35946
  22511286.875 6   -326548.840 6   -215849.68849  22511284.53949
  20670193.867 7    -55155.211 7    -36915.94949  20670193.39849
  23260809.063 5    -31042.813 5    -21692.08649  23260808.91449
  20604043.852 6   -191615.141 6   -138474.02049  20604040.98849
  22967415.211 6    -33159.176 6    -22436.56647  22967412.57047
  22127545.430 6     41879.137 6     27453.07049  22127544.61749
 20  5 16  3 13 18.0000000  0  8G01G04G07G08G09G11G16G27             0.000096458
  22545867.578 5   -320712.789 5   -198494.10949  22545869.56649
  23393923.672 3     33376.895 3     20554.90646  23393923.51246
  22510333.258 6   -331561.367 6   -219755.55949  22510330.54749
  20670026.328 7    -56036.883 7    -37602.96149  20670026.09449
  23260708.117 5    -31573.836 5    -22105.87549  23260708.43449
  20603362.109 6   -195199.477 6   -141267.01249  20603359.24649
  22967309.195 6    -33714.691 6    -22869.42247  22967306.50047
  22127657.461 6     42466.574 6     27910.79749  22127656.57449
 20  5 16  3 13 19.0000000  0  8G01G04G07G08G09G11G16G27             0.000095142
  22544810.578 5   -326267.453 5   -202822.42649  22544812.43849
  23394027.836 3     33923.352 3     20980.70746  23394027.55946
  22509379.336 6   -336574.273 6   -223661.71149  22509376.52349
  20669858.172 7    -56918.914 7    -38290.26649  20669858.06349
  23260606.797 5    -32105.113 5    -22519.85949  23260607.40249
  20602679.711 6   -198783.949 6   -144060.10949  20602677.09449
  22967203.383 6    -34270.785 6    -23302.73047  22967200.85947
  22127769.023 6     43053.457 6     28368.08649  22127768.13349
 20  5 16  3 13 20.0000000  0  8G01G04G07G08G09G11G16G27             0.000093830
  22543753.828 5   -331822.543 5   -207151.06349  22543755.70349
  23394131.148 3     34469.273 3     21406.08646  23394131.31646
  22508425.383 6   -341587.559 6   -227568.17249  22508422.21149
  20669690.289 7    -57801.313 7    -38977.85249  20669689.89149
  23260505.648 5    -32636.770 5    -22934.13749  23260506.38349
  20601997.484 6   -202368.563 6   -146853.32049  20601994.94549
  22967097.227 5    -34827.477 5    -23736.52047  22967095.18447
  22127880.234 6     43639.773 6     28824.93849  22127879.74649
 20  5 16  3 13 21.0000000  0  8G01G04G07G08G09G11G16G27             0.000092514
  22542696.180 5   -337378.043 5   -211480.03149  22542697.85549
  23394236.109 2     35014.676 2     21831.07446  23394234.91446
  22507471.203 6   -346601.156 6   -231474.85949  22507467.92649
  20669522.117 7    -58684.066 7    -39665.71949  20669521.92249
  23260404.070 5    -33168.680 5    -23348.62949  23260405.11349
  20601315.453 6   -205953.254 6   -149646.58249  20601312.64849
  22966991.688 5    -35384.711 5    -24170.72346  22966988.90646
  22127991.852 6     44225.465 6     29281.30949  22127991.14549
 20  5 16  3 13 22.0000000  0  8G01G04G07G08G09G11G16G27             0.000091202
  22541639.570 5   -342933.777 5   -215809.16849  22541640.96949
  23394339.789 3     35559.605 3     22255.70346  23394338.89546
  22506517.000 6   -351614.969 6   -235381.73049  22506514.00449
  20669354.266 7    -59566.934 7    -40353.66449  20669353.95349
  23260302.008 5    -33700.762 5    -23763.24649  23260303.34049
  20600633.352 6   -209537.855 6   -152439.77048  20600630.48448
  22966885.094 5    -35942.328 5    -24605.19946  22966883.15646
  22128103.063 6     44810.836 6     29737.44549  22128102.67649
 20  5 16  3 13 23.0000000  0  8G01G04G07G08G09G11G16G27             0.000089886
  22540582.125 5   -348489.782 5   -220138.51149  22540583.64549
  23394442.930 3     36104.098 3     22679.98446  23394442.21146
  22505562.820 6   -356629.027 6   -239288.80149  22505559.94549
  20669186.141 7    -60450.016 7    -41041.77049  20669185.86749
  23260201.336 5    -34233.023 5    -24177.98849  23260201.93049
  20599950.859 6   -213122.504 6   -155233.00048  20599948.59048
  22966779.203 5    -36500.410 5    -25040.03146  22966776.78546
  22128214.203 6     45395.840 6     30193.30549  22128214.05949
 20  5 16  3 13 24.0000000  0  8G01G04G07G08G09G11G16G27             0.000088572
  22539524.523 5   -354046.285 5   -224468.24649  22539526.54749
  23394546.250 3     36647.961 3     23103.76646  23394545.87146
  22504608.719 6   -361643.500 6   -243196.18449  22504605.71949
  20669017.672 7    -61333.500 7    -41730.19549  20669017.80549
  23260100.445 5    -34765.645 5    -24593.01649  23260100.64149
  20599268.797 6   -216707.301 6   -158026.34448  20599266.42248
  22966673.406 5    -37059.090 5    -25475.37546  22966670.37146
  22128325.594 6     45980.258 6     30648.70749  22128325.32849
 20  5 16  3 13 25.0000000  0  8G01G04G07G08G09G11G16G27             0.000087254
  22538466.969 5   -359603.172 5   -228798.28949  22538468.75449
  23394649.430 3     37191.320 3     23527.15246  23394649.32046
  22503654.508 6   -366658.289 6   -247103.81649  22503651.57849
  20668849.266 7    -62217.234 7    -42418.82449  20668849.14549
  23259998.875 5    -35298.547 5    -25008.25849  23259999.47349
  20598586.961 6   -220292.172 6   -160819.75448  20598584.32048
  22966567.609 5    -37618.305 5    -25911.12546  22966563.96946
  22128436.797 6     46564.145 6     31103.69149  22128436.14549
 20  5 16  3 13 26.0000000  0  8G01G04G07G08G09G11G16G27             0.000085939
  22537409.891 5   -365160.172 5   -233128.41049  22537411.20749
  23394753.617 3     37734.352 3     23950.28946  23394752.54346
  22502699.688 6   -371673.148 6   -251011.50049  22502696.62949
  20668681.695 7    -63101.105 7    -43107.56649  20668681.30149
  23259897.836 5    -35831.531 5    -25423.57449  23259897.59049
  20597904.414 6   -223876.922 6   -163613.06648  20597902.07048
  22966460.055 5    -38177.805 5    -26347.09846  22966457.52746
  22128547.750 6     47147.828 6     31558.51249  22128547.40249
 20  5 16  3 13 27.0000000  0  8G01G04G07G08G09G11G16G27             0.000084621
  22536352.359 5   -370717.469 5   -237458.78149  22536353.42649
  23394856.813 3     38276.938 3     24373.10246  23394855.59446
  22501745.438 6   -376688.270 6   -254919.37149  22501742.70349
  20668513.242 7    -63985.148 7    -43796.44149  20668512.99649
  23259795.703 5    -36364.645 5    -25838.99249  23259796.03949
  20597222.688 6   -227461.613 6   -166406.32848  20597219.79348
  22966353.609 5    -38737.777 5    -26783.50046  22966351.09046
  22128658.602 6     47731.063 6     32012.95749  22128658.60949
 20  5 16  3 13 28.0000000  0  8G01G04G07G08G09G11G16G27             0.000083305
  22535295.289 6   -376275.031 6   -241789.35249  22535296.21949
  23394959.422 3     38819.035 3     24795.51646  23394958.79346
  22500791.406 6   -381703.648 6   -258827.46149  22500788.13749
  20668344.867 6    -64869.344 6    -44485.42249  20668344.54749
  23259695.102 5    -36897.934 5    -26254.53949  23259694.98049
  20596540.305 6   -231046.254 6   -169199.55948  20596537.97348
  22966246.586 5    -39298.156 5    -27220.18046  22966244.30146
  22128769.898 6     48313.836 6     32467.06649  22128769.32049
 20  5 16  3 13 29.0000000  0  8G01G04G07G08G09G11G16G27             0.000081987
  22534237.047 6   -381832.758 6   -246120.05149  22534238.59049
  23395061.711 4     39360.914 4     25217.77046  23395061.62546
  22499837.117 6   -386719.086 6   -262735.60249  22499833.84449
  20668176.305 6    -65753.652 6    -45174.47349  20668176.59849
  23259593.359 5    -37431.297 5    -26670.14849  23259593.42649
  20595858.086 6   -234630.777 6   -171992.70348  20595855.78548
  22966140.523 5    -39858.867 5    -27657.05946  22966137.65246
  22128880.203 6     48896.359 6     32921.00049  22128880.36749
 20  5 16  3 13 30.0000000  0  8G01G04G07G08G09G11G16G27             0.000080671
  22533180.141 6   -387390.859 6   -250451.04349  22533180.83649
  23395164.813 2     39902.152 2     25639.51646  23395165.38746
  22498882.680 6   -391734.863 6   -266644.00849  22498879.46549
  20668007.750 6    -66638.285 6    -45863.78949  20668007.94949
  23259491.273 5    -37964.914 5    -27085.95349  23259491.71949
  20595176.164 6   -238215.387 6   -174785.91048  20595173.62948
  22966033.180 5    -40420.129 5    -28094.38746  22966031.21546
  22128991.133 6     49478.402 6     33374.55549  22128991.35249
 20  5 16  3 13 31.0000000  0  8G01G04G07G08G09G11G16G27             0.000079351
  22532122.398 6   -392949.285 6   -254782.27049  22532123.12149
  23395268.008 3     40442.977 3     26060.94146  23395268.46946
  22497928.125 6   -396750.922 6   -270552.62549  22497925.35249
  20667839.773 6    -67523.176 6    -46553.31349  20667839.66849
  23259389.563 5    -38498.805 5    -27501.96949  23259389.80149
  20594494.148 6   -241800.027 6   -177579.13748  20594491.25448
  22965926.375 5    -40981.890 5    -28532.10746  22965924.00846
  22129101.711 6     50059.961 6     33827.72349  22129101.36349
 20  5 16  3 13 32.0000000  0  8G01G04G07G08G09G11G16G27             0.000078035
  22531064.711 6   -398508.020 6   -259113.75449  22531065.59449
  23395371.180 3     40983.352 3     26482.01646  23395370.98846
  22496973.234 6   -401767.207 6   -274461.41849  22496970.12949
  20667671.484 6    -68408.234 6    -47242.96949  20667671.24249
  23259288.633 5    -39032.844 5    -27918.11349  23259288.47349
  20593811.781 6   -245384.660 6   -180372.35248  20593809.52748
  22965819.422 5    -41543.996 5    -28970.11346  22965817.31646
  22129212.297 6     50641.141 6     34280.59049  22129211.83249
 20  5 16  3 13 33.0000000  0  8G01G04G07G08G09G11G16G27             0.000076715
  22530006.383 6   -404066.969 6   -263445.40249  22530007.19949
  23395473.820 3     41523.250 3     26902.72346  23395473.45746
  22496019.195 6   -406783.684 6   -278370.35249  22496015.64549
  20667503.094 6    -69293.418 6    -47932.73049  20667502.72349
  23259187.078 5    -39567.027 5    -28334.36749  23259186.77749
  20593129.445 6   -248969.203 6   -183165.50048  20593127.08648
  22965712.352 5    -42106.563 5    -29408.50446  22965710.07446
  22129323.094 5     51221.938 5     34733.17648  22129322.78148
 20  5 16  3 13 34.0000000  0  8G01G04G07G08G09G11G16G27             0.000075397
  22528948.828 6   -409626.070 6   -267777.18449  22528949.34449
  23395576.789 3     42062.988 3     27323.30546  23395576.65646
  22495064.555 6   -411800.223 6   -282279.34049  22495060.79749
  20667334.750 6    -70178.695 6    -48622.55949  20667334.43849
  23259084.758 5    -40101.289 5    -28750.68849  23259085.13349
  20592448.297 6   -252553.617 6   -185958.56348  20592445.00048
  22965606.281 5    -42669.359 5    -29847.02746  22965603.29346
  22129433.180 6     51802.504 6     35185.59048  22129433.16448
 20  5 16  3 13 35.0000000  0  8G01G04G07G08G09G11G16G27             0.000074078
  22527891.305 6   -415185.508 6   -272109.22349  22527891.62149
  23395679.602 1     42602.203 1     27743.44946  23395678.98846
  22494109.375 6   -416817.031 6   -286188.53949  22494106.65649
  20667166.266 7    -71064.191 7    -49312.57449  20667165.88749
  23258983.195 5    -40635.734 5    -29167.14549  23258983.61749
  20591766.094 6   -256138.027 6   -188751.60248  20591762.73448
  22965497.586 5    -43232.730 5    -30286.03146  22965495.87946
  22129544.469 6     52382.645 6     35637.60249  22129543.33649
 20  5 16  3 13 36.0000000  0  8G01G04G07G08G09G11G16G27             0.000072760
  22526833.227 6   -420745.293 6   -276441.50849  22526833.85249
  23395782.156 2     43140.793 2     28163.10546  23395781.62546
  22493154.938 6   -421834.188 6   -290098.00849  22493152.35949
  20666997.961 7    -71949.965 7    -50002.79749  20666997.60549
  23258881.164 5    -41170.445 5    -29583.81349  23258882.07049
  20591083.719 6   -259722.520 6   -191544.69548  20591081.04748
  22965390.000 5    -43796.609 5    -30725.45746  22965388.41846
  22129654.219 6     52962.258 6     36089.20349  22129654.18049
 20  5 16  3 13 37.0000000  0  8G01G04G07G08G09G11G16G27             0.000071438
  22525774.711 6   -426305.305 6   -280773.97749  22525775.77349
  23395884.773 2     43679.027 2     28582.48046  23395883.98846
  22492200.250 6   -426851.457 6   -294007.57449  22492197.25849
  20666829.195 7    -72835.863 7    -50693.11749  20666828.98049
  23258779.578 5    -41705.258 5    -30000.54349  23258779.96949
  20590401.539 6   -263306.883 6   -194337.70748  20590398.66048
  22965282.883 5    -44360.805 5    -31165.10546  22965281.32446
  22129764.539 6     53541.508 6     36540.54749  22129764.41049
 20  5 16  3 13 38.0000000  0  8G01G04G07G08G09G11G16G27             0.000070120
  22524716.125 6   -431865.434 6   -285106.53149  22524717.28549
  23395986.461 3     44217.082 3     29001.78946  23395986.07846
  22491245.453 6   -431868.859 6   -297917.23849  22491242.84449
  20666660.469 7    -73721.863 7    -51383.50449  20666660.19949
  23258677.414 4    -42240.141 4    -30417.33648  23258677.98048
  20589719.609 6   -266891.121 6   -197130.62548  20589716.25448
  22965176.063 5    -44925.352 5    -31605.03146  22965173.76646
  22129874.711 6     54120.516 6     36991.71549  22129874.52349
 20  5 16  3 13 39.0000000  0  8G01G04G07G08G09G11G16G27             0.000068798
  22523658.781 6   -437425.918 6   -289439.38749  22523659.42249
  23396088.836 3     44754.523 3     29420.58246  23396088.42246
  22490290.445 6   -436886.531 6   -301827.11349  22490287.86749
  20666491.852 7    -74608.105 7    -52074.07849  20666491.50049
  23258575.523 4    -42775.246 4    -30834.29348  23258576.21948
  20589037.578 6   -270475.387 6   -199923.55948  20589034.40248
  22965068.828 5    -45490.336 5    -32045.25446  22965066.25846
  22129984.727 6     54699.023 6     37442.51249  22129984.46549
 20  5 16  3 13 40.0000000  0  8G01G04G07G08G09G11G16G27             0.000067478
  22522600.414 6   -442986.730 6   -293772.48449  22522601.18449
  23396191.898 3     45291.469 3     29838.96146  23396190.58246
  22489335.602 6   -441904.473 6   -305737.20349  22489332.79349
  20666323.133 7    -75494.586 7    -52764.83649  20666322.86349
  23258473.086 4    -43310.602 4    -31251.45748  23258474.60948
  20588355.344 6   -274059.680 6   -202716.51248  20588352.69948
  22964960.953 4    -46055.793 4    -32485.86746  22964958.54346
  22130094.938 6     55277.129 6     37892.99649  22130094.48449
 20  5 16  3 13 41.0000000  0  8G01G04G07G08G09G11G16G27             0.000066156
  22521542.305 6   -448547.863 6   -298105.82849  22521543.14149
  23396293.273 3     45827.969 3     30257.01246  23396292.28546
  22488380.773 6   -446922.715 6   -309647.52049  22488377.52349
  20666154.539 6    -76381.316 6    -53455.78949  20666154.27349
  23258371.781 5    -43846.215 5    -31668.81348  23258372.52048
  20587673.469 6   -277644.004 6   -205509.50048  20587670.51248
  22964853.461 4    -46621.789 4    -32926.88346  22964850.37946
  22130204.883 6     55854.688 6     38343.05149  22130204.90649
 20  5 16  3 13 42.0000000  0  8G01G04G07G08G09G11G16G27             0.000064837
  22520483.797 6   -454109.309 6   -302439.41049  22520484.28149
  23396395.242 3     46363.953 3     30674.64846  23396394.57446
  22487426.102 6   -451941.223 6   -313558.05149  22487422.74649
  20665985.227 6    -77268.305 6    -54146.93849  20665985.60249
  23258269.828 5    -44382.016 5    -32086.31649  23258270.32449
  20586990.984 6   -281228.363 6   -208302.50048  20586988.43048
  22964745.516 5    -47188.250 5    -33368.27346  22964742.81346
  22130314.563 6     56431.828 6     38792.78549  22130314.64549
 20  5 16  3 13 43.0000000  0  8G01G04G07G08G09G11G16G27             0.000063513
  22519425.266 6   -459670.941 6   -306773.14549  22519425.85249
  23396497.102 3     46899.609 3     31092.04346  23396496.53146
  22486470.719 6   -456959.824 6   -317468.65249  22486467.59049
  20665816.898 6    -78155.328 6    -54838.11349  20665816.69949
  23258167.906 5    -44917.848 5    -32503.83649  23258168.23449
  20586308.797 6   -284812.563 6   -211095.38748  20586306.53548
  22964637.320 4    -47755.020 4    -33809.91846  22964634.95746
  22130424.398 6     57008.711 6     39242.31349  22130423.96149
 20  5 16  3 13 44.0000000  0  8G01G04G07G08G09G11G16G27             0.000062193
  22518367.094 6   -465232.715 6   -311107.00049  22518367.76649
  23396599.484 4     47434.945 4     31509.18446  23396598.38346
  22485515.750 6   -461978.559 6   -321379.35549  22485512.31649
  20665648.055 6    -79042.516 6    -55529.42649  20665648.14149
  23258065.961 5    -45453.770 5    -32921.43849  23258065.78149
  20585626.898 6   -288396.621 6   -213888.15648  20585623.80148
  22964530.492 5    -48322.176 5    -34251.85246  22964527.37146
  22130533.836 6     57585.289 6     39691.60249  22130534.14849
 20  5 16  3 13 45.0000000  0  8G01G04G07G08G09G11G16G27             0.000060869
  22517307.844 6   -470794.695 6   -315441.02349  22517309.82849
  23396700.641 4     47969.926 4     31926.07446  23396700.21546
  22484560.492 6   -466997.434 6   -325290.15649  22484557.54349
  20665479.063 6    -79929.781 6    -56220.80549  20665479.15649
  23257963.992 5    -45989.742 5    -33339.08649  23257964.55149
  20584945.039 6   -291980.574 6   -216680.85248  20584942.35948
  22964422.336 5    -48889.586 5    -34693.98846  22964419.34846
  22130643.242 6     58161.559 6     40140.66049  22130643.31649
 20  5 16  3 13 46.0000000  0  8G01G04G07G08G09G11G16G27             0.000059549
  22516249.195 6   -476356.980 6   -319775.27749  22516251.21549
  23396802.789 4     48504.477 4     32342.62546  23396801.87146
  22483605.406 6   -472016.527 6   -329201.12949  22483602.43049
  20665310.039 6    -80817.246 6    -56912.33249  20665310.01649
  23257862.188 5    -46525.969 5    -33756.94949  23257862.56349
  20584262.578 6   -295564.523 6   -219473.54348  20584260.10548
  22964313.547 5    -49457.473 5    -35136.53546  22964311.02046
  22130752.578 6     58737.367 6     40589.34849  22130753.21149
 20  5 16  3 13 47.0000000  0  8G01G04G07G08G09G11G16G27             0.000058224
  22515191.281 6   -481919.504 6   -324109.70749  22515192.69149
  23396904.531 4     49038.586 4     32758.82446  23396903.37146
  22482649.969 6   -477035.836 6   -333112.27349  22482647.16449
  20665141.117 6    -81704.910 6    -57604.02049  20665141.14549
  23257759.750 5    -47062.375 5    -34174.93849  23257760.60949
  20583580.891 6   -299148.418 6   -222266.18448  20583578.29348
  22964205.906 5    -50025.828 5    -35579.43046  22964202.79746
  22130862.625 6     59312.813 6     41037.74649  22130862.63349
 20  5 16  3 13 48.0000000  0  8G01G04G07G08G09G11G16G27             0.000056902
  22514132.539 6   -487482.238 6   -328444.31349  22514133.97749
  23397005.906 4     49572.324 4     33174.72746  23397005.06646
  22481695.227 6   -482055.285 6   -337023.53949  22481692.36349
  20664972.328 6    -82592.672 6    -58295.78549  20664972.09849
  23257657.844 5    -47598.887 5    -34592.98849  23257658.21949
  20582899.133 6   -302732.215 6   -225058.76248  20582896.18848
  22964098.063 5    -50594.469 5    -36022.50846  22964094.73046
  22130971.930 6     59887.949 6     41485.89549  22130972.15249
 20  5 16  3 13 49.0000000  0  8G01G04G07G08G09G11G16G27             0.000055578
  22513073.844 6   -493045.301 6   -332779.16449  22513075.43849
  23397107.391 4     50105.578 4     33590.24246  23397106.12946
  22480739.367 6   -487075.027 6   -340935.03149  22480736.65649
  20664803.563 6    -83480.723 6    -58987.77749  20664803.06649
  23257556.273 5    -48135.609 5    -35011.20749  23257556.09449
  20582217.125 6   -306316.098 6   -227851.38748  20582214.27048
  22963989.359 5    -51163.645 5    -36465.98446  22963986.31346
  22131081.211 6     60462.594 6     41933.65649  22131081.27349
 20  5 16  3 13 50.0000000  0  8G01G04G07G08G09G11G16G27             0.000054255
  22512015.102 6   -498608.684 6   -337114.26649  22512016.77049
  23397208.813 5     50638.359 5     34005.38346  23397207.84446
  22479784.641 6   -492095.027 6   -344846.72349  22479781.47349
  20664634.273 6    -84368.973 6    -59679.92249  20664634.30949
  23257452.891 5    -48672.551 5    -35429.59049  23257453.93049
  20581535.453 6   -309899.945 6   -230644.00048  20581532.39848
  22963881.289 5    -51733.266 5    -36909.84046  22963878.40646
  22131190.680 6     61036.824 6     42381.09849  22131190.39849
 20  5 16  3 13 51.0000000  0  8G01G04G07G08G09G11G16G27             0.000052931
  22510956.305 6   -504172.258 6   -341449.52049  22510957.89149
  23397309.875 4     51170.773 4     34420.22346  23397308.72746
  22478829.305 6   -497115.176 6   -348758.52349  22478826.62149
  20664465.445 7    -85257.355 7    -60372.18849  20664465.32049
  23257351.805 5    -49209.602 5    -35848.09449  23257352.28149
  20580853.602 7   -313483.773 7   -233436.59449  20580850.14849
  22963772.164 5    -52303.258 5    -37354.00046  22963769.66446
  22131300.117 6     61610.801 6     42828.33649  22131299.86349
 20  5 16  3 13 52.0000000  0  8G01G04G07G08G09G11G16G27             0.000051607
  22509897.891 5   -509736.211 5   -345785.07049  22509898.84449
  23397411.828 5     51702.641 5     34834.61346  23397410.50446
  22477873.844 6   -502135.590 6   -352670.50849  22477871.05949
  20664296.383 7    -86146.016 7    -61064.67649  20664296.23049
  23257249.953 5    -49746.930 5    -36266.81349  23257250.02749
  20580171.094 7   -317067.602 7   -236229.18449  20580168.09049
  22963663.469 5    -52873.746 5    -37798.58246  22963661.23446
  22131408.953 6     62184.207 6     43275.12149  22131408.74649
 20  5 16  3 13 53.0000000  0  8G01G04G07G08G09G11G16G27             0.000050280
  22508838.977 5   -515300.367 5   -350120.77349  22508840.31649
  23397513.195 5     52234.148 5     35248.74646  23397511.61746
  22476918.469 6   -507156.180 6   -356582.65249  22476915.82049
  20664127.039 7    -87034.813 7    -61757.25849  20664126.53149
  23257146.813 5    -50284.324 5    -36685.57049  23257147.10249
  20579489.789 6   -320651.316 6   -239021.68449  20579486.35249
  22963555.344 6    -53444.609 6    -38243.43846  22963552.42246
  22131518.109 6     62757.254 6     43721.64149  22131517.73449
 20  5 16  3 13 54.0000000  0  8G01G04G07G08G09G11G16G27             0.000048956
  22507780.625 5   -520864.805 5   -354456.68449  22507781.82849
  23397613.242 4     52765.297 4     35662.64846  23397613.09446
  22475962.844 6   -512176.996 6   -360494.98449  22475960.57449
  20663957.734 7    -87923.789 7    -62449.96549  20663957.55549
  23257045.000 5    -50821.883 5    -37104.43449  23257044.71949
  20578807.563 6   -324234.973 6   -241814.14849  20578804.65249
  22963446.445 5    -54015.875 5    -38688.56346  22963443.61746
  22131627.359 6     63329.867 6     44167.84849  22131626.97349
 20  5 16  3 13 55.0000000  0  8G01G04G07G08G09G11G16G27             0.000047630
  22506721.711 5   -526429.402 5   -358792.71548  22506723.17648
  23397713.750 4     53295.996 4     36076.15246  23397714.13746
  22475007.297 6   -517197.965 6   -364407.43449  22475004.82049
  20663789.258 7    -88812.926 7    -63142.77349  20663788.27749
  23256942.625 5    -51359.563 5    -37523.37949  23256943.09449
  20578125.711 6   -327818.578 6   -244606.56648  20578122.63348
  22963339.031 4    -54587.520 4    -39133.92646  22963334.93446
  22131736.047 6     63902.184 6     44613.84449  22131735.83249
 20  5 16  3 13 56.0000000  0  8G01G04G07G08G09G11G16G27             0.000046307
  22505662.727 5   -531994.290 5   -363128.97948  22505664.05148
  23397814.477 3     53826.316 3     36489.39146  23397814.77046
  22474051.742 6   -522219.164 6   -368320.05149  22474049.45349
  20663619.906 7    -89702.254 7    -63835.72349  20663619.14149
  23256840.234 6    -51897.426 6    -37942.49649  23256840.58249
  20577443.617 7   -331402.145 7   -247398.96548  20577440.81348
  22963230.031 3    -55159.594 3    -39579.74246  22963226.60246
  22131844.633 5     64474.125 5     45059.55949  22131844.63349
 20  5 16  3 13 57.0000000  0  8G01G04G07G08G09G11G16G27             0.000044979
  22504603.242 5   -537559.500 5   -367465.50048  22504605.49648
  23397914.844 3     54356.113 3     36902.21146  23397915.70346
  22473096.516 6   -527240.613 6   -372232.86349  22473093.81349
  20663450.625 7    -90591.816 7    -64528.86749  20663449.83649
  23256737.680 6    -52435.504 6    -38361.78549  23256737.95349
  20576761.438 7   -334985.734 7   -250191.38348  20576758.89548
  22963121.047 4    -55732.141 4                
  22131953.266 6     65045.594 6     45504.87948  22131953.24648
 20  5 16  3 13 58.0000000  0  8G01G04G07G08G09G11G16G27             0.000043653
  22503543.969 4   -543124.941 4   -371802.20748  22503546.15648
  23398016.609 4     54885.503 4     37314.70246  23398016.30946
  22472141.164 6   -532262.215 6   -376145.79749  22472138.43449
  20663281.297 6    -91481.516 6    -65222.12949  20663280.81649
  23256635.117 6    -52973.758 6    -38781.21949  23256635.58649
  20576079.531 7   -338569.250 7   -252983.73048  20576076.96148
  22963011.047 5    -56305.094 5                
  22132062.094 6     65616.695 6     45949.87548  22132061.93048
 20  5 16  3 13 59.0000000  0  8G01G04G07G08G09G11G16G27             0.000042326
  22502484.633 4   -548690.590 4   -376139.07848  22502486.82448
  23398117.203 4     55414.488 4     37726.89146  23398116.69946
  22471185.102 6   -537284.000 6   -380058.87149  22471182.80549
  20663111.836 7    -92371.355 7    -65915.52049  20663111.18849
  23256532.453 6    -53512.082 6    -39200.69949  23256533.23049
  20575398.023 7   -342152.699 7   -255776.03148  20575395.45748
  22962901.477 5    -56878.402 5                
  22132170.844 6     66187.488 6     46394.62148  22132171.05548
 20  5 16  3 14  0.0000000  0  8G01G04G07G08G09G11G16G27             0.000041000
  22501425.586 4   -554256.492 4   -380476.13748  22501427.73448
  23398217.742 3     55943.055 3     38138.76246  23398217.38346
  22470229.461 6   -542306.004 6   -383972.12549  22470227.09449
  20662942.453 7    -93261.371 7    -66609.05949  20662941.88349
  23256430.367 6    -54050.633 6    -39620.35549  23256430.58249
  20574715.891 7   -345736.117 7   -258568.29348  20574713.40248
  22962792.219 5    -57452.156 5                
  22132279.055 6     66757.871 6     46839.05948  22132279.28948
 20  5 16  3 14  1.0000000  0  8G01G04G07G08G09G11G16G27             0.000039671
  22500366.227 6   -559822.840 6   -384813.54748  22500368.75848
  23398318.859 4     56470.961 4     38550.11346  23398317.78146
  22469273.742 6   -547328.410 6   -387885.69549  22469271.48449
  20662772.727 7    -94151.754 7    -67302.87949  20662771.98049
  23256327.672 5    -54589.527 5    -40040.28149  23256327.96549
  20574034.133 7   -349319.742 7   -261360.71948  20574031.30948
  22962682.313 6    -58026.473 6                
  22132388.836 6     67327.785 6     47283.12949  22132387.33649
 20  5 16  3 14  2.0000000  0  8G01G04G07G08G09G11G16G27             0.000038345
  22499306.320 5   -565389.496 5   -389151.23449  22499309.04349
  23398419.266 4     56998.426 4     38961.19146  23398418.61346
  22468318.461 6   -552351.047 6   -391799.44949  22468315.43849
  20662603.250 7    -95042.430 7    -67996.93449  20662603.28549
  23256225.516 5    -55128.641 5    -40460.36749  23256225.56649
  20573352.219 7   -352903.305 7   -264153.10249  20573349.32849
  22962573.063 6    -58601.176 6                
  22132496.430 6     67897.070 6     47726.73849  22132496.45749
 20  5 16  3 14  3.0000000  0  8G01G04G07G08G09G11G16G27             0.000037016
  22498247.906 5   -570956.469 5   -393489.15249  22498249.29749
  23398519.797 4     57525.395 4     39371.85946  23398518.83646
  22467361.953 6   -557373.984 6   -395713.43449  22467359.75049
  20662433.969 7    -95933.273 7    -68691.11349  20662433.40649
  23256122.516 6    -55667.930 6    -40880.60249  23256122.66849
  20572670.102 7   -356486.898 7   -266945.51649  20572667.04349
  22962463.414 6    -59176.484 6    -40116.85857  22962440.22757
  22132604.977 6     68465.996 6     48170.06349  22132604.73049
 20  5 16  3 14  4.0000000  0  8G01G04G07G08G09G11G16G27             0.000035688
  22497188.563 5   -576523.676 5   -397827.24249  22497190.54749
  23398619.297 4     58052.031 4     39782.25046  23398618.98046
  22466406.313 6   -562397.047 6   -399627.52049  22466404.02049
  20662264.438 7    -96824.254 7    -69385.38349  20662263.74649
  23256019.930 6    -56207.395 6    -41300.96149  23256020.25049
  20571988.242 7   -360070.395 7   -269737.84449  20571985.48049
  22962354.461 6    -59752.105 6    -40565.42147  22962336.13347
  22132713.313 6     69034.555 6     48613.10249  22132712.79749
 20  5 16  3 14  5.0000000  0  8G01G04G07G08G09G11G16G27             0.000034359
  22496128.281 5   -582091.125 5   -402165.51249  22496130.68849
  23398719.992 4     58578.246 4     40192.29346  23398719.19946
  22465450.859 6   -567420.309 6   -403541.76249  22465448.27049
  20662094.914 7    -97715.434 7    -70079.80149  20662094.38349
  23255917.656 6    -56746.969 6    -41721.40649  23255917.51649
  20571306.250 7   -363653.855 7   -272530.15249  20571303.15649
  22962244.164 6    -60328.164 6    -41014.25457  22962230.17257
  22132821.117 6     69602.727 6     49055.83649  22132821.23449
 20  5 16  3 14  6.0000000  0  8G01G04G07G08G09G11G16G27             0.000033031
  22495069.289 5   -587659.000 5   -406504.10949  22495070.98049
  23398819.867 4     59103.875 4     40601.85246  23398819.31646
  22464494.164 6   -572443.926 6   -407456.26649  22464491.87549
  20661925.195 7    -98606.922 7    -70774.45749  20661924.87549
  23255814.461 5    -57286.871 5    -42142.11349  23255815.00049
  20570624.219 7   -367237.398 7   -275322.52749  20570621.25449
  22962134.727 6    -60904.793 6    -41463.55947  22962124.23447
  22132928.859 6     70170.375 6     49498.15649  22132929.16449
 20  5 16  3 14  7.0000000  0  8G01G04G07G08G09G11G16G27             0.000031700
  22494009.305 5   -593227.047 5   -410842.84049  22494011.28549
  23398919.805 4     59629.117 4     41011.10946  23398919.31346
  22463538.375 6   -577467.703 6   -411370.89849  22463535.77049
  20661755.391 7    -99498.527 7    -71469.21149  20661755.13749
  23255711.656 5    -57826.867 5    -42562.89149  23255712.35549
  20569942.430 7   -370820.855 7   -278114.82849  20569939.66849
  22962024.992 6    -61481.758 6    -41913.19147  22962017.04347
  22133037.141 6     70737.699 6     49940.22749  22133037.02049
 20  5 16  3 14  8.0000000  0  8G01G04G07G08G09G11G16G27             0.000030371
  22492949.820 5   -598795.281 5   -415181.71549  22492952.21549
  23399019.266 4     60154.059 4     41420.15646  23399019.35246
  22462582.391 6   -582491.566 6   -415285.59449  22462580.00849
  20661585.594 7   -100390.250 7    -72164.05949  20661585.30949
  23255609.156 5    -58366.953 5    -42983.74249  23255609.48849
  20569260.484 7   -374404.184 7   -280907.03149  20569257.57449
  22961915.211 6    -62059.082 6    -42363.02747  22961908.59847
  22133145.000 6     71304.688 6     50382.03149  22133144.99649
 20  5 16  3 14  9.0000000  0  8G01G04G07G08G09G11G16G27             0.000029039
  22491890.531 5   -604363.809 5   -419520.82449  22491892.38349
  23399119.391 4     60678.496 4     41828.81346  23399118.84846
  22461626.273 6   -587515.715 6   -419200.50849  22461623.84449
