     2.10           OBSERVATION DATA    Mixed(MIXED)        RINEX VERSION / TYPE
cnvtToRINEX 3.07.0  convertToRINEX OPR  19-May-20 12:31 UTC PGM / RUN BY / DATE 
----------------------------------------------------------- COMMENT             
GBA0                                                        MARKER NAME         
GBA0                                                        MARKER NUMBER       
GNSS Observer       Trimble                                 OBSERVER / AGENCY   
0440102809          5700                2.32                REC # / TYPE / VERS 
                    TRM39105.00                             ANT # / TYPE        
 -3050757.1625  4927683.8301  2654111.6706                  APPROX POSITION XYZ 
        0.0000        0.0000        0.0000                  ANTENNA: DELTA H/E/N
     1     1     0                                          WAVELENGTH FACT L1/2
     4    C1    L1    L2    P2                              # / TYPES OF OBSERV 
  2020     5    16     1    38    3.0000000     GPS         TIME OF FIRST OBS   
  2020     5    16     3     9   37.0000000     GPS         TIME OF LAST OBS    
     0                                                      RCV CLOCK OFFS APPL 
    18                                                      LEAP SECONDS        
    11                                                      # OF SATELLITES     
   G01  1919  1886  1907  1907                              PRN / # OF OBS      
   G04  5495  5491  5495  5495                              PRN / # OF OBS      
   G07  3893  3879  3887  3887                              PRN / # OF OBS      
   G08  5495  5495  5495  5495                              PRN / # OF OBS      
   G09  5335  5274  5329  5329                              PRN / # OF OBS      
   G11  5478  5478  5478  5478                              PRN / # OF OBS      
   G16  5289  5271  5139  5139                              PRN / # OF OBS      
   G21    61    51     0     0                              PRN / # OF OBS      
   G26  3858  3806  3485  3485                              PRN / # OF OBS      
   G27  5495  5495  5495  5495                              PRN / # OF OBS      
   G31   504   459   205   205                              PRN / # OF OBS      
CARRIER PHASE MEASUREMENTS: PHASE SHIFTS REMOVED            COMMENT             
                                                            END OF HEADER       
 20  5 16  1 38  3.0000000  0  4G04G08G27G31                         0.000261290
  21489656.19516    -38120.41416    -12621.36357  21489654.21157
  20814158.47717    -62178.39817    -22597.02759  20814157.24259
  20175305.91417    -36776.72317    -15127.51259  20175305.14859
  23527515.63315    -17443.34015      -233.84056  23527512.04756
 20  5 16  1 38  4.0000000  0  4G04G08G27G31                         0.000259018
  21489060.273 6    -41253.133 6    -15062.43847  21489058.11347
  20813173.789 7    -67353.516 7    -26629.59049  20813172.35549
  20174725.422 7    -39826.816 7    -17504.21549  20174724.66449
  23527292.547 5    -18619.090 5     -1149.99246  23527288.00046
 20  5 16  1 38  5.0000000  0  4G04G08G27G31                         0.000256746
  21488464.031 6    -44387.930 6    -17505.12947  21488462.20747
  20812188.844 7    -72530.773 7    -30663.81649  20812187.26649
  20174144.664 7    -42878.996 7    -19882.53149  20174143.76649
  23527068.000 4    -19797.266 4     -2068.05946  23527064.03946
 20  5 16  1 38  6.0000000  0  4G04G08G27G31                         0.000254475
  21487866.617 6    -47524.930 6    -19949.54347  21487864.66047
  20811202.789 7    -77710.254 7    -34699.77749  20811201.18049
  20173563.500 7    -45933.367 7    -22262.56649  20173562.49249
  23526842.930 4    -20977.980 4     -2988.09046  23526839.26646
 20  5 16  1 38  7.0000000  0  4G04G08G27G31                         0.000252199
  21487269.125 6    -50663.637 6    -22395.28947  21487267.53547
  20810216.727 7    -82891.582 7    -38737.17249  20810215.59849
  20172981.820 7    -48989.477 7    -24643.93849  20172980.94149
  23526618.281 4    -22160.793 4     -3909.77746  23526614.38346
 20  5 16  1 38  8.0000000  0  4G04G08G27G31                         0.000249924
  21486671.422 6    -53804.531 6    -24842.74247  21486670.05547
  20809230.359 7    -88075.102 7    -42776.28149  20809229.29349
  20172400.375 7    -52047.727 7    -27026.99649  20172398.71549
  23526392.766 4    -23346.078 4     -4833.38346  23526388.80146
 20  5 16  1 38  9.0000000  0  4G04G08G27G31                         0.000247658
  21486073.086 6    -56947.168 6    -27291.55547  21486071.98447
  20808243.875 7    -93260.410 7    -46816.77749  20808242.41449
  20171818.086 7    -55107.738 7    -29411.41849  20171816.40649
  23526166.352 4    -24533.465 4     -5758.60946  23526162.69946
 20  5 16  1 38 10.0000000  0  4G04G08G27G31                         0.000245378
  21485475.359 6    -60091.438 6    -29741.62947  21485473.60247
  20807256.672 7    -98447.445 7    -50858.61349  20807254.95349
  20171234.977 7    -58169.395 7    -31797.12549  20171233.87549
  23525939.422 4    -25722.801 4     -6685.37146  23525936.39846
 20  5 16  1 38 11.0000000  0  4G04G08G27G31                         0.000243097
  21484876.320 6    -63237.336 6    -32192.98047  21484874.79347
  20806269.406 7   -103636.141 7    -54901.75449  20806268.50049
  20170652.391 7    -61232.637 7    -34184.07049  20170651.10949
  23525713.172 4    -26914.078 4     -7613.64146  23525709.68446
 20  5 16  1 38 12.0000000  0  4G04G08G27G31                         0.000240814
  21484277.563 6    -66384.523 6    -34645.33247  21484276.33247
  20805281.938 7   -108826.242 7    -58945.98849  20805280.15249
  20170069.164 7    -64297.215 7    -36572.05549  20170068.06349
  23525486.234 4    -28107.051 4     -8543.23846  23525482.36346
 20  5 16  1 38 13.0000000  0  4G04G08G27G31                         0.000238531
  21483678.422 6    -69533.023 6    -37098.71147  21483677.16447
  20804294.203 7   -114017.641 7    -62991.23849  20804292.73449
  20169485.547 7    -67363.082 7    -38961.04349  20169484.28949
  23525259.008 3    -29301.621 3     -9474.06646  23525255.12146
 20  5 16  1 38 14.0000000  0  4G04G08G27G31                         0.000236246
  21483078.516 6    -72682.738 6    -39553.03547  21483077.85547
  20803305.680 7   -119210.348 7    -67037.50049  20803304.23049
  20168901.945 7    -70430.152 7    -41350.97749  20168900.68449
  23525030.797 4    -30497.742 4    -10406.10246  23525027.39846
 20  5 16  1 38 15.0000000  0  4G04G08G27G31                         0.000233961
  21482478.969 6    -75833.598 6    -42008.24647  21482477.88347
  20802317.063 7   -124404.262 7    -71084.70349  20802315.85949
  20168318.070 7    -73498.355 7    -43741.77749  20168316.73849
  23524803.492 4    -31695.340 4    -11339.30946  23524799.30946
 20  5 16  1 38 16.0000000  0  4G04G08G27G31                         0.000231674
  21481879.758 6    -78985.500 6    -44464.27747  21481877.98047
  20801328.555 7   -129599.305 7    -75132.79749  20801327.45749
  20167734.609 7    -76567.637 7    -46133.42649  20167732.86349
  23524574.625 3    -32894.395 3    -12273.64546  23524570.96546
 20  5 16  1 38 17.0000000  0  4G04G08G27G31                         0.000229387
  21481279.758 6    -82138.262 6    -46920.98047  21481278.36347
  20800340.086 7   -134795.254 7    -79181.58649  20800338.14849
  20167149.867 7    -79637.777 7    -48525.75049  20167148.56349
  23524346.445 4    -34094.484 4    -13208.75846  23524343.02346
 20  5 16  1 38 18.0000000  0  4G04G08G27G31                         0.000227098
  21480679.617 6    -85291.793 6    -49378.27747  21480678.71947
  20799350.961 7   -139992.035 7    -83231.02349  20799349.16449
  20166565.547 7    -82708.672 7    -50918.65649  20166564.27049
  23524118.328 3    -35295.824 3    -14144.85946  23524114.33246
 20  5 16  1 38 19.0000000  0  5G04G08G26G27G31                      0.000224808
  21480079.570 6    -88446.160 6    -51836.22347  21480077.78147
  20798362.055 7   -145189.703 7    -87281.15249  20798360.71549
  22929535.28915    -42051.33815    -15570.55856  22929531.12956
  20165980.922 7    -85780.406 7    -53312.21149  20165979.38749
  23523889.961 3    -36498.281 3    -15081.84446  23523885.34446
 20  5 16  1 38 20.0000000  0  7G04G08G11G16G26G27G31                0.000222517
  21479478.805 6    -91601.164 6    -54294.67247  21479477.48447
  20797372.930 7   -150388.063 7    -91331.82449  20797371.33649
  23557949.78114   -187317.22314    -61403.14555  23557946.87955
  21531982.30516    -63956.75416    -30481.05557  21531977.66057
  22929175.422 5    -43937.590 5    -17040.37546  22929172.32446
  20165396.102 7    -88852.770 7    -55706.25449  20165394.82449
  23523660.813 3    -37701.734 3    -16019.59846  23523656.10546
 20  5 16  1 38 21.0000000  0  7G04G08G11G16G26G27G31                0.000220226
  21478878.086 6    -94756.883 6    -56753.68047  21478876.92647
  20796383.328 7   -155587.156 7    -95383.06649  20796381.70349
  23556610.766 4   -194347.898 4    -66881.60945  23556608.66845
  21531527.500 6    -66348.523 6    -32344.77347  21531522.58647
  22928816.484 5    -45825.180 5    -18511.22746  22928812.76646
  20164811.633 7    -91925.852 7    -58100.86749  20164810.00849
  23523431.141 3    -38906.199 3    -16958.13746  23523427.19546
 20  5 16  1 38 22.0000000  0  7G04G08G11G16G26G27G31                0.000217934
  21478277.508 6    -97913.063 6    -59213.04347  21478276.55547
  20795394.156 7   -160786.828 7    -99434.75049  20795392.89549
  23555272.711 4   -201379.652 4    -72360.91445  23555270.32045
  21531071.898 6    -68741.320 6    -34209.28547  21531067.03547
  22928457.328 5    -47713.898 5    -19982.94546  22928453.66846
  20164226.484 7    -94999.406 7    -60495.84849  20164225.19549
  23523201.594 3    -40111.488 3    -17897.30146  23523197.37146
 20  5 16  1 38 23.0000000  0  7G04G08G11G16G26G27G31                0.000215641
  21477677.000 6   -101069.750 6    -61672.79747  21477675.74247
  20794404.711 7   -165987.027 7   -103486.85549  20794403.18449
  23553933.813 3   -208412.379 3    -77840.95345  23553932.45345
  21530616.070 6    -71135.148 6    -36074.60547  21530611.54347
  22928097.867 5    -49603.727 5    -21455.55546  22928094.09446
  20163641.586 7    -98073.445 7    -62891.21549  20163640.54749
  23522972.164 1    -41317.598 1    -18837.09846  23522968.11346
 20  5 16  1 38 24.0000000  0  7G04G08G11G16G26G27G31                0.000213348
  21477076.344 6   -104226.883 6    -64132.89547  21477074.70347
  20793414.844 7   -171187.738 7   -107539.36349  20793413.60249
  23552595.461 2   -215446.188 2    -83321.80945  23552593.71545
  21530160.273 6    -73530.008 6    -37940.73047  21530155.95747
  22927738.680 4    -51494.594 4    -22928.98046  22927734.72346
  20163056.586 7   -101147.949 7    -65286.93449  20163055.29749
  23522743.031 2    -42524.504 2    -19777.51246  23522738.19946
 20  5 16  1 38 25.0000000  0  7G04G08G11G16G26G27G31                0.000211056
  21476475.055 6   -107384.355 6    -66593.27347  21476474.09047
  20792424.813 6   -176388.840 6   -111592.16849  20792423.69949
  23551257.531 4   -222480.723 4    -88803.27745  23551254.98045
  21529704.969 6    -75925.711 6    -39807.52047  21529699.66847
  22927377.539 4    -53386.426 4    -24403.12546  22927374.35546
  20162471.438 7   -104222.801 7    -67682.91849  20162470.39149
  23522512.977 3    -43732.086 3    -20718.50446  23522509.03546
 20  5 16  1 38 26.0000000  0  7G04G08G11G16G26G27G31                0.000208761
  21475874.281 6   -110542.102 6    -69053.85247  21475873.14547
  20791435.422 6   -181590.270 6   -115645.23049  20791433.48049
  23549918.281 4   -229516.086 4    -94285.38745  23549916.07045
  21529248.719 6    -78322.211 6    -41674.93047  21529244.16447
  22927017.602 4    -55279.109 4    -25877.95746  22927014.54746
  20161885.930 7   -107297.887 7    -70079.08649  20161884.98849
  23522282.359 3    -44940.238 3    -21659.94946  23522278.63746
 20  5 16  1 38 27.0000000  0  7G04G08G11G16G26G27G31                0.000206467
  21475273.531 6   -113700.063 6    -71514.59847  21475271.92647
  20790445.375 6   -186792.023 6   -119698.54349  20790444.34849
  23548579.336 4   -236552.297 4    -99768.14545  23548577.01245
  21528792.773 6    -80719.488 6    -43542.93447  21528787.76647
  22926656.727 4    -57172.664 4    -27353.46946  22926654.40646
  20161300.898 7   -110373.223 7    -72475.45349  20161299.73849
  23522052.766 3    -46148.953 3    -22601.85546  23522048.73446
 20  5 16  1 38 28.0000000  0  7G04G08G11G16G26G27G31                0.000204170
  21474672.898 6   -116858.305 6    -73975.57447  21474671.19947
  20789455.633 6   -191994.063 6   -123752.09049  20789454.07449
  23547240.242 4   -243589.246 4   -105251.47745  23547237.93845
  21528336.242 6    -83117.578 6    -45411.57447  21528331.50047
  22926296.914 4    -59067.086 4    -28829.65246  22926294.28946
  20160715.797 7   -113448.809 7    -74872.02349  20160714.47349
  23521823.313 4    -47358.293 4    -23544.23846  23521818.67246
 20  5 16  1 38 29.0000000  0  7G04G08G11G16G26G27G31                0.000201874
  21474071.609 6   -120016.703 6    -76436.67247  21474070.12547
  20788465.320 6   -197196.336 6   -127805.81349  20788463.85949
  23545900.859 4   -250626.887 4   -110735.35945  23545898.84445
  21527880.273 6    -85516.344 6    -47280.73847  21527874.96147
  22925935.711 4    -60962.270 4    -30306.43046  22925933.38346
  20160130.336 7   -116524.566 7    -77268.72349  20160129.25849
  23521592.625 3    -48568.125 3    -24486.98846  23521588.31346
 20  5 16  1 38 30.0000000  0  7G04G08G11G16G26G27G31                0.000199577
  21473470.523 6   -123175.340 6    -78897.94147  21473468.94947
  20787475.141 6   -202398.891 6   -131859.75049  20787474.23049
  23544561.406 4   -257665.265 4   -116219.81445  23544559.35545
  21527423.609 6    -87915.898 6    -49150.52347  21527418.39547
  22925573.289 4    -62858.301 4    -31783.84446  22925572.96946
  20159545.094 7   -119600.555 7    -79665.59049  20159543.64149
  23521363.117 3    -49778.535 3    -25430.13746  23521358.34446
 20  5 16  1 38 31.0000000  0  7G04G08G11G16G26G27G31                0.000197279
  21472868.930 6   -126334.113 6    -81359.32447  21472867.77347
  20786485.461 6   -207601.672 6   -135913.85949  20786484.01649
  23543222.594 4   -264704.402 4   -121704.84845  23543219.77745
  21526967.070 6    -90316.156 6    -51020.86347  21526961.72747
  22925212.906 4    -64755.086 4    -33261.85246  22925212.34446
  20158959.898 7   -122676.699 7    -82062.57849  20158958.54349
  23521132.055 3    -50989.398 3    -26373.64546  23521127.81346
 20  5 16  1 38 32.0000000  0  7G04G08G11G16G26G27G31                0.000194983
  21472268.242 6   -129492.840 6    -83820.67247  21472266.89547
  20785495.141 6   -212804.445 6   -139967.96549  20785493.73049
  23541882.914 4   -271743.918 4   -127190.17645  23541880.34445
  21526509.836 6    -92716.883 6    -52891.56347  21526504.88747
  22924852.016 4    -66652.449 4    -34740.33245  22924850.98045
  20158374.625 7   -125752.773 7    -84459.51249  20158373.41449
  23520901.859 4    -52200.559 4    -27317.37946  23520897.17246
 20  5 16  1 38 33.0000000  0  7G04G08G11G16G26G27G31                0.000192684
  21471667.313 6   -132651.590 6    -86282.03147  21471665.69147
  20784505.148 7   -218007.297 7   -144022.13349  20784503.90249
  23540543.039 4   -278784.020 4   -132675.97345  23540540.66845
  21526052.648 6    -95118.176 6    -54762.69547  21526047.94147
  22924490.906 4    -68550.434 4    -36219.30145  22924490.21145
  20157789.016 7   -128828.879 7    -86856.47749  20157787.88349
  23520671.156 4    -53412.082 4    -28261.40246  23520666.72346
 20  5 16  1 38 34.0000000  0  7G04G08G11G16G26G27G31                0.000190386
  21471066.133 6   -135810.367 6    -88743.42247  21471064.81347
  20783514.984 7   -223210.227 7   -148076.35949  20783513.66849
  23539203.313 4   -285824.688 4   -138162.21946  23539200.98846
  21525595.703 6    -97520.012 6    -56634.25447  21525591.50847
  22924130.641 4    -70449.027 4    -37698.74245  22924128.74645
  20157203.406 7   -131905.004 7    -89253.45749  20157202.62549
  23520440.266 4    -54623.941 4    -29205.71546  23520436.00046
 20  5 16  1 38 35.0000000  0  7G04G08G11G16G26G27G31                0.000188087
  21470465.320 6   -138968.992 6    -91204.68447  21470463.57447
  20782524.711 7   -228413.074 7   -152130.52749  20782523.66049
  23537862.992 4   -292865.754 4   -143648.76245  23537861.49645
  21525138.391 6    -99922.250 6    -58506.12947  21525133.91047
  22923769.469 4    -72348.129 4    -39178.55945  22923767.80945
  20156618.445 7   -134980.992 7    -91650.33249  20156616.85249
  23520209.984 4    -55836.035 4    -30150.20346  23520205.28546
 20  5 16  1 38 36.0000000  0  7G04G08G11G16G26G27G31                0.000185774
  21469863.797 6   -142127.414 6    -93665.79347  21469862.56647
  20781534.852 7   -233615.809 7   -156184.61349  20781534.00449
  23536523.602 3   -299907.102 3   -149135.53146  23536521.36346
  21524681.336 6   -102324.848 6    -60378.28147  21524676.68847
  22923407.648 4    -74247.621 4    -40658.68045  22923406.11345
  20156032.984 7   -138056.781 7    -94047.05149  20156031.62149
  23519979.141 4    -57048.246 4    -31094.79746  23519974.36746
 20  5 16  1 38 37.0000000  0  7G04G08G11G16G26G27G31                0.000183475
  21469263.078 6   -145285.703 6    -96126.80147  21469261.49647
  20780544.969 7   -238818.406 7   -160238.59049  20780543.55149
  23535183.344 4   -306948.887 4   -154622.63346  23535181.14146
  21524224.258 6   -104727.848 6    -62250.75447  21524219.50847
  22923045.750 4    -76147.551 4    -42139.14846  22923044.58246
  20155447.633 7   -141132.426 7    -96443.66049  20155446.53549
  23519748.242 4    -58260.633 4    -32039.53146  23519743.91446
 20  5 16  1 38 38.0000000  0  7G04G08G11G16G26G27G31                0.000181175
  21468662.031 6   -148443.902 6    -98587.73847  21468660.55547
  20779554.906 7   -244020.992 7   -164292.54749  20779553.59849
  23533843.305 3   -313991.078 3   -160110.05546  23533841.32446
  21523766.992 6   -107131.266 6    -64123.54347  21523762.12947
  22922684.375 4    -78048.113 4    -43620.09845  22922683.21945
  20154862.445 7   -144207.965 7    -98840.18449  20154861.01249
  23519517.578 4    -59473.277 4    -32984.45346  23519513.55546
 20  5 16  1 38 39.0000000  0  7G04G08G11G16G26G27G31                0.000178875
  21468060.969 6   -151602.027 6   -101048.61347  21468059.52047
  20778564.797 7   -249223.578 7   -168346.50849  20778563.72749
  23532503.461 4   -321033.723 4   -165597.84046  23532501.35246
  21523309.742 6   -109535.172 6    -65996.71947  21523304.82047
  22922322.141 3    -79949.133 3    -45101.38745  22922321.58645
  20154277.141 7   -147283.441 7   -101236.66049  20154275.58649
  23519286.695 4    -60686.172 4    -33929.57846  23519282.40646
 20  5 16  1 38 40.0000000  0  7G04G08G11G16G26G27G31                0.000176573
  21467460.305 6   -154760.152 6   -103509.48847  21467458.42647
  20777574.852 7   -254426.172 7   -172400.48049  20777573.63349
  23531163.000 3   -328076.891 3   -171086.01245  23531160.60245
  21522851.617 6   -111939.570 6    -67870.27347  21522847.08247
  22921959.563 3    -81850.785 3    -46583.22345  22921959.10945
  20153691.773 7   -150358.922 7   -103633.13749  20153690.34449
  23519055.773 4    -61899.383 4    -34874.94546  23519051.48446
 20  5 16  1 38 41.0000000  0  7G04G08G11G16G26G27G31                0.000174274
  21466858.844 6   -157918.047 6   -105970.18047  21466857.33247
  20776585.039 7   -259628.641 7   -176454.35249  20776583.81349
  23529822.570 3   -335120.383 3   -176574.44945  23529820.41045
  21522394.172 6   -114344.309 6    -69744.09847  21522389.34847
  22921597.469 3    -83752.789 3    -48065.30545  22921597.42245
  20153106.602 7   -153434.168 7   -106029.42649  20153105.16449
  23518825.195 4    -63112.750 4    -35820.41846  23518820.46546
 20  5 16  1 38 42.0000000  0  7G04G08G11G16G26G27G31                0.000171974
  21466258.266 6   -161075.664 6   -108430.66447  21466256.28947
  20775595.086 7   -264830.875 7   -180508.03549  20775593.67249
  23528482.844 3   -342164.090 3   -182063.05945  23528480.27045
  21521936.508 6   -116749.332 6    -71618.14847  21521931.40247
  22921234.773 3    -85655.098 3    -49547.61345  22921235.52345
  20152521.719 7   -156509.129 7   -108425.49649  20152519.93449
  23518594.516 4    -64326.117 4    -36765.91046  23518589.78546
 20  5 16  1 38 43.0000000  0  7G04G08G11G16G26G27G31                0.000169672
  21465657.234 6   -164233.109 6   -110891.00847  21465655.94147
  20774605.461 7   -270033.008 7   -184561.64549  20774603.83649
  23527141.906 3   -349208.191 3   -187551.96545  23527139.59445
  21521478.820 6   -119154.688 6    -73492.44946  21521473.93046
  22920872.570 3    -87557.883 3    -51030.30145  22920873.39545
  20151936.555 7   -159583.918 7   -110821.43849  20151934.75849
  23518363.953 4    -65539.664 4    -37711.52746  23518358.50446
 20  5 16  1 38 44.0000000  0  7G04G08G11G16G26G27G31                0.000167372
  21465056.414 6   -167390.324 6   -113351.17247  21465054.95347
  20773615.242 7   -275234.973 7   -188615.12549  20773614.33649
  23525801.609 4   -356252.590 4   -193041.10245  23525799.20345
  21521020.836 6   -121560.363 6    -75367.00047  21521016.73447
  22920510.242 3    -89461.102 3    -52513.32045  22920511.21145
  20151351.430 7   -162658.504 7   -113217.21949  20151349.91049
  23518132.898 4    -66753.371 4    -38657.27046  23518127.94146
 20  5 16  1 38 45.0000000  0  7G04G08G11G16G26G27G31                0.000165070
  21464455.719 6   -170547.336 6   -115811.17647  21464454.50447
  20772625.547 7   -280436.793 7   -192668.48849  20772624.34049
  23524461.016 4   -363297.297 4   -198530.47345  23524458.80545
  21520563.195 6   -123966.363 6    -77241.81347  21520558.46547
  22920146.984 3    -91364.703 3    -53996.64845  22920149.09045
  20150766.367 7   -165732.875 7   -115612.83649  20150764.99649
  23517901.352 4    -67967.129 4    -39603.07846  23517896.54346
 20  5 16  1 38 46.0000000  0  7G04G08G11G16G26G27G31                0.000162769
  21463854.844 6   -173704.145 6   -118271.03947  21463853.37547
  20771635.688 7   -285638.469 7   -196721.74249  20771634.43449
  23523120.648 4   -370342.320 4   -204020.10945  23523118.18445
  21520105.023 6   -126372.699 6    -79116.87147  21520100.68447
  22919784.820 2    -93268.680 2    -55480.25846  22919786.82046
  20150181.406 7   -168807.016 7   -118008.27349  20150179.93449
  23517670.344 4    -69181.035 4    -40548.99246  23517665.81346
 20  5 16  1 38 47.0000000  0  7G04G08G11G16G26G27G31                0.000160465
  21463253.992 6   -176860.867 6   -120730.82047  21463252.75847
  20770645.984 7   -290840.117 7   -200774.96949  20770644.43449
  23521779.344 4   -377387.789 4   -209510.07445  23521777.55145
  21519647.133 6   -128779.535 6    -80992.34047  21519642.60247
  22919422.680 2    -95173.203 2    -56964.30146  22919424.94946
  20149596.492 7   -171881.090 7   -120403.65249  20149595.09049
  23517439.766 4    -70395.246 4    -41495.13346  23517434.81646
 20  5 16  1 38 48.0000000  0  7G04G08G11G16G26G27G31                0.000158163
  21462653.313 6   -180017.379 6   -123190.43847  21462652.33647
  20769655.852 7   -296041.598 7   -204828.08249  20769654.63749
  23520438.281 3   -384433.582 3   -215000.32045  23520436.55945
  21519188.695 6   -131186.641 6    -82868.00447  21519185.08647
  22919059.891 2    -97078.098 2    -58448.63746  22919062.02746
  20149011.688 7   -174954.945 7   -122798.87149  20149009.95749
  23517208.414 4    -71609.500 4    -42441.30546  23517203.56646
 20  5 16  1 38 49.0000000  0  7G04G08G11G16G26G27G31                0.000155861
  21462052.734 6   -183173.461 6   -125649.71947  21462051.60947
  20768666.211 7   -301242.719 7   -208880.89849  20768665.18049
  23519098.336 3   -391479.430 3   -220490.59045  23519095.42645
  21518730.516 6   -133593.891 6    -84743.77747  21518726.87947
  22918698.094 2    -98983.145 2    -59933.05946  22918699.89846
  20148426.586 7   -178028.352 7   -125193.72749  20148425.10549
  23516977.195 4    -72823.719 4    -43387.44946  23516972.48046
 20  5 16  1 38 50.0000000  0  7G04G08G11G16G26G27G31                0.000153559
  21461452.117 6   -186329.141 6   -128108.69947  21461450.75047
  20767676.539 7   -306443.508 7   -212933.46549  20767675.66849
  23517757.734 3   -398525.488 3   -225981.05145  23517754.80945
  21518272.922 6   -136001.277 6    -86619.66447  21518268.55547
  22918335.422 2   -100888.461 2    -61417.74246  22918337.17646
  20147842.063 7   -181101.387 7   -127588.30149  20147840.32049
  23516745.969 4    -74037.840 4    -44333.51646  23516741.85546
 20  5 16  1 38 51.0000000  0  7G04G08G11G16G26G27G31                0.000151255
  21460851.789 6   -189484.527 6   -130567.43847  21460850.41847
  20766687.008 7   -311644.051 7   -216985.84049  20766685.97749
  23516416.719 3   -405571.719 3   -231471.62545  23516413.87945
  21517814.539 6   -138408.895 6    -88495.71947  21517810.59447
  22917972.672 2   -102794.113 2    -62902.69146  22917974.55946
  20147257.211 7   -184174.129 7   -129982.64549  20147255.57049
  23516515.156 4    -75251.992 4    -45279.62146  23516510.48446
 20  5 16  1 38 52.0000000  0  7G04G08G11G16G26G27G31                0.000148952
  21460251.203 6   -192639.625 6   -133025.95747  21460249.91047
  20765697.250 7   -316844.328 7   -221038.00449  20765696.11349
  23515075.453 3   -412618.211 3   -236962.37145  23515073.20345
  21517355.961 6   -140816.746 6    -90371.97347  21517351.94147
  22917608.867 2   -104700.027 2    -64387.82046  22917611.77046
  20146672.516 7   -187246.555 7   -132376.73849  20146671.00849
  23516283.695 4    -76466.219 4    -46225.77746  23516279.32846
 20  5 16  1 38 53.0000000  0  7G04G08G11G16G26G27G31                0.000146648
  21459651.008 6   -195794.391 6   -135484.21947  21459649.57447
  20764707.836 7   -322044.375 7   -225089.98049  20764707.13349
  23513734.797 3   -419664.852 3   -242453.26245  23513732.17645
  21516898.211 6   -143224.871 6    -92248.43047  21516893.87147
  22917246.867 2   -106606.230 2    -65873.14846  22917249.39546
  20146087.766 7   -190318.684 7   -134770.60549  20146086.29349
  23516052.977 4    -77680.445 4    -47171.94146  23516048.30546
 20  5 16  1 38 54.0000000  0  7G04G08G11G16G26G27G31                0.000144346
  21459051.313 6   -198948.895 6   -137942.27347  21459049.44547
  20763718.172 7   -327244.156 7   -229141.75849  20763717.51249
  23512394.117 4   -426711.820 4   -247944.41845  23512391.57045
  21516439.313 6   -145633.191 6    -94125.03947  21516435.59847
  22916883.219 2   -108512.805 2    -67358.77746  22916886.73046
  20145503.266 7   -193390.516 7   -137164.23849  20145501.82449
  23515822.141 4    -78894.738 4    -48118.13746  23515817.59046
 20  5 16  1 38 55.0000000  0  7G04G08G11G16G26G27G31                0.000142042
  21458450.891 6   -202102.906 6   -140399.94547  21458448.95747
  20762728.672 7   -332443.547 7   -233193.22749  20762728.23049
  23511053.797 4   -433758.809 4   -253435.59045  23511049.89545
  21515981.172 6   -148041.633 6    -96001.74647  21515977.34847
  22916520.633 2   -110419.551 2    -68844.57445  22916523.96545
  20144919.016 7   -196461.906 7   -139557.52749  20144917.67249
  23515591.164 4    -80108.895 4    -49064.22346  23515586.25046
 20  5 16  1 38 56.0000000  0  7G04G08G11G16G26G27G31                0.000139738
  21457850.234 6   -205256.637 6   -142857.38747  21457848.74247
  20761739.469 7   -337642.660 7   -237244.48049  20761738.39849
  23509712.391 4   -440806.008 4   -258926.91845  23509709.12545
  21515523.039 6   -150450.262 6    -97878.60547  21515519.48447
  22916157.234 1   -112326.543 1    -70330.55145  22916161.00445
  20144334.008 7   -199532.957 7   -141950.55549  20144332.88749
  23515360.555 4    -81323.094 4    -50010.35945  23515355.55545
 20  5 16  1 38 57.0000000  0  7G04G08G11G16G26G27G31                0.000137434
  21457250.406 6   -208409.977 6   -145314.53947  21457248.78947
  20760749.969 7   -342841.508 7   -241295.53549  20760749.29749
  23508370.711 4   -447853.379 4   -264418.37545  23508368.27745
  21515064.273 6   -152859.078 6    -99755.60946  21515060.68046
  22915794.766 1   -114233.754 1    -71816.68845  22915798.38745
  20143750.070 7   -202603.652 7   -144343.30949  20143748.69549
  23515128.508 4    -82537.230 4    -50956.44145  23515124.30145
 20  5 16  1 38 58.0000000  0  7G04G08G11G16G26G27G31                0.000135130
  21456650.398 6   -211562.953 6   -147771.40647  21456648.53147
  20759760.820 7   -348039.996 7   -245346.30549  20759759.97749
  23507028.992 4   -454900.910 4   -269909.94946  23507026.93046
  21514606.063 6   -155268.070 6   -101632.73447  21514602.32847
  22915431.703 1   -116141.246 1    -73303.06645  22915435.24245
  20143165.750 7   -205673.973 7   -146735.75849  20143164.23449
  23514898.484 4    -83751.293 4    -51902.46945  23514893.09445
 20  5 16  1 38 59.0000000  0  7G04G08G11G16G26G27G31                0.000132826
  21456050.719 6   -214715.672 6   -150228.07447  21456048.68847
  20758771.453 7   -353238.324 7   -249396.94949  20758770.68049
  23505688.672 4   -461948.688 4   -275401.73846  23505685.81646
  21514147.516 6   -157677.371 6   -103510.10947  21514144.07847
  22915068.688 1   -118049.074 1    -74789.68446  22915072.34846
  20142581.492 7   -208744.051 7   -149128.03549  20142580.03149
  23514667.023 4    -84965.477 4    -52848.58245  23514662.13745
 20  5 16  1 39  0.0000000  0  7G04G08G11G16G26G27G31                0.000130522
  21455451.070 6   -217868.063 6   -152684.48847  21455448.81647
  20757782.602 7   -358436.336 7   -253447.34849  20757781.55949
  23504346.867 4   -468996.648 4   -280893.63346  23504344.73846
  21513689.023 6   -160086.797 6   -105387.58246  21513685.10246
  22914705.344 1   -119957.148 1    -76276.50046  22914708.86746
  20141997.469 7   -211813.742 7   -151520.00049  20141996.34849
  23514436.234 4    -86179.680 4    -53794.71545  23514430.99245
 20  5 16  1 39  1.0000000  0  7G04G08G11G16G26G27G31                0.000128216
  21454850.586 6   -221020.074 6   -155140.59847  21454848.87547
  20756793.297 7   -363634.051 7   -257497.51649  20756792.73049
  23503005.758 4   -476044.785 4   -286385.66846  23503003.40646
  21513230.547 6   -162496.441 6   -107265.23447  21513226.86747
  22914342.070 2   -121865.504 2    -77763.53146  22914345.91046
  20141413.383 7   -214883.109 7   -153911.71549  20141411.85549
  23514204.930 4    -87393.793 4    -54740.78145  23514200.25445
 20  5 16  1 39  2.0000000  0  7G04G08G11G16G26G27G31                0.000125912
  21454251.391 6   -224171.656 6   -157596.37947  21454249.53147
  20755804.547 7   -368831.383 7   -261547.38349  20755803.76649
  23501664.570 4   -483092.992 4   -291877.78546  23501661.85246
  21512771.906 6   -164906.184 6   -109142.95346  21512768.15646
  22913978.648 1   -123774.039 1    -79250.69545  22913982.74645
  20140829.430 7   -217952.027 7   -156303.07449  20140827.90649
  23513973.625 4    -88607.844 4    -55686.80145  23513968.81645
 20  5 16  1 39  3.0000000  0  7G04G08G11G16G26G27G31                0.000123608
  21453651.445 6   -227322.777 6   -160051.79347  21453649.66447
  20754815.383 7   -374028.320 7   -265596.94549  20754814.90649
  23500323.922 4   -490141.270 4   -297369.94946  23500320.97746
  21512313.273 6   -167315.980 6   -111020.71147  21512309.57047
  22913614.797 1   -125682.668 1    -80737.93846  22913619.21546
  20140245.633 7   -221020.496 7   -158694.09449  20140244.26249
  23513743.117 4    -89821.746 4    -56632.71545  23513738.09845
 20  5 16  1 39  4.0000000  0  7G04G08G11G16G26G27G31                0.000121302
  21453052.055 6   -230473.551 6   -162506.94147  21453049.90647
  20753826.695 7   -379225.031 7   -269646.32449  20753826.13749
  23498981.969 4   -497189.805 4   -302862.29746  23498979.50046
  21511854.922 6   -169726.043 6   -112898.67646  21511850.89846
  22913252.727 1   -127591.668 1    -82225.43845  22913256.19545
  20139661.633 7   -224088.625 7   -161084.84449  20139660.49649
  23513512.102 4    -91035.699 4    -57578.65245  23513507.10945
 20  5 16  1 39  5.0000000  0  7G04G08G11G16G26G27G31                0.000118998
  21452452.711 6   -233624.000 6   -164961.84047  21452450.75847
  20752837.766 7   -384421.371 7   -273695.42649  20752836.90249
  23497641.266 4   -504238.469 4   -308354.75446  23497638.32446
  21511396.063 6   -172136.238 6   -114776.75046  21511392.35546
  22912888.055 1   -129500.879 1    -83713.14146  22912892.76246
  20139077.859 7   -227156.418 7   -163475.33249  20139076.35949
  23513281.641 4    -92249.590 4    -58524.56645  23513276.25845
 20  5 16  1 39  6.0000000  0  7G04G08G11G16G26G27G31                0.000116692
  21451853.266 6   -236774.027 6   -167416.40247  21451850.92247
  20751849.359 7   -389617.348 7   -277744.24249  20751848.25049
  23496299.680 4   -511287.184 4   -313847.27046  23496297.07846
  21510937.531 6   -174546.578 6   -116654.93046  21510933.34846
  22912524.906 1   -131410.281 1    -85200.98846  22912529.49246
  20138494.219 7   -230223.770 7   -165865.48049  20138492.89549
  23513050.422 4    -93463.355 4    -59470.31345  23513045.23445
 20  5 16  1 39  7.0000000  0  7G04G08G11G16G26G27G31                0.000114386
  21451253.883 6   -239923.734 6   -169870.72347  21451251.48447
  20750860.492 7   -394813.102 7   -281792.87549  20750859.70749
  23494958.453 5   -518336.215 5   -319340.02746  23494955.61746
  21510478.672 6   -176957.133 6   -118533.28146  21510474.30946
  22912161.461 1   -133320.012 1    -86689.08646  22912165.68046
  20137910.641 7   -233290.824 7   -168255.39149  20137908.94149
  23512819.266 3    -94677.242 3    -60416.20345  23512814.39845
 20  5 16  1 39  8.0000000  0  7G04G08G11G16G26G27G31                0.000112080
  21450654.570 6   -243073.020 6   -172324.71547  21450652.16847
  20749871.797 7   -400008.500 7   -285841.23849  20749871.31649
  23493616.797 4   -525385.270 4   -324832.78146  23493614.13346
  21510020.273 6   -179367.836 6   -120411.75446  21510015.85246
  22911798.953 1   -135229.852 1    -88177.27046  22911802.46146
  20137326.844 7   -236357.469 7   -170644.98449  20137325.48449
  23512587.688 3    -95891.031 3    -61362.01645  23512583.14845
 20  5 16  1 39  9.0000000  0  7G04G08G11G16G26G27G31                0.000109776
  21450055.164 6   -246221.945 6   -174778.41847  21450053.66447
  20748883.227 7   -405203.551 7   -289889.33649  20748882.46549
  23492275.289 4   -532434.488 4   -330325.66846  23492272.73046
  21509561.414 6   -181778.672 6   -122290.32847  21509557.20747
  22911433.531 1   -137140.016 1    -89665.71146  22911439.41846
  20136743.648 7   -239423.711 7   -173034.27049  20136742.20349
  23512357.633 3    -97104.691 3    -62307.75046  23512352.10546
 20  5 16  1 39 10.0000000  0  7G04G08G11G16G26G27G31                0.000107470
  21449455.953 6   -249370.422 6   -177231.78147  21449454.16047
  20747894.758 7   -410398.238 7   -293937.14149  20747893.88749
  23490933.617 5   -539483.852 5   -335818.67246  23490931.67246
  21509102.617 6   -184189.625 6   -124168.99646  21509098.25046
  22911070.922 1   -139050.289 1    -91154.21946  22911076.15246
  20136160.211 7   -242489.555 7   -175423.23049  20136158.89549
  23512126.070 3    -98318.313 3    -63253.43846  23512121.65646
 20  5 16  1 39 11.0000000  0  7G04G08G11G16G26G27G31                0.000105164
  21448856.852 6   -252518.523 6   -179684.85247  21448855.04747
  20746906.078 7   -415592.586 7   -297984.68449  20746905.50449
  23489592.367 4   -546533.270 4   -341311.73046  23489589.93846
  21508643.719 6   -186600.758 6   -126047.80147  21508639.46547
  22910707.469 1   -140960.789 1    -92642.93446  22910712.57446
  20135576.750 7   -245554.969 7   -177811.87549  20135575.27049
  23511895.492 3    -99531.859 3    -64199.03146  23511890.71946
 20  5 16  1 39 12.0000000  0  7G04G08G11G16G26G27G31                0.000102858
  21448258.008 6   -255666.141 6   -182137.53547  21448256.25447
  20745918.070 7   -420786.508 7   -302031.89549  20745917.22349
  23488251.305 5   -553582.766 5   -346804.87546  23488248.82846
  21508185.109 6   -189011.871 6   -127926.60247  21508180.83647
  22910343.195 1   -142871.488 1    -94131.75846  22910348.87146
  20134993.445 7   -248619.922 7   -180200.14149  20134992.17649
  23511663.617 3   -100745.270 3    -65144.55146  23511659.54746
 20  5 16  1 39 13.0000000  0  7G04G08G11G16G26G27G31                0.000100552
  21447659.461 6   -258813.305 6   -184589.86347  21447657.01647
  20744929.594 7   -425980.047 7   -306078.80549  20744928.60949
  23486909.070 4   -560632.383 4   -352298.09046  23486907.05946
  21507726.102 6   -191423.152 6   -129805.52047  21507722.00447
  22909980.172 1   -144782.328 1    -95620.71546  22909985.06646
  20134410.531 7   -251684.445 7   -182588.08649  20134409.02749
  23511432.352 3   -101958.574 3    -66089.98046  23511428.59046
 20  5 16  1 39 14.0000000  0  7G04G08G11G16G26G27G31                0.000098244
  21447060.266 6   -261960.020 6   -187041.84447  21447058.66847
  20743941.336 7   -431173.180 7   -310125.39549  20743940.60949
  23485566.875 4   -567682.012 4   -357791.30946  23485565.81346
  21507267.086 6   -193834.504 6   -131684.49647  21507263.14547
  22909615.578 1   -146693.340 1    -97109.80546  22909621.40246
  20133827.398 7   -254748.504 7   -184975.66049  20133826.15249
  23511202.461 3   -103171.809 3    -67035.33646  23511197.59446
 20  5 16  1 39 15.0000000  0  7G04G08G11G16G26G27G31                0.000095938
  21446461.383 6   -265106.309 6   -189493.50047  21446459.31347
  20742953.141 7   -436365.938 7   -314171.70349  20742952.58649
  23484226.789 5   -574731.758 5   -363284.60546  23484223.75446
  21506808.617 6   -196245.922 6   -133563.52747  21506804.02047
  22909252.031 1   -148604.359 1    -98598.90246  22909257.70346
  20133244.156 7   -257812.109 7   -187362.88749  20133243.08649
  23510971.102 3   -104384.832 3    -67980.59446  23510967.46546
 20  5 16  1 39 16.0000000  0  7G04G08G11G16G26G27G31                0.000093632
  21445863.383 6   -268252.148 6   -191944.80147  21445861.34047
  20741965.047 7   -441558.336 7   -318217.72749  20741964.40249
  23482885.148 5   -581781.594 5   -368777.96946  23482882.29346
  21506349.000 6   -198657.496 6   -135442.66847  21506345.14847
  22908888.773 1   -150515.758 1   -100088.33246  22908894.68446
  20132661.383 7   -260875.320 7   -189749.80949  20132660.30549
  23510739.898 2   -105597.801 2    -68925.73445  23510736.69945
 20  5 16  1 39 17.0000000  0  7G04G08G11G16G26G27G31                0.000091326
  21445263.883 6   -271397.629 6   -194395.82047  21445262.78947
  20740977.141 7   -446750.410 7   -322263.50049  20740976.30149
  23481543.445 5   -588831.594 5   -374271.47346  23481540.73846
  21505890.555 6   -201069.215 6   -137321.91447  21505886.42247
  22908524.148 1   -152427.293 1   -101577.84846  22908530.44146
  20132078.305 7   -263938.121 7   -192136.40249  20132077.16049
  23510508.773 3   -106810.754 3    -69870.89545  23510505.72745
 20  5 16  1 39 18.0000000  0  7G04G08G11G16G26G27G31                0.000089018
  21444665.898 6   -274542.559 6   -196846.42247  21444664.40647
  20739989.328 7   -451942.008 7   -326308.89849  20739988.59849
  23480201.813 5   -595881.535 5   -379764.93046  23480199.38746
  21505431.305 6   -203480.949 6   -139201.19147  21505427.62147
  22908160.273 1   -154338.918 1   -103067.40646  22908166.83646
  20131495.797 7   -267000.406 7   -194522.60249  20131494.67249
  23510278.195 2   -108023.543 2    -70815.94545  23510274.67245
 20  5 16  1 39 19.0000000  0  7G04G08G11G16G26G27G31                0.000086712
  21444067.586 6   -277687.059 6   -199296.68447  21444065.68047
  20739001.477 7   -457133.199 7   -330353.99249  20739000.62949
  23478860.023 5   -602931.609 5   -385258.50446  23478858.08646
  21504972.563 6   -205892.738 6   -141080.52047  21504968.60547
  22907796.938 1   -156250.773 1   -104557.14846  22907802.96546
  20130912.930 7   -270062.262 7   -196908.46549  20130911.91849
  23510048.453 2   -109236.191 2    -71760.87945  23510044.15245
 20  5 16  1 39 20.0000000  0  7G04G08G11G16G26G27G31                0.000084404
  21443469.102 6   -280831.219 6   -201746.67647  21443467.86747
  20738013.180 7   -462324.133 7   -334398.87549  20738012.40249
  23477518.742 5   -609981.836 5   -390752.19146  23477516.36346
  21504513.594 6   -208304.754 6   -142960.00447  21504509.89547
  22907433.219 1   -158162.801 1   -106047.03146  22907439.11346
  20130330.438 7   -273123.727 7   -199294.02749  20130329.75449
  23509817.414 2   -110448.871 2    -72705.82045  23509813.30145
 20  5 16  1 39 21.0000000  0  7G04G08G11G16G26G27G31                0.000082098
  21442871.063 6   -283974.898 6   -204196.30147  21442869.41847
  20737025.578 7   -467514.629 7   -338443.41049  20737024.92249
  23476177.375 5   -617032.098 5   -396245.89146  23476174.71546
  21504054.680 6   -210716.828 6   -144839.55147  21504050.90247
  22907069.508 1   -160075.008 1   -107537.05946  22907075.03946
  20129747.938 7   -276184.738 7   -201679.22749  20129746.75449
  23509586.461 2   -111661.309 2    -73650.55545  23509582.58645
 20  5 16  1 39 22.0000000  0  7G04G08G11G16G26G27G31                0.000079790
  21442272.703 6   -287117.887 6   -206645.37947  21442271.15647
  20736037.641 7   -472704.504 7   -342487.46949  20736036.94949
  23474835.828 5   -624082.250 5   -401739.52046  23474833.34446
  21503596.023 6   -213128.777 6   -146718.98847  21503592.01647
  22906705.766 1   -161987.109 1   -109026.98045  22906711.66445
  20129165.805 7   -279245.098 7   -204063.92249  20129164.61749
  23509355.578 1   -112873.406 1    -74595.02345  23509352.07445
 20  5 16  1 39 23.0000000  0  7G04G08G11G16G26G27G31                0.000077482
  21441675.016 6   -290260.453 6   -209094.13347  21441673.00847
  20735050.500 7   -477893.996 7   -346531.22749  20735050.23449
  23473493.359 5   -631132.434 5   -407233.16846  23473491.54346
  21503136.586 6   -215540.801 6   -148598.48847  21503132.91447
  22906341.586 1   -163899.477 1   -110517.13346  22906347.85546
  20128583.219 7   -282305.008 7   -206448.26649  20128582.21549
  23509124.594 1   -114085.535 1    -75539.55145  23509120.65245
 20  5 16  1 39 24.0000000  0  7G04G08G11G16G26G27G31                0.000075176
  21441077.242 6   -293402.625 6   -211542.58247  21441075.60947
  20734062.969 7   -483083.137 7   -350574.71149  20734062.23849
  23472152.109 5   -638182.777 5   -412726.93446  23472150.14146
  21502677.641 6   -217952.992 6   -150478.12147  21502674.20747
  22905977.625 1   -165811.934 1   -112007.38345  22905984.16045
  20128001.047 7   -285364.523 7   -208832.30149  20128000.03149
  23508893.773 1   -115297.477 1    -76483.94145  23508890.59445
 20  5 16  1 39 25.0000000  0  7G04G08G11G16G26G27G31                0.000072868
  21440479.375 6   -296544.418 6   -213990.73447  21440477.60547
  20733075.703 7   -488271.953 7   -354617.94149  20733074.93449
  23470810.836 5   -645233.250 5   -418220.81646  23470808.27346
  21502218.656 6   -220365.344 6   -152357.87547  21502215.03147
  22905614.227 1   -167724.691 1   -113497.83245  22905619.73845
  20127418.906 7   -288423.656 7   -211216.03949  20127417.78149
  23508664.008 2   -116509.387 2    -77428.29345  23508659.47345
 20  5 16  1 39 26.0000000  0  7G04G08G11G16G26G27G31                0.000070560
  21439881.430 6   -299685.617 6   -216438.42247  21439879.61747
  20732088.406 7   -493460.254 7   -358660.77749  20732087.80149
  23469468.648 5   -652283.672 5   -423714.64546  23469466.74246
  21501759.695 6   -222777.656 6   -154237.59847  21501755.89547
  22905249.328 1   -169637.457 1   -114988.27745  22905255.86745
  20126837.109 7   -291482.219 7   -213599.33649  20126835.68849
  23508432.703 1   -117721.113 1    -78372.48445  23508428.80545
 20  5 16  1 39 27.0000000  0  7G04G08G11G16G26G27G31                0.000068254
  21439283.984 6   -302826.352 6   -218885.74647  21439281.79747
  20731101.078 7   -498648.105 7   -362703.25449  20731100.74249
  23468127.070 5   -659334.109 5   -429208.50846  23468125.50846
  21501300.828 6   -225190.008 6   -156117.35247  21501296.80947
  22904884.797 1   -171550.406 1   -116478.88345  22904891.53945
  20126254.945 7   -294540.270 7   -215982.23849  20126253.75049
  23508202.172 1   -118932.605 1    -79316.50045  23508198.39545
 20  5 16  1 39 28.0000000  0  7G04G08G11G16G26G27G31                0.000065947
  21438686.164 6   -305966.531 6   -221332.63347  21438684.56347
  20730113.836 7   -503835.496 7   -366745.37549  20730113.69949
  23466785.539 5   -666384.578 5   -434702.38746  23466783.43446
  21500841.539 6   -227602.367 6   -157997.10547  21500837.63747
  22904521.789 1   -173463.285 1   -117969.47745  22904527.66845
  20125673.242 7   -297597.805 7   -218364.72749  20125672.20749
  23507971.797 1   -120143.953 1    -80260.41445  23507968.09845
 20  5 16  1 39 29.0000000  0  7G04G08G11G16G26G27G31                0.000063639
  21438088.719 6   -309106.230 6   -223779.16047  21438086.91047
  20729126.938 7   -509022.453 7   -370787.16049  20729126.37149
  23465444.250 5   -673435.051 5   -440196.26646  23465441.72746
  21500382.430 6   -230014.793 6   -159876.92647  21500378.85247
  22904157.805 1   -175376.445 1   -119460.23045  22904163.45745
  20125091.805 7   -300654.859 7   -220746.85249  20125090.46149
  23507740.914 1   -121355.160 1    -81204.23445  23507737.18045
 20  5 16  1 39 30.0000000  0  7G04G08G11G16G26G27G31                0.000061331
  21437490.906 6   -312245.527 6   -226225.36747  21437489.38347
  20728140.070 7   -514209.012 7   -374828.63349  20728139.81349
  23464102.422 5   -680485.609 5   -445690.20346  23464100.02746
  21499923.344 6   -232427.313 6   -161756.82047  21499919.99247
  22903792.789 1   -177289.590 1   -120950.98845  22903799.71545
  20124509.773 7   -303711.492 7   -223128.64549  20124508.82049
  23507510.898 1   -122566.242 1    -82147.90245  23507506.58645
 20  5 16  1 39 31.0000000  0  7G04G08G11G16G26G27G31                0.000059023
  21436894.234 6   -315384.238 6   -228671.11347  21436892.62147
  20727153.086 7   -519395.094 7   -378869.73049  20727152.87149
  23462761.094 5   -687536.168 5   -451184.14546  23462758.48846
  21499464.414 6   -234839.820 6   -163636.69947  21499460.63347
  22903428.797 1   -179203.000 1   -122441.99245  22903435.51645
  20123928.586 7   -306767.559 7   -225509.99249  20123927.13349
  23507280.031 1   -123777.109 1    -83091.42645  23507276.04345
 20  5 16  1 39 32.0000000  0  7G04G08G11G16G26G27G31                0.000056715
  21436296.992 6   -318522.551 6   -231116.55147  21436295.41447
  20726166.258 7   -524580.820 7   -382910.55549  20726165.80549
  23461419.617 5   -694586.824 5   -456678.14846  23461416.88746
  21499005.266 6   -237252.457 6   -165516.66847  21499001.78547
  22903063.172 1   -181116.484 1   -123933.03145  22903071.08245
  20123346.703 7   -309823.211 7   -227891.02049  20123345.55549
  23507050.047 1   -124987.902 1    -84034.91445  23507045.53545
 20  5 16  1 39 33.0000000  0  7G04G08G11G16G26G27G31                0.000054407
  21435699.680 6   -321660.234 6   -233561.50047  21435698.40247
  20725179.406 7   -529765.957 7   -386950.92649  20725179.10949
  23460077.234 5   -701637.367 5   -462172.07046  23460075.27046
  21498545.914 6   -239665.000 6   -167396.57847  21498542.59047
  22902699.289 1   -183029.984 1   -125424.05945  22902706.85945
  20122765.273 7   -312878.242 7   -230271.56349  20122764.40249
  23506818.445 1   -126198.367 1    -84978.13745  23506815.36745
 20  5 16  1 39 34.0000000  0  7G04G08G11G16G26G27G31                0.000052099
  21435102.883 6   -324797.406 6   -236006.05147  21435101.45347
  20724192.844 7   -534950.645 7   -390990.94549  20724192.93849
  23458735.945 5   -708687.906 5   -467666.00046  23458733.50846
  21498087.102 6   -242077.551 6   -169276.48847  21498083.52347
  22902335.266 1   -184943.633 1   -126915.21545  22902342.84845
  20122184.617 7   -315932.766 7   -232651.71149  20122183.27749
  23506588.891 1   -127408.629 1    -85921.24245  23506584.45745
 20  5 16  1 39 35.0000000  0  7G04G08G11G16G26G27G31                0.000049791
  21434506.352 6   -327934.090 6   -238450.22347  21434504.62547
  20723206.570 7   -540134.918 7   -395030.63749  20723206.11349
  23457394.188 5   -715738.527 5   -473159.98446  23457392.00446
  21497628.023 6   -244490.184 6   -171156.45747  21497624.39547
  22901971.742 1   -186857.320 1   -128406.37545  22901978.39145
  20121603.070 7   -318986.805 7   -235031.48049  20121602.14849
  23506359.023 1   -128618.852 1    -86864.28145  23506354.39845
 20  5 16  1 39 36.0000000  0  7G04G08G11G16G26G27G31                0.000047483
  21433909.547 6   -331070.277 6   -240894.00847  21433907.62147
  20722219.563 6   -545318.734 6   -399069.96949  20722219.55149
  23456051.969 5   -722789.113 5   -478653.95746  23456050.17646
  21497168.805 6   -246902.836 6   -173036.44947  21497165.49247
  22901607.445 1   -188771.199 1   -129897.69145  22901614.09845
  20121022.063 7   -322040.340 7   -237410.85949  20121020.85249
  23506128.727 1   -129828.883 1    -87807.17245  23506124.48845
 20  5 16  1 39 37.0000000  0  8G04G08G11G16G21G26G27G31             0.000045176
  21433312.664 6   -334206.047 6   -243337.46947  21433310.54347
  20721233.266 7   -550502.195 7   -403109.02749  20721233.07449
  23454710.195 5   -729839.785 5   -484148.00046  23454708.21946
  21496709.781 6   -249315.609 6   -174916.53947  21496706.50447
  25196070.18012    -24958.69912                
  22901241.750 1   -190685.160 1   -131389.12945  22901249.57845
  20120440.836 7   -325093.441 7   -239789.89849  20120439.83649
  23505898.406 1   -131038.820 1    -88749.93045  23505894.12145
 20  5 16  1 39 38.0000000  0  8G04G08G11G16G21G26G27G31             0.000042887
  21432716.344 6   -337341.203 6   -245780.45747  21432714.06347
  20720246.906 7   -555685.137 7   -407147.68449  20720246.98849
  23453368.758 5   -736890.473 5   -489642.04346  23453366.99246
  21496250.836 6   -251728.375 6   -176796.62547  21496247.15247
  25195749.125 1    -26642.520 1                
  22900879.328 1   -192599.180 1   -132880.59445  22900885.51645
  20119860.367 7   -328145.977 7   -242168.50449  20119859.05549
  23505668.742 1   -132248.457 1    -89692.49645  23505663.99245
 20  5 16  1 39 39.0000000  0  8G04G08G11G16G21G26G27G31             0.000040579
  21432118.820 6   -340476.109 6   -248223.23447  21432117.73047
  20719260.898 6   -560867.805 6   -411186.12949  20719260.61349
  23452027.508 5   -743941.336 5   -495136.22346  23452025.10246
  21495792.281 6   -254141.355 6   -178676.86347  21495788.23047
  25195430.992 2    -28326.313 2                
  22900514.984 1   -194513.543 1   -134372.30945  22900521.12145
  20119279.789 7   -331198.227 7   -244546.87949  20119278.27049
  23505437.813 1   -133458.156 1    -90635.10945  23505433.48445
 20  5 16  1 39 40.0000000  0  8G04G08G11G16G21G26G27G31             0.000038271
  21431522.648 6   -343610.402 6   -250665.54747  21431521.14547
  20718274.844 7   -566049.938 7   -415224.15249  20718274.48049
  23450685.273 5   -750992.168 5   -500630.37746  23450683.18446
  21495332.398 6   -256554.277 6   -180557.06347  21495329.21147
  25195110.227 2    -30009.762 2                
  22900150.148 1   -196427.852 1   -135863.95345  22900156.96945
  20118698.664 7   -334249.852 7   -246924.77049  20118697.73449
  23505207.883 1   -134667.566 1    -91577.48445  23505203.48845
 20  5 16  1 39 41.0000000  0  8G04G08G11G16G21G26G27G31             0.000035963
  21430926.898 6   -346744.105 6   -253107.39547  21430924.98047
  20717288.664 6   -571231.535 6   -419261.76649  20717288.72349
  23449344.219 5   -758042.855 5   -506124.41446  23449341.46546
  21494873.305 6   -258967.129 6   -182437.19547  21494869.75847
  25194789.430 2    -31692.813 2                
  22899786.320 1   -198342.215 1   -137355.67645  22899792.35945
  20118118.258 7   -337300.930 7   -249302.23449  20118116.75449
  23504977.063 1   -135876.816 1    -92519.78545  23504973.39845
 20  5 16  1 39 42.0000000  0  8G04G08G11G16G21G26G27G31             0.000033653
  21430330.602 6   -349877.387 6   -255548.91447  21430328.83647
  20716302.914 7   -576412.785 7   -423299.10249  20716302.62149
  23448002.359 5   -765093.703 5   -511618.57046  23447999.69546
  21494414.242 6   -261380.141 6   -184317.46947  21494411.03547
  25194468.633 2    -33375.633 2                
  22899423.000 1   -200256.797 1   -138847.57845  22899428.09445
  20117537.602 7   -340351.563 7   -251679.35249  20117536.42649
  23504746.695 1   -137085.879 1    -93461.94545  23504743.73445
 20  5 16  1 39 43.0000000  0  8G04G08G11G16G21G26G27G31             0.000031345
  21429734.180 6   -353010.234 6   -257990.09847  21429732.33647
  20715317.133 7   -581593.605 7   -427336.10549  20715316.79349
  23446660.734 5   -772144.586 5   -517112.75446  23446658.00046
  21493955.250 6   -263793.215 6   -186197.79747  21493951.73047
  25194148.836 1    -35058.281 1                
  22899058.891 1   -202171.539 1   -140339.59045  22899063.54345
  20116957.219 7   -343401.738 7   -254056.11349  20116956.32849
  23504516.883 1   -138294.797 1    -94403.98045  23504513.29745
 20  5 16  1 39 44.0000000  0  8G04G08G11G16G21G26G27G31             0.000029036
  21429138.398 6   -356142.617 6   -260430.91847  21429136.57447
  20714331.148 6   -586774.051 6   -431372.80949  20714330.87549
  23445319.000 5   -779195.559 5   -522607.01646  23445316.52746
  21493495.758 6   -266206.391 6   -188078.19947  21493492.51647
  25193829.219 2    -36740.609 2                
  22898694.547 1   -204086.457 1   -141831.74645  22898699.21145
  20116376.781 7   -346451.500 7   -256432.55149  20116375.69149
  23504285.25811                    -95346.02355  23504283.61755
 20  5 16  1 39 45.0000000  0  8G04G08G11G16G21G26G27G31             0.000026728
  21428542.211 6   -359274.398 6   -262871.27047  21428540.69547
  20713345.711 7   -591953.934 7   -435409.07849  20713345.71149
  23443977.172 5   -786246.445 5   -528101.23046  23443974.70746
  21493036.758 6   -268619.496 6   -189958.53947  21493033.04747
  25193509.961 1    -38422.613 1                
  22898330.734 2   -206001.355 2   -143323.88345  22898334.55945
  20115796.742 7   -349500.637 7   -258808.49649  20115795.58249
  23504055.141 1   -140712.281 1    -96287.71545  23504053.21945
 20  5 16  1 39 46.0000000  0  8G04G08G11G16G21G26G27G31             0.000024420
  21427946.461 6   -362405.738 6   -265311.26247  21427944.73047
  20712359.844 6   -597133.414 6   -439445.03949  20712359.68849
  23442635.570 5   -793297.391 5   -533595.48446  23442633.04746
  21492577.484 6   -271032.688 6   -191838.94147  21492574.27047
  25193189.852 1    -40104.336 1                
  22897966.492 2   -207916.395 2   -144816.10945  22897969.70345
  20115216.430 7   -352549.324 7   -261184.09849  20115215.24249
  23503827.656 1   -141920.801 1    -97229.43445  23503823.41045
 20  5 16  1 39 47.0000000  0  8G04G08G11G16G21G26G27G31             0.000022110
  21427350.727 6   -365536.512 6   -267750.83247  21427348.93847
  20711374.227 7   -602312.418 7   -443480.63349  20711373.66849
  23441293.352 5   -800348.324 5   -539089.72346  23441291.47746
  21492118.555 6   -273445.859 6   -193719.32847  21492114.60247
  25192870.219 1    -41785.816 1                
  22897603.289 1   -209831.523 1   -146308.41445  22897604.97745
  20114636.422 7   -355597.469 7   -263559.27749  20114635.57049
  23503597.406 1   -143129.043 1    -98170.90245  23503593.86745
 20  5 16  1 39 48.0000000  0  8G04G08G11G16G21G26G27G31             0.000019802
  21426755.172 6   -368666.809 6   -270190.02047  21426753.47347
  20710389.055 7   -607490.984 7   -447515.87549  20710388.60949
  23439951.992 5   -807399.270 5   -544583.96946  23439950.10946
  21491659.039 6   -275859.082 6   -195599.76647  21491655.94947
  25192551.438 1    -43466.938 1                
  22897237.578 2   -211746.719 2   -147800.77045  22897241.07045
  20114056.344 7   -358645.102 7   -265934.05549  20114055.71549
  23503367.156 1   -144337.141 1    -99112.28945  23503363.78945
 20  5 16  1 39 49.0000000  0  8G04G08G11G16G21G26G27G31             0.000017492
  21426159.406 6   -371796.699 6   -272628.89547  21426157.92647
  20709403.570 7   -612669.156 7   -451550.81349  20709403.50049
  23438609.602 5   -814450.348 5   -550078.31646  23438607.61746
  21491199.438 6   -278272.441 6   -197480.30947  21491196.49247
  25192232.227 1    -45147.949 1                
  22896873.289 1   -213662.137 1   -149293.28545  22896876.31345
  20113476.625 7   -361692.352 7   -268308.53549  20113475.03549
  23503136.266 1   -145545.172 1   -100053.62145  23503134.13745
 20  5 16  1 39 50.0000000  0  8G04G08G11G16G21G26G27G31             0.000015182
  21425564.367 6   -374926.059 6   -275067.35947  21425562.80547
  20708417.992 7   -617846.914 7   -455585.43049  20708418.10949
  23437268.016 5   -821501.371 5   -555572.59846  23437266.27346
  21490740.734 6   -280685.832 6   -199360.86747  21490737.14547
  25191912.625 1    -46828.559 1                
  22896508.320 1   -215577.641 1   -150785.87545  22896511.55545
  20112896.648 7   -364739.074 7   -270682.60249  20112895.71549
  23502907.461 1   -146753.102 1   -100994.89145  23502903.93045
 20  5 16  1 39 51.0000000  0  8G04G08G11G16G21G26G27G31             0.000012875
  21424968.586 6   -378054.855 6   -277505.39547  21424967.15647
  20707432.977 7   -623024.133 7   -459619.63349  20707432.72749
  23435926.563 5   -828552.422 5   -561066.93846  23435924.27746
  21490281.305 6   -283099.172 6   -201241.39547  21490277.78147
  25191593.055 1    -48508.844 1                
  22896144.219 2   -217493.223 2   -152278.56645  22896146.65645
  20112317.148 7   -367785.234 7   -273056.23849  20112315.94549
  23502678.070 1   -147960.648 1   -101935.84445  23502673.96945
 20  5 16  1 39 52.0000000  0  8G04G08G11G16G21G26G27G31             0.000010567
  21424373.289 6   -381183.129 6   -279943.01247  21424371.73847
  20706447.883 7   -628200.910 7   -463653.48049  20706447.45349
  23434584.711 5   -835603.426 5   -566561.21146  23434582.63346
  21489822.406 6   -285512.559 6   -203121.96947  21489818.28147
  25191274.195 1    -50188.930 1                
  22895779.313 2   -219408.922 2   -153771.32045  22895781.97345
  20111737.547 7   -370830.879 7   -275429.46549  20111736.69949
  23502447.844 1   -149168.086 1   -102876.71945  23502443.80945
 20  5 16  1 39 53.0000000  0  8G04G08G11G16G21G26G27G31             0.000008257
  21423778.102 6   -384310.941 6   -282380.27747  21423776.38347
  20705462.516 7   -633377.215 7   -467686.97349  20705462.81349
  23433242.828 5   -842654.469 5   -572055.53946  23433241.05546
  21489362.984 6   -287925.984 6   -205002.54747  21489359.58247
  25190954.820 1    -51868.609 1                
  22895414.055 2   -221324.652 2   -155264.11345  22895417.46945
  20111158.203 7   -373876.035 7   -277802.32049  20111157.00049
  23502218.078 1   -150375.367 1   -103817.46945  23502214.10245
 20  5 16  1 39 54.0000000  0  8G04G08G11G16G21G26G27G31             0.000005947
  21423183.148 6   -387438.105 6   -284817.02347  21423180.93847
  20704477.750 7   -638552.988 7   -471720.04349  20704477.45349
  23431900.789 5   -849705.418 5   -577549.78946  23431899.56346
  21488903.563 6   -290339.309 6   -206883.06347  21488900.07447
  25190636.102 1    -53547.973 1                
  22895050.539 2   -223240.402 2   -156756.88345  22895052.87545
