     2.10           OBSERVATION DATA    GPS(GPS)            RINEX VERSION / TYPE
cnvtToRINEX 2.50.0  convertToRINEX OPR  30-May-18 13:33 UTC PGM / RUN BY / DATE 
----------------------------------------------------------- COMMENT             
GI24                                                        MARKER NAME         
GI24                                                        MARKER NUMBER       
GNSS Observer       Trimble                                 OBSERVER / AGENCY   
0440102809          5700                2.32                REC # / TYPE / VERS 
                    TRM39105.00                             ANT # / TYPE        
 -2965928.7357  5005127.2099  2605674.5753                  APPROX POSITION XYZ 
        0.1030        0.0000        0.0000                  ANTENNA: DELTA H/E/N
     1     1     0                                          WAVELENGTH FACT L1/2
     4    C1    L1    L2    P2                              # / TYPES OF OBSERV 
  2018     5    30     0    17   55.0000000     GPS         TIME OF FIRST OBS   
  2018     5    30     1    35   45.0000000     GPS         TIME OF LAST OBS    
     0                                                      RCV CLOCK OFFS APPL 
    17                                                      LEAP SECONDS        
    12                                                      # OF SATELLITES     
   G03   764   757   587   587                              PRN / # OF OBS      
   G08   431   429   428   428                              PRN / # OF OBS      
   G14   935   935   935   935                              PRN / # OF OBS      
   G16   935   935   935   935                              PRN / # OF OBS      
   G21   436   435   357   357                              PRN / # OF OBS      
   G22   784   776   617   617                              PRN / # OF OBS      
   G23   789   778   700   700                              PRN / # OF OBS      
   G26   935   935   935   935                              PRN / # OF OBS      
   G27   935   935   935   935                              PRN / # OF OBS      
   G29   268   254   198   198                              PRN / # OF OBS      
   G31   935   935   935   935                              PRN / # OF OBS      
   G32   742   738   742   742                              PRN / # OF OBS      
CARRIER PHASE MEASUREMENTS: PHASE SHIFTS REMOVED            COMMENT             
                                                            END OF HEADER       
 18  5 30  0 17 55.0000000  0  8G14G16G22G26G27G29G31G32            -0.000495266
  20394919.09416    -75428.60216    -46258.64858  20394916.44558
  20575764.07816   -152171.36716    -89907.03957  20575760.09857
  23442398.81316    -86920.23816    -60264.07057  23442394.79757
  20448554.46117    -80542.34417    -53095.76658  20448554.63758
  22943098.93016   -216423.84416    -89291.43057  22943098.04357
  23327836.19516    -29391.44516    -16275.19557  23327833.35557
  21439477.64117   -106726.62917    -71127.56658  21439474.31358
  22236661.14116    -11836.00816     -8062.99257  22236661.78957
 18  5 30  0 17 59.9990000  0  8G14G16G22G26G27G29G31G32             0.000494383
  20392894.128 6    -86069.918 6    -54550.59048  20392891.42548
  20571800.355 6   -173000.945 6   -106137.88347  20571796.42947
  23440239.886 6    -98268.090 6    -69106.57047  23440235.40547
  20446222.034 7    -92799.789 7    -62647.02748  20446221.74948
  22936521.573 6   -250988.246 6   -116224.71547  22936520.02247
  23326927.440 6    -34168.406 6    -19997.50447  23326924.08147
  21436839.675 7   -120591.246 7    -81931.16848  21436836.11248
  22236348.605 6    -13477.637 6     -9342.19947  22236349.21847
 18  5 30  0 18  4.9990000  0  8G14G16G22G26G27G29G31G32             0.000484016
  20390867.511 6    -96719.723 6    -62849.14148  20390864.74148
  20567834.667 6   -193843.000 6   -122378.44147  20567830.00347
  23438077.495 6   -109630.461 6    -77960.36747  23438073.34347
  20443886.737 7   -105071.828 7    -72209.65648  20443886.84348
  22929939.597 6   -285577.270 6   -143177.19547  22929938.10147
  23326016.073 6    -38955.008 6    -23727.34447  23326013.43747
  21434197.440 7   -134476.840 7    -92751.12148  21434193.83948
  22236034.128 6    -15131.223 6    -10630.71547  22236034.62847
 18  5 30  0 18  9.9990000  0  8G14G16G22G26G27G29G31G32             0.000473639
  20388840.050 6   -107374.531 6    -71151.59448  20388837.45648
  20563866.769 6   -214692.094 6   -138624.49247  20563862.76147
  23435913.011 6   -121003.832 6    -86822.75047  23435909.22647
  20441548.761 7   -117354.715 7    -81780.73848  20441549.09748
  22923354.440 6   -320182.633 6   -170142.42247  22923353.16347
  23325103.870 6    -43749.051 6    -27462.95747  23325101.10147
  21431552.175 7   -148379.297 7   -103584.21148  21431548.15148
  22235718.206 6    -16795.129 6    -11927.28547  22235718.30047
 18  5 30  0 18 14.9990000  0  8G14G16G22G26G27G29G31G32             0.000463247
  20386811.901 6   -118032.961 6    -79456.86748  20386808.78848
  20559898.417 6   -235546.816 6   -154874.94547  20559894.69047
  23433747.073 6   -132386.793 6    -95692.58247  23433742.76547
  20439210.120 7   -129647.031 7    -91359.16848  20439209.93748
  22916766.136 5   -354802.930 5   -197119.27747  22916764.98747
  23324190.058 6    -48549.137 6    -31203.30947  23324187.60147
  21428903.480 7   -162297.238 7   -114429.36748  21428900.45248
  22235399.394 6    -18467.957 6    -13230.79347  22235399.49947
 18  5 30  0 18 19.9990000  0  9G03G14G16G22G26G27G29G31G32          0.000452845
  23588222.08912    -86954.39112                
  20384783.269 6   -128693.395 6    -87763.69548  20384780.59748
  20555929.487 6   -256405.402 6   -171128.38747  20555924.98347
  23431579.534 6   -143777.629 6   -104568.55947  23431575.17147
  20436869.519 7   -141947.121 7   -100943.65248  20436869.40148
  22910175.019 5   -389436.508 5   -224106.46147  22910174.64747
  23323276.112 6    -53353.473 6    -34946.96147  23323273.56947
  21426252.526 7   -176228.941 7   -125285.25048  21426249.28848
  22235079.456 6    -20148.016 6    -14539.94147  22235079.81947
 18  5 30  0 18 24.9990000  0  9G03G14G16G22G26G27G29G31G32          0.000442434
  23585304.956 2   -102284.688 2                
  20382754.339 6   -139355.242 6    -96071.63348  20382751.79648
  20551959.511 6   -277267.477 6   -187384.54747  20551955.17947
  23429410.886 6   -155175.871 6   -113450.31347  23429406.35547
  20434527.308 7   -154254.484 7   -110533.80948  20434527.97648
  22903582.214 6   -424082.816 6   -251103.58647  22903581.54647
  23322360.933 6    -58161.688 6    -38693.62547  23322358.05447
  21423598.745 7   -190173.988 7   -136151.52348  21423594.95248
  22234759.284 6    -21834.867 6    -15854.37547  22234758.29247
 18  5 30  0 18 29.9990000  0  9G03G14G16G22G26G27G29G31G32          0.000432014
  23582386.534 2   -117617.152 2                
  20380725.300 7   -150017.211 7   -104379.67648  20380722.72648
  20547988.847 6   -298131.688 6   -203642.38747  20547985.07747
  23427240.878 6   -166580.215 6   -122336.84047  23427236.43347
  20432184.206 7   -166567.859 7   -120128.65248  20432184.52248
  22896987.511 6   -458740.531 6   -278109.60247  22896986.40547
  23321445.081 5    -62972.492 5    -42442.30947  23321442.96447
  21420943.003 7   -204131.020 7   -147027.14148  21420939.26948
  22234436.909 6    -23527.176 6    -17173.07047  22234436.59747
 18  5 30  0 18 34.9990000  0  9G03G14G16G22G26G27G29G31G32          0.000421585
  23579470.081 2   -132952.266 2                
  20378696.730 7   -160679.820 7   -112688.20748  20378693.10148
  20544018.331 6   -318998.531 6   -219902.27047  20544014.36647
  23425068.753 6   -177991.176 6   -131228.50047  23425064.41347
  20429839.714 7   -178887.730 7   -129728.54748  20429840.32348
  22890389.339 6   -493410.160 6   -305124.88347  22890389.41747
  23320529.659 6    -67786.387 6    -46193.40247  23320527.17547
  21418284.495 7   -218100.535 7   -157912.48448  21418281.09348
  22234113.659 6    -25225.473 6    -18496.41047  22234113.24147
 18  5 30  0 18 39.9990000  0  9G03G14G16G22G26G27G29G31G32          0.000411146
  23576549.472 1   -148289.105 1                
  20376667.651 7   -171342.059 7   -120996.45348  20376664.12448
  20540047.198 6   -339867.020 6   -236163.43847  20540043.09747
  23422897.159 6   -189407.773 6   -140124.55547  23422891.84747
  20427494.558 7   -191213.063 7   -139332.70349  20427494.86249
  22883790.128 5   -528090.633 5   -332148.63347  22883789.71047
  23319612.651 6    -72602.313 6    -49946.07847  23319610.39447
  21415623.800 7   -232081.516 7   -168806.76248  21415620.64748
  22233789.683 6    -26928.738 6    -19823.64847  22233788.70247
 18  5 30  0 18 44.9990000  0  9G03G14G16G22G26G27G29G31G32          0.000400700
  23573631.776 1   -163627.031 1                
  20374638.487 6   -182003.363 6   -129303.96948  20374635.22648
  20536075.612 6   -360736.633 6   -252425.48047  20536071.75347
  23420722.753 6   -200829.457 6   -149024.57447  23420718.31547
  20425147.808 7   -203543.375 7   -148940.73049  20425148.48349
  22877189.230 4   -562781.522 4   -359180.49047  22877188.34347
  23318696.183 6    -77419.789 6    -53699.96547  23318693.54647
  21412961.323 7   -246073.406 7   -179709.54748  21412957.93748
  22233464.339 6    -28636.445 6    -21154.32847  22233464.06547
 18  5 30  0 18 49.9990000  0  9G03G14G16G22G26G27G29G31G32          0.000390245
  23570712.784 1   -178965.910 1                
  20372610.558 6   -192663.594 6   -137610.66048  20372607.11648
  20532103.737 6   -381607.109 6   -268688.19547  20532100.12447
  23418549.065 6   -212256.039 6   -157928.40647  23418544.16747
  20422801.034 7   -215878.445 7   -158552.48048  20422801.73048
  22870585.206 5   -597482.383 5   -386220.10947  22870584.68747
  23317779.378 6    -82238.605 6    -57454.89847  23317776.65947
  21410296.597 7   -260076.023 7   -190620.68048  21410293.39048
  22233139.261 6    -30348.367 6    -22488.30947  22233138.43347
 18  5 30  0 18 54.9990000  0  9G03G14G16G22G26G27G29G31G32          0.000379782
  23567792.792 2   -194305.387 2                
  20370582.230 7   -203322.375 7   -145916.20348  20370578.21448
  20528132.792 6   -402478.180 6   -284951.36747  20528128.47247
  23416373.542 6   -223687.234 6   -166835.85947  23416368.76147
  20420453.034 7   -228217.973 7   -168167.69149  20420453.31249
  22863979.933 5   -632193.078 5   -413267.41447  22863979.30047
  23316861.839 6    -87058.406 6    -61210.62147  23316860.14047
  21407629.956 7   -274088.988 7   -201539.87948  21407626.59348
  22232812.276 6    -32064.266 6    -23825.37547  22232811.53047
 18  5 30  0 18 59.9990000  0  9G03G14G16G22G26G27G29G31G32          0.000369308
  23564872.597 1   -209644.910 1                
  20368553.792 7   -213979.148 7   -154220.19548  20368550.48748
  20524160.808 6   -423349.270 6   -301214.55547  20524157.02247
  23414197.089 6   -235122.473 6   -175746.43447  23414192.89447
  20418103.745 7   -240561.387 7   -177785.94549  20418104.25749
  22857373.409 5   -666912.980 5   -440321.87947  22857372.11247
  23315944.433 5    -91878.723 5    -64966.71547  23315942.72247
  21404961.433 7   -288111.781 7   -212466.74248  21404958.40948
  22232485.331 6    -33783.543 6    -25165.07447  22232484.64447
 18  5 30  0 19  4.9990000  0  9G03G14G16G22G26G27G29G31G32          0.000358829
  23561953.401 1   -224983.980 1                
  20366526.573 7   -224633.438 7   -162522.24248  20366522.95648
  20520189.503 6   -444219.770 6   -317477.29747  20520185.44447
  23412020.230 6   -246561.230 6   -184659.76247  23412015.81247
  20415754.386 7   -252908.199 7   -187406.84449  20415754.57749
  22850764.472 5   -701641.512 5   -467383.06647  22850763.71447
  23315027.339 6    -96698.992 6    -68722.78147  23315025.82347
  21402291.355 7   -302143.879 7   -223400.85248  21402287.81248
  22232157.323 6    -35505.664 6    -26507.00047  22232156.69047
 18  5 30  0 19  9.9990000  0  9G03G14G16G22G26G27G29G31G32          0.000348343
  23559037.105 1   -240322.590 1                
  20364499.565 7   -235285.199 7   -170822.31648  20364496.12448
  20516217.823 6   -465089.801 6   -333739.65647  20516213.83947
  23409842.940 6   -258003.512 6   -193575.82447  23409839.03447
  20413404.362 7   -265258.367 7   -197030.35549  20413405.03449
  22844154.151 5   -736378.680 5   -494450.99647  22844153.19447
  23314110.315 6   -101519.227 6    -72478.81347  23314108.36647
  21399619.276 7   -316185.230 7   -234342.16448  21399615.85548
  22231829.214 6    -37230.676 6    -27851.16847  22231828.74547
 18  5 30  0 19 14.9990000  0  9G03G14G16G22G26G27G29G31G32          0.000337851
  23556117.925 1   -255660.051 1                
  20362473.081 6   -245933.777 6   -179119.91448  20362469.59748
  20512247.401 6   -485958.660 6   -350001.09847  20512242.69847
  23407665.237 6   -269448.660 6   -202494.11747  23407660.74547
  20411053.862 7   -277611.273 7   -206655.99249  20411054.32749
  22837542.683 6   -771123.813 6   -521525.12547  22837541.51947
  23313193.378 6   -106338.785 6    -76234.32047  23313191.51547
  21396945.737 7   -330235.219 7   -245290.21548  21396942.05048
  22231500.597 6    -38957.891 6    -29197.05147  22231499.92547
 18  5 30  0 19 19.9990000  0  9G03G14G16G22G26G27G29G31G32          0.000327349
  23553200.362 1   -270996.063 1                
  20360447.433 6   -256578.820 6   -187414.75848  20360443.72248
  20508276.222 6   -506825.965 6   -366261.33647  20508271.53847
  23405486.300 5   -280896.363 5   -211414.39846  23405482.89446
  20408702.597 7   -289966.559 7   -216283.48849  20408702.81249
  22830928.823 5   -805876.535 5   -548605.16847  22830928.24547
  23312275.620 6   -111157.293 6    -79989.03547  23312274.42147
  21394270.362 7   -344293.453 7   -256244.69548  21394266.87848
  22231171.862 6    -40686.969 6    -30544.40247  22231171.22247
 18  5 30  0 19 24.9990000  0  9G03G14G16G22G26G27G29G31G32          0.000316841
  23550283.112 1   -286330.484 1                
  20358422.808 7   -267220.195 7   -195706.73448  20358419.12048
  20504305.206 6   -527691.676 6   -382520.32847  20504300.78047
  23403307.815 5   -292346.453 5   -220336.54746  23403303.56946
  20406351.042 7   -302324.113 7   -225912.75449  20406351.43349
  22824314.331 5   -840636.672 5   -575691.00447  22824313.65547
  23311359.401 6   -115974.684 6    -83742.84447  23311358.18347
  21391593.815 7   -358359.828 7   -267205.50048  21391590.17948
  22230842.339 6    -42417.809 6    -31893.11347  22230841.97247
 18  5 30  0 19 29.9990000  0  8G14G16G22G26G27G29G31G32             0.000306330
  20356398.605 7   -277857.711 7   -203995.73448  20356394.96848
  20500335.401 6   -548555.539 6   -398777.85947  20500330.31247
  23401128.589 4   -303798.750 4   -229260.46146  23401124.37446
  20403998.831 7   -314683.766 7   -235543.65649  20403999.42949
  22817698.151 5   -875404.055 5   -602782.46947  22817697.83547
  23310443.097 6   -120790.684 6    -87495.55547  23310441.17147
  21388915.362 7   -372434.133 7   -278172.47348  21388911.96848
  22230512.870 6    -44150.230 6    -33243.04347  22230512.67547
 18  5 30  0 19 34.9990000  0  8G14G16G22G26G27G29G31G32             0.000295809
  20354374.698 6   -288491.320 6   -212281.66048  20354371.37048
  20496365.003 6   -569417.457 6   -415033.93047  20496360.61647
  23398949.183 5   -315253.199 5   -238185.98046  23398945.38246
  20401646.667 7   -327045.391 7   -245176.09849  20401646.94849
  22811081.097 6   -910178.570 6   -629879.49247  22811080.67147
  23309526.792 6   -125605.254 6    -91247.19947  23309525.11647
  21386235.714 7   -386516.234 7   -289145.55948  21386232.19848
  22230183.183 6    -45884.102 6    -34594.14147  22230182.42147
 18  5 30  0 19 39.9990000  0  8G14G16G22G26G27G29G31G32             0.000285282
  20352351.933 6   -299120.129 6   -220563.84448  20352348.81548
  20492396.144 6   -590276.582 6   -431287.80547  20492391.55047
  23396768.675 5   -326708.922 5   -247112.52046  23396765.00746
  20399293.995 7   -339408.141 7   -254809.39849  20399293.98349
  22804462.315 5   -944959.316 5   -656981.35947  22804462.19447
  23308610.456 6   -130417.555 6    -94997.05547  23308609.49547
  21383554.737 7   -400605.309 7   -300124.06648  21383551.00748
  22229853.370 6    -47618.598 6    -35945.70347  22229852.58147
 18  5 30  0 19 44.9990000  0  8G14G16G22G26G27G29G31G32             0.000274750
  20350330.347 7   -309743.711 7   -228841.96948  20350327.42148
  20488427.315 6   -611132.590 6   -447539.24248  20488423.06248
  23394588.550 5   -338165.605 5   -256039.79746  23394584.00746
  20396941.417 7   -351771.664 7   -264443.32049  20396941.20249
  22797842.136 5   -979745.941 5   -684087.82047  22797842.85147
  23307695.761 6   -135227.164 6    -98744.79347  23307693.92147
  21380872.636 7   -414700.961 7   -311107.68848  21380869.04248
  22229522.839 6    -49353.359 6    -37297.47748  22229522.54248
 18  5 30  0 19 49.9990000  0  8G14G16G22G26G27G29G31G32             0.000264212
  20348310.112 6   -320361.863 6   -237115.86748  20348306.72648
  20484459.198 6   -631985.145 6   -463787.96948  20484454.92948
  23392408.706 5   -349622.969 5   -264967.62146  23392403.76946
  20394588.776 7   -364135.688 7   -274077.62149  20394588.39749
  22791222.026 5  -1014538.117 5   -711198.60247  22791222.65547
  23306781.112 6   -140033.957 6   -102490.36347  23306779.46847
  21378189.144 7   -428802.910 7   -322096.21948  21378185.72648
  22229192.511 6    -51088.125 6    -38649.25848  22229192.67148
 18  5 30  0 19 54.9990000  0  8G14G16G22G26G27G29G31G32             0.000253668
  20346290.222 6   -330975.484 6   -245386.21948  20346287.22248
  20480491.230 6   -652835.254 6   -480034.81648  20480487.54648
  23390227.511 5   -361081.973 5   -273896.72746  23390223.07346
  20392235.573 7   -376501.203 7   -283713.09049  20392235.46049
  22784600.394 5  -1049336.820 5   -738314.47747  22784599.90947
  23305866.440 6   -144838.766 6   -106234.37547  23305864.85547
  21375503.933 7   -442912.109 7   -333090.40248  21375500.51548
  22228862.636 6    -52823.879 6    -40001.80548  22228862.27648
 18  5 30  0 19 59.9990000  0  9G03G14G16G22G26G27G29G31G32          0.000243116
  23529870.65113                                
  20344271.495 6   -341583.398 6   -253652.13348  20344268.47248
  20476524.722 6   -673681.672 6   -496278.78948  20476520.88248
  23388046.792 5   -372541.418 5   -282826.17646  23388042.41746
  20389882.300 7   -388867.008 7   -293348.78549  20389882.07349
  22777976.776 5  -1084140.879 5   -765434.50847  22777977.85147
  23304953.230 6   -149640.426 6   -109975.95347  23304951.40147
  21372818.019 7   -457027.410 7   -344089.35248  21372814.22248
  22228532.440 6    -54559.391 6    -41354.16048  22228531.91748
 18  5 30  0 20  4.9990000  0  9G03G14G16G22G26G27G29G31G32          0.000232561
  23526956.073 1    -29394.480 1                
  20342253.886 6   -352186.059 6   -261913.94548  20342250.83148
  20472558.190 6   -694524.836 6   -512520.23448  20472554.21048
  23385866.284 5   -384001.691 5   -291756.27046  23385861.64446
  20387529.440 7   -401233.512 7   -302985.02349  20387529.04649
  22771352.847 5  -1118950.598 5   -792558.97347  22771353.67947
  23304039.612 6   -154439.418 6   -113715.43447  23304038.42947
  21370130.737 7   -471149.172 7   -355093.32048  21370127.12448
  22228202.073 6    -56295.094 6    -42706.67247  22228201.64747
 18  5 30  0 20  9.9990000  0  9G03G14G16G22G26G27G29G31G32          0.000222000
  23524041.386 1    -44703.199 1                
  20340237.206 6   -362782.918 6   -270171.24648  20340234.46448
  20468592.237 6   -715364.254 6   -528758.73848  20468588.40148
  23383685.831 5   -395462.352 5   -300686.66846  23383681.02646
  20385175.730 7   -413600.195 7   -312621.41049  20385175.47649
  22764728.136 5  -1153765.500 5   -819687.48047  22764728.39047
  23303127.323 6   -159235.184 6   -117452.40647  23303126.12847
  21367442.315 7   -485276.871 7   -366101.93048  21367438.79648
  22227871.862 6    -58030.516 6    -44058.96148  22227871.39748
 18  5 30  0 20 14.9990000  0  9G03G14G16G22G26G27G29G31G32          0.000211432
  23521127.581 1    -60008.344 1                
  20338221.667 6   -373374.113 6   -278424.12948  20338218.76948
  20464627.331 6   -736200.008 6   -544994.39548  20464623.37848
  23381504.089 5   -406923.477 5   -309617.40246  23381499.49946
  20382822.550 7   -425967.199 7   -322258.03549  20382822.28049
  22758101.542 5  -1188585.707 5   -846820.10247  22758101.78047
  23302215.550 6   -164027.832 6   -121186.95347  23302214.19047
  21364752.722 7   -499410.629 7   -377115.24648  21364749.05848
  22227541.651 6    -59765.707 6    -45411.06348  22227541.33948
 18  5 30  0 20 19.9990000  0  9G03G14G16G22G26G27G29G31G32          0.000200859
  23518217.956 1    -75309.281 1                
  20336207.276 6   -383959.051 6   -286672.14548  20336204.26548
  20460663.519 6   -757031.473 6   -561226.70748  20460659.63648
  23379323.409 5   -418384.531 5   -318548.11346  23379318.91346
  20380469.190 7   -438333.914 7   -331894.44548  20380468.90548
  22751475.151 5  -1223410.504 5   -873956.31347  22751475.07747
  23301304.026 6   -168816.848 6   -124918.65647  23301302.71047
  21362061.940 7   -513549.855 7   -388132.82048  21362058.24548
  22227211.526 6    -61500.145 6    -46762.58248  22227211.05048
 18  5 30  0 20 24.9990000  0  9G03G14G16G22G26G27G29G31G32          0.000190283
  23515307.534 1    -90605.637 1                
  20334194.480 6   -394537.141 6   -294914.80948  20334191.84348
  20456700.151 6   -777858.172 6   -577455.30148  20456695.94848
  23377142.472 5   -429844.891 5   -327478.26646  23377138.47646
  20378116.183 7   -450699.816 7   -341530.22349  20378115.94849
  22744846.355 5  -1258239.406 5   -901095.73047  22744847.53447
  23300393.011 6   -173601.676 6   -128647.12547  23300392.12447
  21359370.597 7   -527693.996 7   -399154.24248  21359366.73048
  22226881.964 6    -63233.258 6    -48113.07448  22226881.44048
 18  5 30  0 20 29.9990000  0  9G03G14G16G22G26G27G29G31G32          0.000179701
  23512396.190 1   -105897.777 1                
  20332183.300 6   -405108.934 6   -303152.56648  20332179.48348
  20452737.784 6   -798680.559 6   -593680.55148  20452733.81248
  23374962.214 5   -441305.125 5   -336408.34046  23374957.58146
  20375763.089 7   -463065.449 7   -351165.78949  20375762.74549
  22738218.855 5  -1293072.926 5   -928238.77047  22738219.01947
  23299483.315 6   -178382.789 6   -132372.64847  23299482.10847
  21356677.636 7   -541843.570 7   -410179.89548  21356674.16348
  22226552.183 6    -64965.586 6    -49462.95348  22226551.69848
 18  5 30  0 20 34.9990000  0  9G03G14G16G22G26G27G29G31G32          0.000169115
  23509486.940 1   -121185.660 1                
  20330172.542 6   -415674.352 6   -311385.37548  20330169.19848
  20448776.276 6   -819498.621 6   -609902.41048  20448772.32748
  23372781.198 5   -452765.191 5   -345338.28546  23372776.58146
  20373409.980 7   -475430.730 7   -360801.08249  20373409.84749
  22731589.073 5  -1327910.941 5   -955385.28147  22731589.09347
  23298574.792 6   -183160.168 6   -136095.28947  23298573.05847
  21353984.386 7   -555998.430 7   -421209.64848  21353980.75748
  22226223.073 6    -66697.090 6    -50812.19948  22226222.40948
 18  5 30  0 20 39.9990000  0  9G03G14G16G22G26G27G29G31G32          0.000158522
  23506579.628 1   -136469.352 1                
  20328163.136 6   -426233.395 6   -319613.20348  20328159.98348
  20444815.425 6   -840312.395 6   -626120.94548  20444811.19448
  23370599.940 5   -464225.078 5   -354268.05546  23370595.84346
  20371057.144 7   -487795.688 7   -370436.11349  20371057.35849
  22724958.409 5  -1362753.477 5   -982535.31647  22724958.76147
  23297666.378 6   -187933.836 6   -139815.04747  23297664.42147
  21351289.386 7   -570158.625 7   -432243.57448  21351286.01948
  22225893.284 6    -68427.707 6    -52160.73448  22225893.21448
 18  5 30  0 20 44.9990000  0  9G03G14G16G22G26G27G29G31G32          0.000147926
  23503671.886 1   -151747.949 1                
  20326155.136 6   -436785.258 6   -327835.44548  20326151.87048
  20440855.909 6   -861121.020 6   -642335.46548  20440852.08548
  23368419.534 5   -475683.973 5   -363197.07846  23368415.07346
  20368704.230 7   -500159.500 7   -380070.25049  20368703.82349
  22718327.362 5  -1397599.684 5  -1009688.22747  22718327.89447
  23296758.253 6   -192702.953 6   -143531.26647  23296756.68347
  21348593.933 7   -584323.313 7   -443281.00048  21348590.82348
  22225564.105 6    -70156.711 6    -53508.02348  22225564.15148
 18  5 30  0 20 49.9990000  0  9G03G14G16G22G26G27G29G31G32          0.000137323
  23500765.276 1   -167022.113 1                
  20324148.128 6   -447330.566 6   -336052.57048  20324145.45248
  20436896.503 6   -881925.125 6   -658546.44548  20436892.73748
  23366239.683 5   -487142.574 5   -372125.87146  23366234.63646
  20366351.472 7   -512522.773 7   -389703.97349  20366351.39749
  22711695.284 5  -1432450.109 5  -1036844.41847  22711696.17547
  23295851.636 6   -197468.164 6   -147244.42246  23295849.93746
  21345897.159 7   -598493.125 7   -454322.41448  21345894.14448
  22225235.230 6    -71884.711 6    -54854.54348  22225235.50348
 18  5 30  0 20 54.9990000  0  9G03G14G16G22G26G27G29G31G32          0.000126719
  23497859.862 1   -182291.773 1                
  20322143.112 6   -457869.102 6   -344264.42248  20322139.62048
  20432938.870 6   -902724.543 6   -674753.78948  20432934.51948
  23364058.776 5   -498600.645 5   -381054.25046  23364053.98346
  20363999.034 7   -524885.395 7   -399337.17649  20363998.79649
  22705062.917 5  -1467304.668 5  -1064003.81647  22705063.55447
  23294945.769 6   -202229.293 6   -150954.40246  23294943.44446
  21343200.128 7   -612667.918 7   -465367.71148  21343196.85148
  22224906.276 6    -73611.500 6    -56200.10948  22224906.96048
 18  5 30  0 20 59.9990000  0  9G03G14G16G22G26G27G29G31G32          0.000116108
  23494954.112 1   -197555.621 1                
  20320139.159 6   -468399.738 6   -352470.12148  20320136.00348
  20428982.347 6   -923518.129 6   -690956.58248  20428977.62448
  23361878.933 4   -510057.070 4   -389981.34446  23361873.65146
  20361646.753 7   -537246.148 7   -408968.93849  20361646.40949
  22698430.440 5  -1502162.074 5  -1091165.45347  22698430.26547
  23294041.050 6   -206985.199 6   -154660.30946  23294038.94046
  21340501.753 7   -626846.484 7   -476415.93848  21340498.97248
  22224577.894 6    -75335.969 6    -57543.86348  22224578.90948
 18  5 30  0 21  4.9990000  0  9G03G14G16G22G26G27G29G31G32          0.000105492
  23492049.597 1   -212814.371 1                
  20318136.581 6   -478923.008 6   -360670.07848  20318132.92948
  20425026.167 6   -944306.379 6   -707155.21948  20425021.94048
  23359699.050 5   -521512.430 5   -398907.60946  23359694.19446
  20359294.901 7   -549605.590 7   -418599.67649  20359294.87449
  22691795.573 5  -1537022.926 5  -1118329.74647  22691796.26547
  23293136.925 6   -211736.375 6   -158362.52347  23293134.56547
  21337803.214 7   -641029.348 7   -487467.52348  21337800.04248
  22224250.753 6    -77058.633 6    -58886.21948  22224250.49148
 18  5 30  0 21  9.9990000  0  9G03G14G16G22G26G27G29G31G32          0.000094873
  23489148.065 1   -228067.504 1                
  20316135.870 6   -489438.535 6   -368864.00448  20316132.00748
  20421071.120 6   -965088.945 6   -723349.42648  20421067.06548
  23357519.097 4   -532966.227 4   -407832.63346  23357514.54646
  20356943.253 7   -561963.355 7   -428229.09849  20356943.10549
  22685161.870 5  -1571886.813 5  -1145496.42647  22685162.26947
  23292233.542 6   -216482.496 6   -162060.79747  23292231.48347
  21335103.347 7   -655216.152 7   -498522.17648  21335100.28448
  22223922.917 6    -78779.098 6    -60226.84448  22223923.62048
 18  5 30  0 21 14.9990000  0  9G03G14G16G22G26G27G29G31G32          0.000084249
  23486244.878 1   -243315.816 1                
  20314135.933 6   -499947.176 6   -377052.56348  20314132.39048
  20417117.745 7   -985866.648 7   -739539.85248  20417113.35548
  23355339.503 4   -544419.418 4   -416757.22346  23355334.82746
  20354591.894 7   -574320.309 7   -437857.89549  20354591.97649
  22678526.987 5  -1606754.535 5  -1172666.09847  22678526.91747
  23291331.401 6   -221224.383 6   -165755.77746  23291329.24546
  21332402.761 7   -669407.707 7   -509580.53548  21332399.73348
  22223595.839 6    -80498.273 6    -61566.47748  22223596.21048
 18  5 30  0 21 19.9990000  0  9G03G14G16G22G26G27G29G31G32          0.000073622
  23483346.730 1   -258558.484 1                
  20312137.628 6   -510447.871 6   -385234.92648  20312134.23348
  20413165.042 6  -1006638.496 6   -755725.69548  20413160.62048
  23353159.847 4   -555870.949 4   -425680.48046  23353156.71846
  20352240.769 7   -586675.414 7   -447485.24249  20352240.57749
  22671891.839 5  -1641625.059 5  -1199837.93047  22671890.99147
  23290430.003 6   -225961.035 6   -169446.68847  23290428.06547
  21329701.651 7   -683603.012 7   -520641.80548  21329698.28048
  22223269.472 6    -82215.113 6    -62904.28948  22223269.12048
 18  5 30  0 21 24.9990000  0  9G03G14G16G22G26G27G29G31G32          0.000062988
  23480447.636 1   -273795.883 1                
  20310141.003 6   -520941.180 6   -393411.52048  20310137.55048
  20409213.362 7  -1027404.957 7   -771907.35948  20409209.06948
  23350980.972 4   -567321.348 4   -434602.85946  23350977.41346
  20349889.503 7   -599029.195 7   -457111.56349  20349889.48749
  22665255.042 6  -1676498.891 6  -1227012.36347  22665255.17947
  23289528.839 6   -230692.961 6   -173133.91847  23289527.44447
  21326999.511 7   -697802.551 7   -531706.37948  21326996.45648
  22222942.698 6    -83930.117 6    -64240.67248  22222942.93748
 18  5 30  0 21 29.9990000  0  9G03G14G16G22G26G27G29G31G32          0.000052353
  23477548.769 1   -289027.195 1                
  20308145.394 6   -531426.160 6   -401581.64848  20308142.06548
  20405262.495 7  -1048165.250 7   -788084.19948  20405258.78448
  23348803.855 4   -578769.781 4   -443523.72746  23348799.52246
  20347539.206 7   -611380.789 7   -466736.19549  20347539.14749
  22658617.987 5  -1711375.160 5  -1254188.67647  22658618.40947
  23288629.839 6   -235419.375 6   -176816.84446  23288628.13246
  21324296.480 7   -712005.488 7   -542773.60948  21324293.85848
  22222616.550 6    -85642.488 6    -65574.98848  22222617.23048
 18  5 30  0 21 34.9990000  0  9G03G14G16G22G26G27G29G31G32          0.000041714
  23474653.784 1   -304252.105 1                
  20306152.323 6   -541902.676 6   -409745.16048  20306148.02648
  20401313.370 7  -1068919.113 7   -804256.05948  20401309.68348
  23346624.847 4   -590215.988 4   -452442.87146  23346621.32746
  20345189.487 7   -623730.023 7   -476358.96949  20345189.16349
  22651981.339 5  -1746253.625 5  -1281366.73447  22651981.23047
  23287731.956 6   -240139.953 6   -180495.22346  23287729.24546
  21321593.620 7   -726211.555 7   -553843.26648  21321590.41748
  22222291.769 6    -87351.961 6    -66907.05148  22222292.12448
 18  5 30  0 21 39.9990000  0  9G03G14G16G22G26G27G29G31G32          0.000031069
  23471756.901 1   -319471.828 1                
  20304159.722 7   -552371.539 7   -417902.72748  20304156.05448
  20397364.972 7  -1089667.395 7   -820423.54348  20397361.23348
  23344446.792 5   -601660.867 5   -461360.98446  23344443.31946
  20342839.542 7   -636077.719 7   -485980.55949  20342839.32749
  22645343.667 5  -1781135.141 5  -1308547.14147  22645343.11247
  23286834.159 6   -244855.676 6   -184169.82446  23286831.92546
  21318889.433 7   -740421.637 7   -564916.07048  21318886.88248
  22221966.128 6    -89059.445 6    -68237.56648  22221967.09748
 18  5 30  0 21 44.9990000  0  9G03G14G16G22G26G27G29G31G32          0.000020420
  23468863.323 1   -334685.477 1                
  20302169.558 7   -562832.297 7   -426053.96548  20302165.57748
  20393418.003 7  -1110409.625 7   -836586.32448  20393413.99548
  23342269.769 4   -613103.914 4   -470277.64846  23342265.65146
  20340490.136 7   -648423.449 7   -495600.60549  20340490.45249
  22638705.097 5  -1816019.215 5  -1335729.55547  22638705.11647
  23285938.339 6   -249566.035 6   -187840.23846  23285935.59346
  21316184.917 7   -754635.223 7   -575991.59048  21316182.26148
  22221642.042 6    -90764.445 6    -69566.14848  22221643.07748
 18  5 30  0 21 49.9990000  0  8G14G16G22G26G27G29G31G32             0.000009769
  20300180.620 6   -573285.008 6   -434198.94148  20300176.64748
  20389471.839 6  -1131145.844 6   -852744.41448  20389468.17948
  23340092.394 5   -624545.270 5   -479192.98846  23340088.14046
  20338141.230 7   -660767.223 7   -505219.13748  20338141.42948
  22632066.487 5  -1850905.844 5  -1362913.95747  22632066.42147
  23285043.362 6   -254271.047 6   -191506.49246  23285040.23046
  21313478.995 7   -768852.352 7   -587069.87948  21313476.64448
  22221318.284 6    -92467.012 6    -70892.83248  22221318.99548
 18  5 30  0 21 54.9990000  0  9G03G14G16G22G26G27G29G31G32         -0.000000887
  23463073.25311   -365096.11311                
  20298193.276 6   -583729.492 6   -442337.50048  20298188.91348
  20385526.620 6  -1151875.895 6   -868897.70348  20385523.44448
  23337915.831 4   -635984.738 4   -488106.88346  23337911.52646
  20335792.847 7   -673108.918 7   -514836.03948  20335793.08548
  22625427.065 5  -1885794.883 5  -1390100.22747  22625427.24147
  23284149.011 6   -258970.633 6   -195168.50846  23284145.99146
  21310772.972 7   -783072.891 7   -598150.81348  21310770.58548
  22220994.815 6    -94167.004 6    -72217.50048  22220995.23748
 18  5 30  0 21 59.9990000  0  8G14G16G22G26G27G29G31G32            -0.000011547
  20296206.659 6   -594166.566 6   -450470.29348  20296202.74148
  20381583.105 6  -1172600.648 6   -885046.85248  20381579.34348
  23335738.878 4   -647423.191 4   -497019.95346  23335735.14446
  20333444.542 7   -685449.375 7   -524451.98848  20333444.49148
  22618787.870 5  -1920687.207 5  -1417289.06647  22618787.56247
  23283255.565 6   -263665.551 6   -198826.90246  23283252.59346
  21308066.409 7   -797297.676 7   -609235.06648  21308063.97648
  22220670.940 6    -95865.309 6    -73540.84848  22220672.57348
 18  5 30  0 22  4.9990000  0  8G14G16G22G26G27G29G31G32            -0.000022209
  20294222.612 6   -604594.160 6   -458595.68848  20294218.55848
  20377640.823 6  -1193317.988 6   -901190.25848  20377637.37448
  23333562.417 4   -658858.504 4   -505930.60946  23333558.33146
  20331096.659 7   -697786.512 7   -534065.34049  20331097.02249
  22612147.761 5  -1955580.574 5  -1444478.74247  22612147.80047
  23282362.776 6   -268353.773 6   -202480.05146  23282360.65146
  21305359.456 7   -811524.559 7   -620320.94548  21305356.56248
  22220349.081 6    -97559.758 6    -74861.22348  22220350.12448
 18  5 30  0 22  9.9990000  0  8G14G16G22G26G27G29G31G32            -0.000032877
  20292239.855 7   -615013.738 7   -466714.84448  20292236.21448
  20373699.222 6  -1214029.395 6   -917329.01248  20373696.22648
  23331387.394 4   -670292.172 4   -514839.97746  23331382.70646
  20328749.370 7   -710121.789 7   -543677.25049  20328749.60849
  22605507.362 5  -1990476.535 5  -1471670.40247  22605507.33547
  23281471.761 6   -273036.684 6   -206129.07846  23281468.84346
  21302651.253 7   -825755.066 7   -631409.65248  21302648.36248
  22220026.964 6    -99251.914 6    -76179.78148  22220028.17948
 18  5 30  0 22 14.9990000  0  8G14G16G22G26G27G29G31G32            -0.000043547
  20290259.472 6   -625423.258 6   -474826.15648  20290255.34348
  20369759.815 6  -1234732.840 6   -933461.55148  20369756.65148
  23329212.190 4   -681722.133 4   -523746.42246  23329207.29246
  20326402.737 7   -722453.188 7   -553286.11748  20326402.60148
  22598866.956 5  -2025372.992 5  -1498862.44547  22598866.68347
  23280582.370 6   -277712.406 6   -209772.50846  23280579.15946
  21299942.769 7   -839987.059 7   -642499.52348  21299940.10848
  22219706.245 6   -100939.656 6    -77494.90648  22219706.96448
 18  5 30  0 22 19.9990000  0  8G14G16G22G26G27G29G31G32            -0.000054220
  20288280.222 6   -635821.230 6   -482928.48448  20288276.58548
  20365821.519 6  -1255426.785 6   -949586.71948  20365818.11248
  23327038.081 4   -693146.941 4   -532648.88746  23327033.42546
  20324057.753 7   -734779.176 7   -562890.79349  20324057.02249
  22592226.112 5  -2060268.422 5  -1526053.68447  22592226.83547
  23279694.456 6   -282379.328 6   -213409.09846  23279690.62046
  21297234.690 7   -854219.016 7   -653589.35548  21297231.82348
  22219385.644 6   -102621.563 6    -78805.47748  22219386.51948
 18  5 30  0 22 24.9990000  0  8G14G16G22G26G27G29G31G32            -0.000064896
  20286302.987 6   -646211.512 6   -491024.81348  20286299.81948
  20361884.753 6  -1276115.125 6   -965707.50048  20361881.24148
  23324863.956 4   -704570.418 4   -541550.30946  23324858.90146
  20321712.339 7   -747103.668 7   -572494.29348  20321711.91348
  22585585.237 5  -2095166.660 5  -1553247.10547  22585585.73047
  23278807.042 5   -287041.398 5   -217041.90246  23278803.81546
  21294525.847 7   -868454.898 7   -664682.25848  21294523.01148
  22219066.362 6   -104301.449 6    -80114.48848  22219067.27648
 18  5 30  0 22 29.9990000  0  8G14G16G22G26G27G29G31G32            -0.000075577
  20284327.065 6   -656595.613 6   -499116.32448  20284323.70648
  20357948.511 6  -1296799.332 6   -981825.07448  20357945.44048
  23322690.503 4   -715994.160 4   -550451.96146  23322685.91746
  20319367.050 7   -759428.129 7   -582097.76649  20319366.55049
  22578943.417 5  -2130069.266 5  -1580443.93447  22578943.75347
  23277921.011 5   -291700.102 5   -220672.06346  23277917.30846
  21291815.573 7   -882696.242 7   -675779.41448  21291812.68748
  22218746.839 6   -105980.848 6    -81423.11748  22218747.36648
 18  5 30  0 22 34.9990000  0  8G14G16G22G26G27G29G31G32            -0.000086264
  20282352.159 6   -666973.621 6   -507203.07848  20282348.82348
  20354013.644 6  -1317479.527 6   -997939.51248  20354009.78448
  23320516.901 4   -727418.137 4   -559353.77346  23320512.14046
  20317021.745 7   -771752.695 7   -591701.33249  20317021.44049
  22572301.128 5  -2164975.883 5  -1607643.90646  22572300.74146
  23277034.323 5   -296355.504 5   -224299.64546  23277031.21446
  21289104.534 7   -896943.086 7   -686880.85248  21289101.52648
  22218427.355 6   -107659.848 6    -82731.43048  22218428.23048
 18  5 30  0 22 39.9990000  0  9G14G16G22G23G26G27G29G31G32         -0.000096952
  20280378.183 6   -677345.020 6   -515284.69948  20280375.33948
  20350079.097 7  -1338155.152 7  -1014050.38748  20350075.72648
  23318342.605 4   -738841.895 4   -568255.41046  23318338.56546
  24232313.72211   -536343.84811                
  20314676.534 7   -784076.789 7   -601304.52049  20314675.90149
  22565657.940 5  -2199886.465 5  -1634846.56647  22565658.55047
  23276149.112 5   -301007.121 5   -227924.28146  23276146.22246
  21286392.815 7   -911194.895 7   -697986.15648  21286389.22648
  22218107.667 6   -109337.918 6    -84039.02748  22218107.86248
 18  5 30  0 22 44.9990000  0  9G14G16G22G23G26G27G29G31G32         -0.000107647
  20278406.042 6   -687708.867 6   -523360.42248  20278402.92148
  20346145.597 6  -1358825.352 6  -1030157.03548  20346141.97248
  23316169.347 3   -750264.516 3   -577156.16846  23316164.56246
  24225847.151 2   -570324.918 2                
  20312331.495 7   -796399.590 7   -610906.69949  20312331.14449
  22559014.464 5  -2234800.188 5  -1662052.15647  22559013.70647
  23275264.683 5   -305654.066 5   -231545.27046  23275261.60846
  21283679.987 7   -925450.754 7   -709094.62548  21283676.78448
  22217789.370 6   -111014.211 6    -85345.23448  22217789.54648
 18  5 30  0 22 49.9990000  0  9G14G16G22G23G26G27G29G31G32         -0.000118347
  20276435.730 6   -698064.152 6   -531429.48048  20276432.86248
  20342213.730 6  -1379489.105 6  -1046258.66448  20342209.61648
  23313994.987 4   -761685.082 4   -586055.31346  23313991.51146
  24219380.542 2   -604309.227 2                
  20309986.878 7   -808720.051 7   -620507.05949  20309986.53049
  22552369.894 5  -2269715.777 5  -1689259.03947  22552368.72247
  23274381.862 5   -310295.355 5   -235161.90646  23274378.46046
  21280966.565 7   -939709.605 7   -720205.41448  21280963.12448
  22217470.620 6   -112687.680 6    -86649.24248  22217471.28448
 18  5 30  0 22 54.9990000  0  9G14G16G22G23G26G27G29G31G32         -0.000129051
  20274466.542 6   -708412.340 6   -539493.00448  20274463.31948
  20338282.511 6  -1400147.848 6  -1062356.37948  20338278.35548
  23311822.964 3   -773104.992 3   -594953.98046  23311818.66346
  24212911.831 2   -638298.301 2                
  20307642.511 7   -821039.617 7   -630106.71949  20307642.48049
  22545724.948 5  -2304634.766 5  -1716468.63747  22545724.24147
  23273499.183 5   -314932.363 5   -238775.14546  23273496.00746
  21278252.198 7   -953972.898 7   -731319.67648  21278249.05848
  22217152.237 6   -114359.789 6    -87952.19548  22217153.01948
 18  5 30  0 22 59.9990000  0  9G14G16G22G23G26G27G29G31G32         -0.000139759
  20272498.831 6   -718753.473 6   -547551.02348  20272495.90548
  20334352.058 7  -1420801.602 7  -1078450.20748  20334348.13248
  23309649.440 4   -784524.277 4   -603852.09046  23309645.76546
  24206442.800 2   -672292.137 2                
  20305298.542 7   -833358.363 7   -639705.75049  20305298.30849
  22539079.417 5  -2339557.160 5  -1743680.87547  22539078.40147
  23272616.855 4   -319565.191 4   -242385.14546  23272614.56246
  21275536.964 7   -968240.703 7   -742437.44548  21275534.03848
  22216834.589 6   -116030.609 6    -89254.14148  22216835.24548
 18  5 30  0 23  4.9990000  0  9G14G16G22G23G26G27G29G31G32         -0.000150471
  20270532.480 6   -729085.652 6   -555602.08248  20270529.58148
  20330422.784 6  -1441448.504 6  -1094538.70748  20330419.33948
  23307476.730 4   -795941.074 4   -612748.34846  23307473.56946
  24199973.948 2   -706288.785 2                
  20302954.698 7   -845674.383 7   -649302.64848  20302954.36248
  22532433.948 5  -2374480.969 5  -1770894.23047  22532432.84747
  23271736.042 5   -324191.930 5   -245990.37546  23271733.86246
  21272821.651 7   -982511.090 7   -753557.23048  21272818.47648
  22216517.667 6   -117698.238 6    -90553.60548  22216517.86248
 18  5 30  0 23  9.9990000  0  9G14G16G22G23G26G27G29G31G32         -0.000161186
  20268567.667 6   -739409.449 6   -563646.60948  20268565.02248
  20326495.230 6  -1462089.133 6  -1110622.31348  20326491.07748
  23305304.995 4   -807355.906 4   -621643.01646  23305300.81246
  24193504.331 2   -740288.656 2                
  20300611.526 7   -857988.266 7   -658897.88749  20300611.20649
  22525787.761 5  -2409406.777 5  -1798109.13347  22525786.21447
  23270856.940 5   -328813.172 5   -249591.35246  23270854.30046
  21270105.644 7   -996784.668 7   -764679.50448  21270102.20248
  22216200.940 6   -119363.207 6    -91851.00048  22216200.76148
 18  5 30  0 23 14.9990000  0  9G14G16G22G23G26G27G29G31G32         -0.000171907
  20266604.847 6   -749725.703 6   -571685.25848  20266601.53848
  20322568.628 6  -1482724.297 6  -1126701.67248  20322564.55448
  23303133.050 4   -818769.664 4   -630536.85946  23303129.14746
  24187033.284 2   -774292.820 2                
  20298268.401 7   -870300.836 7   -668492.11349  20298268.30449
  22519141.151 5  -2444335.387 5  -1825326.25047  22519140.11247
  23269978.292 5   -333429.746 5   -253188.69946  23269976.17946
  21267388.558 7  -1011062.191 7   -775804.85548  21267384.98348
  22215884.347 6   -121026.441 6    -93147.05148  22215884.04248
 18  5 30  0 23 19.9990000  0  9G14G16G22G23G26G27G29G31G32         -0.000182632
  20264642.323 6   -760036.844 6   -579719.91848  20264639.46848
  20318642.565 6  -1503356.461 6  -1142778.67648  20318638.25748
  23300961.230 4   -830184.820 4   -639431.79346  23300956.81546
  24180560.808 2   -808303.531 2                
  20295925.331 7   -882614.543 7   -678087.20749  20295925.24949
  22512493.206 5  -2479269.262 5  -1852547.44147  22512492.18747
  23269099.995 4   -338044.090 4   -256784.27346  23269097.86646
  21264670.440 7  -1025346.156 7   -786935.21548  21264667.13648
  22215567.933 6   -122690.320 6    -94443.59048  22215567.38248
 18  5 30  0 23 24.9990000  0  9G14G16G22G23G26G27G29G31G32         -0.000193367
  20262681.456 6   -770345.520 6   -587752.66448  20262678.16348
  20314716.144 6  -1523988.254 6  -1158855.40648  20314711.76548
  23298787.769 4   -841603.992 4   -648329.85946  23298783.41746
  24174086.542 2   -842323.500 2                
  20293581.222 7   -894932.039 7   -687685.26249  20293581.67149
  22505843.245 5  -2514211.012 5  -1879774.74247  22505843.04647
  23268222.214 5   -342658.859 5   -260380.20346  23268219.86646
  21261950.292 7  -1039639.152 7   -798072.61748  21261947.33148
  22215250.730 6   -124357.527 6    -95742.73048  22215250.33548
 18  5 30  0 23 29.9990000  0  9G14G16G22G23G26G27G29G31G32         -0.000204103
  20260720.706 6   -780644.875 6   -595778.13748  20260717.93748
  20310791.284 7  -1544612.871 7  -1174926.53148  20310787.21848
  23296616.222 4   -853020.371 4   -657225.72346  23296611.21446
  24167612.253 2   -876345.957 2                
  20291238.034 7   -907246.516 7   -697280.96149  20291237.73049
  22499194.276 5  -2549153.785 5  -1907002.86747  22499193.71447
  23267344.886 4   -347267.324 4   -263971.23046  23267342.58946
  21259229.987 7  -1053934.406 7   -809211.77748  21259226.96448
  22214934.112 6   -126021.270 6    -97039.16848  22214933.44448
 18  5 30  0 23 34.9990000  0  9G14G16G22G23G26G27G29G31G32         -0.000214842
  20258763.206 6   -790931.969 6   -603794.05548  20258760.16748
  20306868.628 6  -1565227.301 6  -1190989.72348  20306864.73348
  23294443.940 4   -864430.965 4   -666117.10946  23294439.60146
  24161138.300 1   -910367.922 1                
  20288895.706 7   -919555.004 7   -706871.99649  20288895.38649
  22492545.534 5  -2584094.598 5  -1934229.46147  22492544.46447
  23266470.292 5   -351866.375 5   -267554.89545  23266467.38245
  21256509.972 7  -1068228.863 7   -820350.31348  21256506.43348
  22214618.862 6   -127678.516 6    -98330.54348  22214617.88648
 18  5 30  0 23 39.9990000  0  9G14G16G22G23G26G27G29G31G32         -0.000225580
  20256807.714 6   -801206.250 6   -611800.00048  20256804.78448
  20302947.925 6  -1585831.004 6  -1207044.55948  20302943.99548
  23292274.519 4   -875835.320 4   -675003.62146  23292269.23346
  24154664.526 1   -944388.629 1                
  20286554.987 7   -931856.941 7   -716457.93049  20286554.74549
  22485896.823 5  -2619032.852 5  -1961454.07047  22485895.89747
  23265597.362 5   -356455.512 5   -271130.87946  23265594.51546
  21253790.425 7  -1082522.020 7   -831487.84048  21253786.48748
  22214304.464 6   -129328.777 6    -99616.47348  22214303.97648
 18  5 30  0 23 44.9990000  0  9G14G16G22G23G26G27G29G31G32         -0.000236320
  20254854.886 6   -811467.797 6   -619796.01248  20254852.52248
  20299028.995 7  -1606424.066 7  -1223091.10548  20299025.14048
  23290105.651 4   -887233.449 4   -683885.27046  23290099.87446
  24148190.269 1   -978408.289 1                
  20284215.065 7   -944152.418 7   -726038.82449  20284214.65149
  22479248.745 5  -2653968.652 5  -1988676.74647  22479248.01547
  23264725.519 5   -361034.883 5   -274699.21946  23264722.29246
  21251070.894 7  -1096813.906 7   -842624.38348  21251066.90948
  22213992.011 6   -130972.098 6   -100897.00048  22213991.28048
 18  5 30  0 23 49.9990000  0  9G14G16G22G23G26G27G29G31G32         -0.000247061
  20252904.792 6   -821717.813 6   -627783.05148  20252901.85148
  20295112.628 6  -1627007.766 6  -1239130.35248  20295108.17548
  23287937.034 4   -898626.598 4   -692763.07046  23287932.18346
  24141717.065 1  -1012428.156 1                
  20281876.440 7   -956442.684 7   -735615.64849  20281875.73349
  22472600.948 5  -2688903.207 5  -2015898.46547  22472599.73347
  23263856.026 5   -365605.660 5   -278260.87946  23263852.40946
  21248351.011 7  -1111105.781 7   -853760.91048  21248347.15148
  22213680.581 6   -132609.770 6   -102173.11348  22213679.44448
 18  5 30  0 23 54.9990000  0  9G14G16G22G23G26G27G29G31G32         -0.000257809
  20250956.370 6   -831957.273 6   -635761.85548  20250953.48348
  20291196.894 6  -1647582.961 6  -1255162.98448  20291192.66348
  23285770.230 4   -910015.684 4   -701637.68846  23285764.58946
  24135244.12811                                
  20279538.761 7   -968728.668 7   -745189.15249  20279538.26949
  22465953.284 5  -2723837.387 5  -2043119.90247  22465951.78047
  23262988.511 5   -370168.773 5   -281816.54346  23262983.80446
  21245631.339 7  -1125398.559 7   -864898.14148  21245627.56948
  22213369.730 6   -134242.672 6   -103445.51648  22213368.54648
 18  5 30  0 23 59.9990000  0  9G14G16G22G23G26G27G29G31G32         -0.000268555
  20249010.144 6   -842185.887 6   -643732.19948  20249006.90148
  20287283.378 6  -1668149.484 6  -1271188.84848  20287279.23048
  23283603.003 4   -921400.496 4   -710508.94146  23283598.25346
  24128769.15111                                
  20277201.503 7   -981010.125 7   -754759.11749  20277200.93749
  22459305.214 6  -2758770.949 6  -2070340.86747  22459304.45247
  23262120.800 5   -374723.996 5   -285366.09445  23262116.83145
  21242911.690 7  -1139691.961 7   -876035.85548  21242908.03048
  22213060.253 6   -135870.590 6   -104714.03948  22213058.79248
 18  5 30  0 24  4.9990000  0  9G14G16G22G23G26G27G29G31G32         -0.000279303
  20247065.573 6   -852404.199 6   -651694.53148  20247062.52248
  20283371.042 6  -1688707.797 6  -1287208.31348  20283367.56248
  23281436.667 3   -932781.586 3   -719377.38746  23281432.74146
  24122295.60511                                
  20274865.065 7   -993287.559 7   -764325.94949  20274864.53049
  22452658.034 5  -2793704.438 5  -2097561.75847  22452656.94447
  23261255.753 5   -379271.906 5   -288909.92246  23261251.18346
  21240191.300 7  -1153986.496 7   -887174.46948  21240187.67548
  22212751.151 6   -137494.020 6   -105979.07048  22212749.84348
 18  5 30  0 24  9.9990000  0  9G14G16G22G23G26G27G29G31G32         -0.000290054
  20245123.284 6   -862611.988 6   -659648.66048  20245120.20248
  20279460.761 6  -1709257.664 6  -1303221.19548  20279456.55848
  23279272.745 4   -944158.637 4   -728242.62145  23279268.44045
  24115822.42511                                
  20272529.355 7  -1005560.766 7   -773889.48849  20272529.06249
  22446010.628 6  -2828637.531 6  -2124782.33647  22446009.34747
  23260391.792 5   -383812.203 5   -292447.81646  23260386.99146
  21237470.847 7  -1168281.957 7   -898313.79348  21237467.28848
  22212442.995 6   -139112.773 6   -107240.44948  22212442.03048
 18  5 30  0 24 14.9990000  0  9G14G16G22G23G26G27G29G31G32         -0.000300808
  20243182.698 6   -872810.477 6   -667595.53548  20243179.52248
  20275551.526 6  -1729800.336 6  -1319228.46948  20275547.70248
  23277108.034 3   -955533.016 3   -737105.72345  23277103.78445
  24109350.01911                                
  20270194.659 7  -1017831.004 7   -783450.71549  20270194.08949
  22439363.198 6  -2863571.473 6  -2152003.57447  22439362.12447
  23259529.105 5   -388346.219 5   -295980.81346  23259523.83946
  21234750.472 7  -1182579.594 7   -909454.81648  21234746.56948
  22212135.073 6   -140728.078 6   -108499.14848  22212134.51948
 18  5 30  0 24 19.9990000  0  8G14G16G22G26G27G29G31G32            -0.000311565
  20241243.495 6   -882998.551 6   -675534.29348  20241240.39448
  20271643.800 6  -1750334.703 6  -1335229.27748  20271639.81548
  23274944.136 3   -966903.512 3   -745965.94545  23274940.20645
  20267860.558 7  -1030097.141 7   -793008.74649  20267860.09349
  22432715.456 6  -2898505.164 6  -2179224.62947  22432714.55047
  23258667.526 5   -392872.691 5   -299507.96946  23258663.10146
  21232029.761 7  -1196878.242 7   -920596.62148  21232025.86248
  22211828.909 6   -142338.824 6   -109754.28548  22211828.29248
 18  5 30  0 24 24.9990000  0  8G14G16G22G26G27G29G31G32            -0.000322325
  20239306.644 6   -893177.332 6   -683465.82448  20239303.92548
  20267737.940 6  -1770861.898 6  -1351224.50448  20267733.73348
  23272780.636 3   -978271.313 3   -754823.94145  23272777.18345
  20265526.855 7  -1042360.289 7   -802564.45749  20265526.61249
  22426066.940 6  -2933439.633 6  -2206446.28547  22426066.60547
  23257807.659 5   -397392.883 5   -303030.21146  23257802.47646
  21229308.136 7  -1211179.051 7   -931740.10548  21229304.81248
  22211523.565 6   -143946.137 6   -111006.75448  22211522.21848
 18  5 30  0 24 29.9990000  0  8G14G16G22G26G27G29G31G32            -0.000333086
  20237371.831 6   -903345.926 6   -691389.39548  20237368.90548
  20263833.120 7  -1791380.996 7  -1367213.40648  20263828.96848
  23270618.495 3   -989635.441 3   -763679.11345  23270614.41345
  20263193.956 7  -1054619.598 7   -812117.16049  20263193.53449
  22419419.503 6  -2968374.105 6  -2233667.93447  22419418.79647
  23256949.151 5   -401905.934 5   -306546.87946  23256944.08146
  21226586.675 7  -1225481.117 7   -942884.57848  21226582.96048
  22211218.003 6   -145549.176 6   -112255.87948  22211217.43348
 18  5 30  0 24 34.9990000  0  8G14G16G22G26G27G29G31G32            -0.000343851
  20235438.581 6   -913504.402 6   -699305.09448  20235435.89748
  20259930.159 7  -1811892.113 7  -1383196.09048  20259925.89748
  23268457.558 3  -1000996.129 3   -772531.58645  23268453.06945
  20260861.980 7  -1066875.141 7   -821666.92649  20260861.21849
  22412772.230 6  -3003308.504 6  -2260889.54347  22412770.75747
  23256091.519 5   -406411.848 5   -310057.99246  23256086.58546
  21223864.565 7  -1239784.469 7   -954030.05148  21223861.29248
  22210914.112 6   -147147.941 6   -113501.68448  22210913.06948
 18  5 30  0 24 39.9990000  0  8G14G16G22G26G27G29G31G32            -0.000354618
  20233507.792 6   -923653.094 6   -707213.16848  20233504.86248
  20256028.409 6  -1832395.559 6  -1399172.80148  20256024.20648
  23266294.972 3  -1012353.570 3   -781381.59045  23266291.71845
  20258530.550 7  -1079127.250 7   -831214.02349  20258530.09349
  22406124.198 6  -3038243.227 6  -2288111.38747  22406123.14447
  23255234.995 5   -410911.039 5   -313563.85246  23255230.12846
  21221142.690 7  -1254089.500 7   -965176.83248  21221139.32348
  22210610.128 6   -148742.859 6   -114744.49648  22210610.20648
 18  5 30  0 24 44.9990000  0  8G14G16G22G26G27G29G31G32            -0.000365389
  20231578.331 6   -933791.246 6   -715113.03948  20231575.65948
  20252128.394 7  -1852890.594 7  -1415142.95748  20252123.82748
  23264135.659 3  -1023707.105 3   -790228.43845  23264131.11645
  20256199.706 7  -1091375.168 7   -840757.85949  20256199.55049
  22399476.292 6  -3073177.441 6  -2315332.85547  22399476.02247
  23254380.081 5   -415402.746 5   -317063.90646  23254374.99546
  21218420.214 7  -1268395.367 7   -976324.27048  21218416.91348
  22210306.948 6   -150333.117 6   -115983.66448  22210307.40548
 18  5 30  0 24 49.9990000  0  8G14G16G22G26G27G29G31G32            -0.000376162
  20229650.901 6   -943919.680 6   -723005.32848  20229648.40948
  20248229.722 7  -1873378.023 7  -1431107.20348  20248225.70648
  23261975.261 4  -1035057.566 4   -799073.01245  23261971.51145
  20253869.745 7  -1103619.738 7   -850299.09849  20253869.39049
  22392827.651 6  -3108112.016 6  -2342554.59847  22392827.82347
  23253526.940 5   -419887.754 5   -320558.70746  23253521.93746
  21215697.675 7  -1282702.949 7   -987473.04348  21215693.93748
  22210004.519 6   -151919.609 6   -117219.88747  22210005.06247
 18  5 30  0 24 54.9990000  0  8G14G16G22G26G27G29G31G32            -0.000386938
  20227725.331 6   -954038.016 6   -730889.73848  20227723.06248
  20244332.659 6  -1893857.465 6  -1447065.19148  20244328.53848
  23259816.003 3  -1046404.504 3   -807914.74245  23259811.79245
  20251540.183 7  -1115860.551 7   -859837.38349  20251539.98749
  22386180.675 6  -3143046.500 6  -2369776.26647  22386180.27247
  23252674.901 5   -424365.723 5   -324048.05946  23252670.35146
  21212974.589 7  -1297011.777 7   -998622.77748  21212971.03848
  22209704.269 6   -153501.887 6   -118452.84847  22209704.21847
 18  5 30  0 24 59.9990000  0  8G14G16G22G26G27G29G31G32            -0.000397717
  20225801.917 6   -964145.539 6   -738765.74648  20225799.47248
  20240437.323 7  -1914328.254 7  -1463016.46148  20240432.93348
  23257657.511 3  -1057747.277 3   -816753.26245  23257652.72245
  20249211.776 7  -1128096.922 7   -869372.21949  20249211.44449
  22379532.714 5  -3177980.195 5  -2396997.33647  22379532.66747
  23251824.151 5   -428835.887 5   -327531.28546  23251819.48346
  21210251.597 7  -1311321.199 7  -1009772.97748  21210248.13248
  22209403.784 6   -155079.281 6   -119681.98447  22209404.52647
 18  5 30  0 25  4.9990000  0  9G03G14G16G22G26G27G29G31G32         -0.000408497
  23354038.35511                                
  20223880.245 6   -974243.117 6   -746633.98448  20223877.88248
  20236543.003 7  -1934791.215 7  -1478961.62548  20236538.99948
  23255499.573 2  -1069086.711 2   -825589.17645  23255494.76945
  20246883.792 7  -1140329.766 7   -878904.29749  20246883.55449
  22372885.464 6  -3212913.926 6  -2424218.41447  22372885.84347
  23250974.683 5   -433299.223 5   -331009.22746  23250970.20246
  21207528.151 7  -1325632.066 7  -1020924.30148  21207524.30448
  22209104.378 6   -156652.617 6   -120907.98448  22209104.62048
 18  5 30  0 25  9.9990000  0  9G03G14G16G22G26G27G29G31G32         -0.000419281
  23351196.347 2    -73675.691 2                
  20221960.839 6   -984329.738 6   -754493.69948  20221958.71848
  20232650.815 7  -1955245.324 7  -1494899.88748  20232646.55848
  23253342.690 3  -1080421.875 3   -834421.73045  23253338.33145
  20244557.136 7  -1152557.980 7   -888432.78549  20244557.01949
  22366236.761 5  -3247846.660 5  -2451438.74647  22366237.65947
  23250126.573 5   -437754.633 5   -334480.97746  23250122.62046
  21204804.862 7  -1339943.359 7  -1032075.95348  21204801.07348
  22208806.050 6   -158220.957 6   -122130.07848  22208806.75748
 18  5 30  0 25 14.9990000  0  9G03G14G16G22G26G27G29G31G32         -0.000430067
  23348356.46411    -88601.91811                
  20220043.628 6   -994406.117 6   -762345.42648  20220041.33148
  20228760.464 7  -1975691.285 7  -1510831.79748  20228756.01148
  23251185.839 4  -1091753.449 4   -843251.57845  23251181.66745
  20242230.933 7  -1164782.336 7   -897958.25449  20242230.17949
  22359589.980 6  -3282779.105 6  -2478658.83247  22359590.27647
  23249280.425 5   -442202.848 5   -337947.10246  23249276.41746
  21202081.300 7  -1354255.754 7  -1043228.48048  21202077.54648
  22208507.956 6   -159784.992 6   -123348.80148  22208509.14048
 18  5 30  0 25 19.9990000  0  9G03G14G16G22G26G27G29G31G32         -0.000440853
  23345516.43311   -103520.44911                
  20218128.042 6  -1004472.516 6   -770189.37148  20218125.34748
  20224870.940 7  -1996129.473 7  -1526757.67248  20224866.87448
  23249030.659 4  -1103081.766 4   -852078.82045  23249026.00345
  20239905.190 7  -1177003.180 7   -907480.99649  20239904.82349
  22352943.558 6  -3317711.563 6  -2505878.94147  22352942.28447
  23248434.776 5   -446644.227 5   -341407.91446  23248431.83146
  21199357.214 7  -1368569.602 7  -1054382.11748  21199353.53848
  22208211.315 6   -161345.051 6   -124564.46148  22208212.01948
 18  5 30  0 25 24.9990000  0  9G03G14G16G22G26G27G29G31G32         -0.000451645
  23342680.425 3   -118431.219 3                
  20216214.542 6  -1014528.594 6   -778025.28148  20216211.62848
  20220983.183 7  -2016559.457 7  -1542677.14148  20220979.33548
  23246875.847 3  -1114406.496 3   -860903.27745  23246871.30445
  20237580.526 7  -1189220.086 7   -917000.66449  20237579.72649
