     2.10           OBSERVATION DATA    GPS(GPS)            RINEX VERSION / TYPE
cnvtToRINEX 2.50.0  convertToRINEX OPR  30-May-18 13:33 UTC PGM / RUN BY / DATE 
----------------------------------------------------------- COMMENT             
GI25                                                        MARKER NAME         
GI25                                                        MARKER NUMBER       
GNSS Observer       Trimble                                 OBSERVER / AGENCY   
0220379226          5700                2.32                REC # / TYPE / VERS 
                    TRM33429.00-GP                          ANT # / TYPE        
 -2966337.6911  5005167.6089  2605116.0904                  APPROX POSITION XYZ 
       -0.0620        0.0000        0.0000                  ANTENNA: DELTA H/E/N
     1     1     0                                          WAVELENGTH FACT L1/2
     4    C1    L1    L2    P2                              # / TYPES OF OBSERV 
  2018     5    30     0    19   50.0000000     GPS         TIME OF FIRST OBS   
  2018     5    30     1    35   50.0000000     GPS         TIME OF LAST OBS    
     0                                                      RCV CLOCK OFFS APPL 
    17                                                      LEAP SECONDS        
    12                                                      # OF SATELLITES     
   G03   693   691   687   687                              PRN / # OF OBS      
   G08   351   351   351   351                              PRN / # OF OBS      
   G14   913   913   913   913                              PRN / # OF OBS      
   G16   913   913   913   913                              PRN / # OF OBS      
   G21   271   264   232   232                              PRN / # OF OBS      
   G22   616   616   615   615                              PRN / # OF OBS      
   G23   913   913   913   913                              PRN / # OF OBS      
   G26   913   913   913   913                              PRN / # OF OBS      
   G27   913   913   913   913                              PRN / # OF OBS      
   G29    36    26     0     0                              PRN / # OF OBS      
   G31   913   913   913   913                              PRN / # OF OBS      
   G32   626   626   626   626                              PRN / # OF OBS      
CARRIER PHASE MEASUREMENTS: PHASE SHIFTS REMOVED            COMMENT             
                                                            END OF HEADER       
 18  5 30  0 19 50.0000000  0  9G03G14G16G22G23G26G27G31G32         -0.000097721
  23727416.67216    -48348.71516    -28719.36357  23727415.93857
  20539332.42217    -12995.66417     -9039.52759  20539329.69159
  20675917.64816   -102377.48816    -63644.19958  20675914.30158
  23583881.49215    -21166.25415    -11207.28557  23583876.24257
  24643641.66414   -198611.91814   -113017.22756  24643635.22356
  20586167.39817    -29008.85917    -18156.14559  20586167.25859
  22982009.19516   -222597.92616   -137490.72357  22982009.31357
  21569627.64117    -40834.83217    -27306.07058  21569624.59858
  22419920.46916     63259.87516     38948.46958  22419920.16058
 18  5 30  0 19 55.0000000  0  9G03G14G16G22G23G26G27G31G32         -0.000102591
  23726203.344 5    -54725.789 5    -33688.53147  23726202.84847
  20539014.344 7    -14667.891 7    -10342.56649  20539011.41449
  20673652.813 6   -114281.758 6    -72920.23848  20673648.84848
  23583402.281 5    -23683.496 5    -13168.78947  23583397.26247
  24638907.508 3   -223489.863 3   -132402.59046  24638901.43046
  20585516.414 7    -32429.535 7    -20821.60549  20585516.43449
  22977089.219 6   -248452.039 6   -157636.78947  22977089.16047
  21568644.227 7    -46002.344 7    -31332.69548  21568641.04748
  22421291.914 6     70466.547 6     44564.05148  22421291.94548
 18  5 30  0 20  0.0000000  0  9G03G14G16G22G23G26G27G31G32         -0.000107464
  23724989.977 5    -61099.293 5    -38654.90647  23724989.77747
  20538697.211 7    -16334.445 7    -11641.18049  20538694.04749
  20671388.477 6   -126182.395 6    -82193.46148  20671384.40248
  23582923.414 5    -26201.223 5    -15130.66047  23582917.97747
  24634171.773 3   -248374.398 3   -151793.10546  24634165.55946
  20584865.516 7    -35850.551 7    -23487.34449  20584865.48049
  22972168.391 5   -274311.504 5   -177787.04347  22972168.28547
  21567660.039 7    -51175.984 7    -35364.11748  21567656.68848
  22422662.836 6     77673.414 6     50179.78948  22422662.80148
 18  5 30  0 20  5.0000000  0  9G03G14G16G22G23G26G27G31G32         -0.000112341
  23723778.750 5    -67467.172 5    -43616.90247  23723778.55547
  20538381.523 7    -17993.293 7    -12933.79749  20538378.23849
  20669124.422 7   -138077.344 7    -91462.26248  20669120.36348
  23582444.727 5    -28717.359 5    -17091.28947  23582439.37147
  24629436.047 4   -273263.504 4   -171187.23846  24629429.36346
  20584214.906 7    -39269.828 7    -26151.70749  20584214.77749
  22967246.664 6   -300174.219 6   -197939.81647  22967246.78147
  21566674.688 7    -56353.656 7    -39398.67648  21566671.44148
  22424035.125 6     84882.543 6     55797.26648  22424035.07848
 18  5 30  0 20 10.0000000  0  9G03G14G16G22G23G26G27G31G32         -0.000117220
  23722567.781 6    -73828.125 6    -48573.48847  23722568.11347
  20538067.734 7    -19643.094 7    -14219.35549  20538064.62549
  20666862.328 7   -149965.246 7   -100725.56648  20666858.53548
  23581967.148 5    -31230.609 5    -19049.68047  23581961.04747
  24624699.508 4   -298155.730 4   -190583.78546  24624692.62546
  20583564.641 7    -42686.055 7    -28813.71149  20583564.99249
  22962325.172 5   -326038.879 5   -218094.10947  22962324.72347
  21565688.633 7    -61534.016 7    -43435.32448  21565684.91048
  22425407.438 6     92095.211 6     61417.52348  22425407.85248
 18  5 30  0 20 15.0000000  0  9G03G14G16G22G23G26G27G31G32         -0.000122103
  23721359.188 6    -80181.289 6    -53524.01247  23721359.82447
  20537755.539 7    -21283.012 7    -15497.21949  20537752.25849
  20664601.633 7   -161845.301 7   -109982.75848  20664597.68848
  23581488.969 5    -33740.102 5    -21005.13747  23581483.79747
  24619962.047 4   -323050.281 4   -209982.09846  24619955.27046
  20582915.563 8    -46098.367 8    -31472.66449  20582915.10249
  22957402.891 6   -351904.570 6   -238249.21147  22957403.01647
  21564702.688 6    -66716.219 6    -47473.39848  21564699.30148
  22426781.273 6     99312.305 6     67041.23848  22426780.98448
 18  5 30  0 20 20.0000000  0  9G03G14G16G22G23G26G27G31G32         -0.000126989
  23720151.805 6    -86526.211 6    -58468.10947  23720152.37147
  20537445.414 7    -22912.594 7    -16767.02049  20537442.15249
  20662342.680 7   -173716.977 7   -119233.42248  20662338.45348
  23581012.438 5    -36245.434 5    -22957.34047  23581007.04747
  24615224.164 4   -347946.684 4   -229381.90246  24615218.00846
  20582266.883 8    -49506.324 8    -34128.20749  20582267.10249
  22952480.969 6   -377770.828 6   -258404.76647  22952480.45347
  21563716.219 6    -71899.805 6    -51512.57448  21563712.64548
  22428155.469 6    106534.262 6     72668.69548  22428154.93848
 18  5 30  0 20 25.0000000  0  9G03G14G16G22G23G26G27G31G32         -0.000131878
  23718946.266 5    -92862.406 5    -63405.40247  23718946.58247
  20537137.242 7    -24531.270 7    -18028.34449  20537134.14149
  20660085.234 6   -185579.805 6   -128477.18448  20660081.38348
  23580536.258 5    -38746.023 5    -24905.85247  23580530.82047
  24610486.672 3   -372844.250 3   -248782.60246  24610480.24246
  20581619.250 8    -52909.414 8    -36779.97349  20581619.52749
  22947559.461 5   -403637.094 5   -278560.33247  22947558.51647
  21562729.719 6    -77084.238 6    -55552.41447  21562725.85247
  22429530.984 6    113761.586 6     78300.37548  22429530.60948
 18  5 30  0 20 30.0000000  0  9G03G14G16G22G23G26G27G31G32         -0.000136768
  23717742.227 5    -99189.590 5    -68335.67647  23717742.80947
  20536831.445 7    -26138.801 7    -19280.96548  20536828.18848
  20657829.133 6   -197433.520 6   -137713.84848  20657825.25448
  23580061.547 5    -41241.684 5    -26850.51647  23580055.58647
  24605747.633 3   -397742.922 3   -268184.16446  24605741.62546
  20580972.820 7    -56307.395 7    -39427.74649  20580972.91849
  22942635.977 5   -429503.172 5   -298715.73447  22942636.47747
  21561742.953 6    -82269.262 6    -59592.69147  21561739.22747
  22430907.094 6    120994.535 6     83936.43048  22430907.43048
 18  5 30  0 20 35.0000000  0  9G03G14G16G22G23G26G27G31G32         -0.000141661
  23716539.688 5   -105507.504 5    -73258.71947  23716540.35947
  20536527.586 7    -27734.945 7    -20524.72749  20536524.27049
  20655575.586 7   -209277.910 7   -146943.23848  20655571.52348
  23579587.383 5    -43732.133 5    -28791.14847  23579581.66847
  24601009.383 3   -422642.441 3   -287586.35546  24601003.59046
  20580327.219 7    -59700.020 7    -42071.35249  20580327.21949
  22937714.266 5   -455368.750 5   -318870.74247  22937714.48847
  21560756.406 6    -87454.602 6    -63633.23047  21560752.85947
  22432284.375 6    128233.332 6     89577.05148  22432284.87148
 18  5 30  0 20 40.0000000  0  9G03G14G16G22G23G26G27G31G32         -0.000146553
  23715338.938 6   -111815.836 6    -78174.30147  23715339.77347
  20536226.258 7    -29319.336 7    -21759.32449  20536222.69549
  20653323.648 6   -221112.590 6   -156165.07448  20653319.28548
  23579113.977 5    -46217.031 5    -30727.45347  23579109.03547
  24596271.398 4   -447542.344 4   -306988.89146  24596265.53946
  20579682.602 7    -63086.910 7    -44710.49249  20579682.81349
  22932792.672 5   -481233.426 5   -339025.02347  22932792.12947
  21559769.078 6    -92639.848 6    -67673.68047  21559765.76247
  22433663.445 6    135478.391 6     95222.51648  22433663.28948
 18  5 30  0 20 45.0000000  0  9G03G14G16G22G23G26G27G31G32         -0.000151449
  23714139.938 5   -118114.492 5    -83082.34447  23714141.64147
  20535926.883 6    -30891.957 6    -22984.75049  20535923.78949
  20651073.453 6   -232937.551 6   -165379.32848  20651069.36348
  23578642.039 5    -48696.328 5    -32659.36747  23578637.61347
  24591532.828 4   -472442.578 4   -326391.66446  24591527.46146
  20579039.344 7    -66468.082 7    -47345.18049  20579039.54349
  22927870.563 5   -507097.199 5   -359178.60947  22927870.28547
  21558782.547 6    -97825.035 6    -71714.09848  21558779.32048
  22435043.766 6    142729.664 6    100872.85548  22435043.53548
 18  5 30  0 20 50.0000000  0  9G03G14G16G22G23G26G27G31G32         -0.000156347
  23712943.453 5   -124403.598 5    -87982.95347  23712944.94547
  20535629.852 7    -32452.820 7    -24201.01248  20535626.18048
  20648825.219 6   -244752.793 6   -174586.01648  20648821.52748
  23578171.820 5    -51170.117 5    -34587.00447  23578167.00047
  24586793.836 3   -497343.289 3   -345794.81646  24586788.61346
  20578396.945 7    -69843.520 7    -49975.39149  20578396.92649
  22922949.305 5   -532960.008 5   -379331.49247  22922949.23047
  21557796.023 6   -103010.137 6    -75754.43847  21557792.05147
  22436424.203 6    149987.102 6    106528.00848  22436424.48448
 18  5 30  0 20 55.0000000  0  9G03G14G16G22G23G26G27G31G32         -0.000161245
  23711747.297 5   -130682.930 5    -92875.94547  23711750.02747
  20535335.078 7    -34001.742 7    -25407.97348  20535331.30948
  20646578.813 7   -256558.188 7   -183785.03148  20646575.02348
  23577701.898 5    -53638.246 5    -36510.23847  23577697.19547
  24582055.070 4   -522244.152 4   -365198.07846  24582050.32046
  20577755.469 7    -73213.102 7    -52601.05149  20577755.64149
  22918027.539 5   -558821.684 5   -399483.43847  22918028.19547
  21556809.297 6   -108195.031 6    -79794.62947  21556805.60947
  22437806.906 6    157250.957 6    112188.13348  22437806.64548
 18  5 30  0 21  0.0000000  0  9G03G14G16G22G23G26G27G31G32         -0.000166145
  23710555.438 5   -136952.262 5    -97761.13347  23710556.98447
  20535042.508 6    -35538.516 6    -26605.46148  20535038.91848
  20644334.422 7   -268353.500 7   -192976.18848  20644330.63748
  23577233.266 5    -56100.461 5    -38428.84847  23577228.54347
  24577316.875 4   -547145.039 4   -384601.39146  24577311.51246
  20577115.547 7    -76576.648 7    -55221.99249  20577115.75449
  22913106.633 5   -584682.105 5   -419634.42647  22913107.04347
  21555822.398 6   -113379.484 6    -83834.46147  21555818.50047
  22439189.875 6    164521.371 6    117853.39148  22439189.90248
 18  5 30  0 21  5.0000000  0  9G03G14G16G22G23G26G27G31G32         -0.000171047
  23709363.922 5   -143211.625 5   -102638.57047  23709365.98447
  20534752.516 7    -37063.148 7    -27793.49248  20534748.57848
  20642092.070 7   -280138.711 7   -202159.46948  20642088.21948
  23576766.398 5    -58556.816 5    -40342.89546  23576761.18446
  24572578.633 3   -572045.875 3   -404004.62946  24572573.41046
  20576476.750 7    -79934.051 7    -57838.15249  20576476.75049
  22908185.938 5   -610541.109 5   -439784.30547  22908186.26247
  21554836.039 6   -118563.438 6    -87873.90247  21554832.23847
  22440574.867 6    171798.375 6    123523.77348  22440574.77048
 18  5 30  0 21 10.0000000  0  9G03G14G16G22G23G26G27G31G32         -0.000175949
  23708174.977 5   -149460.809 5   -107508.05947  23708177.08247
  20534464.719 7    -38575.445 7    -28971.91048  20534461.44148
  20639851.117 7   -291913.625 7   -211334.73048  20639847.68448
  23576300.422 5    -61007.082 5    -42252.19947  23576294.64547
  24567840.445 3   -596946.414 3   -423407.69546  24567834.87946
  20575839.203 7    -83285.211 7    -60449.44549  20575838.99249
  22903264.969 5   -636398.543 5   -459932.95747  22903265.37547
  21553850.141 6   -123746.746 6    -91912.85547  21553846.25447
  22441960.164 6    179082.148 6    129199.43448  22441961.00048
 18  5 30  0 21 15.0000000  0  9G03G14G16G22G23G26G27G31G32         -0.000180855
  23706987.852 5   -155699.430 5   -112369.34847  23706989.80947
  20534178.961 7    -40075.047 7    -30140.43848  20534175.43048
  20637612.672 7   -303677.891 7   -220501.69548  20637608.82448
  23575835.172 5    -63450.895 5    -44156.46547  23575829.69547
  24563101.430 3   -621846.340 3   -442810.21146  24563096.35946
  20575202.594 7    -86629.746 7    -63055.58249  20575202.46949
  22898346.031 5   -662254.000 5   -480080.08647  22898344.82847
  21552863.570 6   -128929.004 6    -95950.98047  21552859.79347
  22443348.234 6    186373.047 6    134880.64548  22443348.37948
 18  5 30  0 21 20.0000000  0  9G03G14G16G22G23G26G27G31G32         -0.000185759
  23705802.336 5   -161927.637 5   -117222.50047  23705804.36747
  20533896.586 6    -41561.980 6    -31299.10548  20533892.62948
  20635375.930 7   -315431.555 7   -229660.40248  20635372.21148
  23575371.180 5    -65888.324 5    -46055.77047  23575365.43447
  24558362.688 2   -646745.684 2   -462212.30546  24558358.27046
  20574567.383 7    -89967.707 7    -65656.60249  20574567.66049
  22893425.555 5   -688107.570 5   -500225.70347  22893425.22747
  21551877.984 6   -134110.258 6    -99988.32447  21551874.44947
  22444736.664 6    193671.023 6    140567.34848  22444736.77348
 18  5 30  0 21 25.0000000  0  9G03G14G16G22G23G26G27G31G32         -0.000190664
  23704618.953 5   -168145.676 5   -122067.75047  23704621.17247
  20533615.570 6    -43036.609 6    -32448.16448  20533612.41848
  20633141.328 7   -327174.953 7   -238811.09448  20633137.39548
  23574908.594 5    -68319.645 5    -47950.30547  23574902.96547
  24553624.992 3   -671644.691 3   -481614.18446  24553620.59846
  20573933.148 7    -93299.441 7    -68252.76649  20573933.50849
  22888505.906 5   -713959.555 5   -520370.11347  22888505.50047
  21550891.711 6   -139290.871 6   -104025.16847  21550888.23847
  22446126.555 6    200975.695 6    146259.30148  22446126.60548
 18  5 30  0 21 30.0000000  0  9G03G14G16G22G23G26G27G31G32         -0.000195572
  23703438.336 5   -174352.922 5   -126904.55547  23703439.48047
  20533337.930 7    -44498.242 7    -33587.10248  20533334.23848
  20630908.344 7   -338907.488 7   -247953.33648  20630904.77348
  23574447.680 5    -70744.375 5    -49839.71947  23574441.86347
  24548888.086 3   -696542.805 3   -501015.30946  24548882.29746
  20573300.836 7    -96624.332 7    -70843.59449  20573300.68049
  22883587.586 5   -739809.281 5   -540512.76247  22883586.69547
  21549906.430 6   -144470.195 6   -108061.02347  21549903.60547
  22447518.352 6    208287.730 6    151956.98448  22447518.25048
 18  5 30  0 21 35.0000000  0  9G03G14G16G22G23G26G27G31G32         -0.000200481
  23702259.594 5   -180549.836 5   -131733.33247  23702260.63747
  20533061.906 7    -45947.281 7    -34716.23048  20533058.36748
  20628677.656 7   -350629.473 7   -257087.35248  20628673.71948
  23573987.242 6    -73162.805 6    -51724.20747  23573981.82447
  24544149.406 2   -721440.250 2   -520415.92646  24544145.02346
  20572669.313 7    -99942.734 7    -73429.35249  20572669.35549
  22878668.016 5   -765657.066 5   -560653.91047  22878667.25447
  21548920.344 6   -149648.539 6   -112096.09447  21548917.57047
  22448911.156 6    215606.727 6    157660.09448  22448910.94148
 18  5 30  0 21 40.0000000  0  9G03G14G16G22G23G26G27G31G32         -0.000205391
  23701082.164 5   -186736.906 5   -136554.44147  23701083.28547
  20532788.734 7    -47384.352 7    -35836.02748  20532785.23048
  20626448.844 7   -362341.570 7   -266213.65648  20626444.95348
  23573527.789 5    -75575.574 5    -53604.30547  23573522.12147
  24539411.477 3   -746337.676 3   -539816.48846  24539407.01646
  20572038.594 7   -103255.262 7    -76010.55549  20572039.12549
  22873749.828 5   -791503.578 5   -580794.05547  22873748.81647
  21547934.891 6   -154826.559 6   -116130.93447  21547932.60947
  22450305.445 6    222932.090 6    163368.17248  22450305.29348
 18  5 30  0 21 45.0000000  0  9G03G14G16G22G23G26G27G31G32         -0.000210300
  23699906.539 5   -192913.543 5   -141367.41047  23699907.41847
  20532517.438 7    -48808.730 7    -36945.94148  20532514.25448
  20624222.094 7   -374043.027 7   -275331.68448  20624218.22348
  23573069.313 5    -77981.945 5    -55479.40647  23573064.41047
  24534674.672 2   -771234.504 2   -559216.59046  24534669.87946
  20571409.477 7   -106561.266 7    -78586.66849  20571410.00049
  22868831.531 5   -817348.066 5   -600932.63347  22868830.85547
  21546949.555 6   -160003.531 6   -120164.93847  21546947.53147
  22451700.063 6    230264.484 6    169081.70748  22451700.57848
 18  5 30  0 21 50.0000000  0  9G03G14G16G22G23G26G27G31G32         -0.000215212
  23698732.805 5   -199079.316 5   -146171.90647  23698733.51247
  20532249.227 6    -50220.059 6    -38045.68448  20532245.68848
  20621997.672 7   -385733.477 7   -284441.12148  20621993.99248
  23572613.750 5    -80381.594 5    -57349.25847  23572607.92247
  24529936.945 2   -796130.215 2   -578615.90646  24529932.24246
  20570782.047 7   -109860.316 7    -81157.35549  20570782.23449
  22863913.500 4   -843190.105 4   -621069.29747  22863912.89547
  21545965.453 6   -165179.059 6   -124197.81347  21545961.99647
  22453097.047 6    237604.316 6    174801.05148  22453097.16848
 18  5 30  0 21 55.0000000  0  9G03G14G16G22G23G26G27G31G32         -0.000220125
  23697562.031 5   -205233.895 5   -150967.69147  23697562.64847
  20531982.961 7    -51617.973 7    -39134.96948  20531979.99648
  20619775.039 7   -397412.566 7   -293541.71548  20619770.68448
  23572157.961 5    -82774.156 5    -59213.61747  23572152.27047
  24525199.664 3   -821024.477 3   -598014.00846  24525194.86346
  20570155.445 7   -113152.070 7    -83722.37149  20570156.04749
  22858997.117 5   -869029.387 5   -641203.81347  22858995.77347
  21544980.578 5   -170352.801 5   -128229.30547  21544978.20747
  22454495.211 6    244951.949 6    180526.46148  22454495.53948
 18  5 30  0 22  0.0000000  0  9G03G14G16G22G23G26G27G31G32         -0.000225039
  23696393.445 5   -211377.113 5   -155754.62947  23696393.54747
  20531719.500 7    -53002.289 7    -40213.66449  20531716.61349
  20617555.141 7   -409080.176 7   -302633.36748  20617550.69948
  23571704.367 5    -85159.543 5    -61072.37147  23571698.19947
  24520462.734 3   -845917.035 3   -617410.77046  24520458.40646
  20569530.570 7   -116436.438 7    -86281.61749  20569530.71549
  22854080.414 5   -894865.688 5   -661336.03547  22854079.08247
  21543996.852 5   -175524.551 5   -132259.24647  21543993.69547
  22455894.977 6    252307.430 6    186258.00048  22455895.44148
 18  5 30  0 22  5.0000000  0  9G03G14G16G22G23G26G27G31G32         -0.000229950
  23695226.758 5   -217509.059 5   -160532.78547  23695226.43047
  20531458.617 6    -54373.109 6    -41281.84849  20531455.75449
  20615336.766 7   -420736.359 7   -311716.10248  20615332.25848
  23571251.438 5    -87537.770 5    -62925.53947  23571245.58247
  24515726.352 3   -870808.145 3   -636806.44946  24515722.15646
  20568907.000 7   -119713.434 7    -88835.11749  20568907.31649
  22849164.570 5   -920699.125 5   -681465.99647  22849163.44947
  21543012.461 5   -180694.398 5   -136287.70747  21543009.80947
  22457296.234 6    259670.781 6    191995.66448  22457296.56348
 18  5 30  0 22 10.0000000  0  9G03G14G16G22G23G26G27G31G32         -0.000234865
  23694061.992 6   -223629.781 6   -165302.18847  23694062.13747
  20531200.531 7    -55730.461 7    -42339.51649  20531197.73049
  20613120.656 7   -432381.156 7   -320789.96948  20613116.38348
  23570799.805 5    -89908.887 5    -64773.16847  23570794.39547
  24510990.172 3   -895697.684 3   -656200.91846  24510985.98446
  20568284.469 7   -122983.160 7    -91382.96949  20568285.13749
  22844249.188 4   -946529.660 4   -701593.69147  22844248.02747
  21542029.055 6   -185862.426 6   -140314.74647  21542026.34847
  22458698.570 6    267041.914 6    197739.38348  22458699.05948
 18  5 30  0 22 15.0000000  0  9G03G14G16G22G23G26G27G31G32         -0.000239779
  23692899.742 5   -229739.391 5   -170062.94947  23692899.50847
  20530944.867 6    -57074.434 6    -43386.77348  20530941.63748
  20610907.242 7   -444014.664 7   -329855.03948  20610902.63348
  23570350.930 5    -92273.008 5    -66615.34447  23570344.21547
  24506253.703 3   -920585.711 3   -675594.18846  24506249.96946
  20567663.867 7   -126245.660 7    -93925.17649  20567664.49249
  22839334.641 4   -972357.367 4   -721719.17247  22839333.33647
  21541046.352 6   -191028.629 6   -144340.37147  21541043.08247
  22460103.398 6    274420.750 6    203489.11748  22460103.40648
 18  5 30  0 22 20.0000000  0  9G03G14G16G22G23G26G27G31G32         -0.000244694
  23691738.719 6   -235837.656 6   -174814.85947  23691738.80947
  20530691.844 6    -58404.863 6    -44423.47749  20530688.88749
  20608695.477 7   -455636.684 7   -338911.16848  20608691.06648
  23569901.617 5    -94629.965 5    -68451.94147  23569896.02747
  24501518.688 3   -945472.164 3   -694986.25446  24501514.01646
  20567044.508 7   -129500.789 7    -96461.64149  20567044.75449
  22834420.422 5   -998182.012 5   -741842.26647  22834419.14547
  21540064.148 6   -196192.785 6   -148364.39547  21540060.32447
  22461509.031 6    281807.430 6    209244.96548  22461509.03148
 18  5 30  0 22 25.0000000  0  9G03G14G16G22G23G26G27G31G32         -0.000249609
  23690579.945 5   -241924.582 5   -179557.89847  23690580.03147
  20530441.102 6    -59721.723 6    -45449.60549  20530438.19949
  20606485.969 7   -467247.223 7   -347958.34048  20606481.78148
  23569455.094 5    -96979.719 5    -70282.91847  23569449.07047
  24496783.234 3   -970356.824 3   -714376.85946  24496779.02346
  20566426.500 7   -132748.504 7    -98992.32849  20566426.80149
  22829506.578 4  -1024003.613 4   -761962.99647  22829505.69947
  21539081.469 6   -201355.055 6   -152386.93447  21539077.87147
  22462916.398 6    289202.016 6    215006.96148  22462916.28548
 18  5 30  0 22 30.0000000  0  9G03G14G16G22G23G26G27G31G32         -0.000254524
  23689424.227 6   -248000.121 6   -184292.09847  23689423.41847
  20530193.047 6    -61024.949 6    -46465.11349  20530190.13349
  20604278.578 7   -478846.191 7   -356996.49648  20604274.00048
  23569009.141 5    -99322.277 5    -72108.28947  23569003.91847
  24492047.523 4   -995239.672 4   -733766.04346  24492043.93846
  20565809.992 7   -135988.785 7   -101517.22749  20565810.54349
  22824593.555 5  -1049822.133 5   -782081.32047  22824592.84447
  21538099.297 6   -206515.293 6   -156407.88747  21538095.66447
  22464325.266 6    296604.551 6    220775.15648  22464325.29348
 18  5 30  0 22 35.0000000  0  9G03G14G16G22G23G26G27G31G32         -0.000259439
  23688270.516 5   -254064.289 5   -189017.43047  23688269.39147
  20529947.555 6    -62314.570 6    -47470.01648  20529944.20748
  20602073.609 7   -490433.602 7   -366025.65248  20602068.91848
  23568564.406 5   -101657.516 5    -73927.94947  23568559.45347
  24487313.195 4  -1020120.758 4   -753153.90246  24487309.55546
  20565194.625 7   -139221.594 7   -104036.29749  20565195.01649
  22819681.563 3  -1075637.211 3   -802197.02346  22819680.72746
  21537118.023 6   -211673.504 6   -160427.27347  21537114.65647
  22465734.930 6    304014.992 6    226549.50448  22465735.68048
 18  5 30  0 22 40.0000000  0  9G03G14G16G22G23G26G27G31G32         -0.000264357
  23687119.234 6   -260117.102 6   -193733.91047  23687117.68047
  20529704.664 7    -63590.594 7    -48464.32449  20529701.62149
  20599870.781 6   -502009.457 6   -375045.80548  20599866.75048
  23568121.789 5   -103985.566 5    -75742.02347  23568116.81347
  24482579.094 5  -1045000.160 5   -772540.42246  24482574.66846
  20564580.859 7   -142446.988 7   -106549.59449  20564581.35949
  22814769.023 5  -1101449.082 5   -822309.72747  22814769.34847
  21536137.055 6   -216829.711 6   -164445.09047  21536132.96947
  22467147.063 6    311433.340 6    232330.03948  22467147.48048
 18  5 30  0 22 45.0000000  0  9G03G14G16G22G23G26G27G31G32         -0.000269274
  23685969.609 6   -266158.398 6   -198441.41447  23685967.89547
  20529464.453 6    -64852.773 6    -49447.84449  20529461.16849
  20597670.164 7   -513573.648 7   -384056.85548  20597666.07448
  23567680.742 5   -106306.277 5    -77550.37147  23567675.09047
  24477845.156 4  -1069877.626 4   -791925.46646  24477840.92646
  20563968.422 7   -145664.813 7   -109056.98849  20563968.54349
  22809857.844 4  -1127257.926 4   -842420.59447  22809858.40647
  21535155.938 6   -221983.668 6   -168461.15647  21535152.15647
  22468559.914 6    318859.730 6    238116.80948  22468560.36348
 18  5 30  0 22 50.0000000  0  9G03G14G16G22G23G26G27G31G32         -0.000274191
  23684821.680 6   -272188.449 6   -203140.15647  23684819.57847
  20529227.125 6    -66101.418 6    -50420.81649  20529223.98049
  20595471.711 7   -525126.414 7   -393059.01248  20595468.03548
  23567240.125 5   -108619.871 5    -79353.18447  23567234.84847
  24473111.508 4  -1094753.320 4   -811309.11346  24473107.27746
  20563357.547 7   -148875.328 7   -111558.68449  20563357.61349
  22804947.883 5  -1153063.711 5   -862528.94947  22804946.50847
  21534175.813 6   -227135.664 6   -172475.70747  21534171.16847
  22469975.141 6    326293.938 6    243909.69548  22469975.03948
 18  5 30  0 22 55.0000000  0  9G03G14G16G22G23G26G27G31G32         -0.000279108
  23683676.328 6   -278207.035 6   -207829.95747  23683674.31347
  20528991.672 6    -67336.352 6    -51383.10248  20528988.76648
  20593275.141 7   -536667.504 7   -402052.07848  20593271.46148
  23566800.922 5   -110926.199 5    -81150.31647  23566796.29747
  24468377.594 4  -1119627.172 4   -830691.34846  24468373.82446
  20562748.289 7   -152078.313 7   -114054.52349  20562748.32449
  22800037.109 5  -1178866.215 5   -882634.76647  22800036.58247
  21533195.328 6   -232285.500 6   -176488.56347  21533191.40647
  22471391.531 6    333736.137 6    249708.79748  22471391.48848
 18  5 30  0 23  0.0000000  0  9G03G14G16G22G23G26G27G31G32         -0.000284027
  23682532.945 6   -284214.391 6   -212511.01247  23682530.78547
  20528759.680 6    -68557.754 6    -52334.85248  20528756.14148
  20591081.289 7   -548197.207 7   -411036.25448  20591077.88748
  23566363.250 5   -113225.469 5    -82941.98447  23566358.93847
  24463644.539 5  -1144499.262 5   -850072.20746  24463641.35946
  20562139.836 7   -155274.066 7   -116544.71549  20562139.86749
  22795128.109 5  -1204665.625 5   -902738.21547  22795126.64847
  21532216.195 6   -237433.344 6   -180499.87547  21532211.65247
  22472809.109 6    341186.082 6    255513.93448  22472808.72748
 18  5 30  0 23  5.0000000  0  9G03G14G16G22G23G26G27G31G32         -0.000288944
  23681392.000 6   -290210.067 6   -217182.96847  23681389.30147
  20528529.656 7    -69765.246 7    -53275.76248  20528526.64148
  20588889.500 7   -559715.043 7   -420011.20348  20588885.99648
  23565927.383 5   -115517.277 5    -84727.80147  23565922.27047
  24458912.633 5  -1169369.199 5   -869451.38746  24458909.14846
  20561533.313 7   -158462.082 7   -119028.88749  20561533.07849
  22790218.711 5  -1230461.531 5   -922838.90647  22790217.80947
  21531237.117 6   -242578.813 6   -184509.32847  21531232.66447
  22474228.422 6    348644.188 6    261325.43848  22474227.68048
 18  5 30  0 23 10.0000000  0  9G03G14G16G22G23G26G27G31G32         -0.000293863
  23680252.422 5   -296194.328 5   -221846.04347  23680251.10547
  20528302.531 7    -70958.996 7    -54205.95748  20528299.28148
  20586700.141 7   -571221.242 7   -428977.07448  20586696.76248
  23565492.516 5   -117801.738 5    -86507.90647  23565487.57047
  24454180.406 5  -1194237.098 5   -888828.96147  24454177.16047
  20560928.203 7   -161642.594 7   -121507.21149  20560928.10249
  22785310.352 5  -1256254.043 5   -942936.95747  22785309.73047
  21530258.883 6   -247722.121 6   -188517.10247  21530254.41047
  22475648.914 6    356110.301 6    267143.16048  22475648.57448
 18  5 30  0 23 15.0000000  0  9G03G14G16G22G23G26G27G31G32         -0.000298782
  23679116.133 5   -302167.023 5   -226500.10247  23679114.03947
  20528077.789 7    -72138.914 7    -55125.36748  20528075.58648
  20584512.602 6   -582715.738 6   -437933.82448  20584508.84448
  23565059.141 5   -120078.867 5    -88282.28547  23565054.32447
  24449447.727 5  -1219102.957 5   -908204.94546  24449444.83646
  20560324.164 7   -164815.523 7   -123979.61749  20560324.29749
  22780402.938 5  -1282043.152 5   -963032.36347  22780402.19947
  21529280.430 6   -252863.164 6   -192523.10947  21529276.28147
  22477071.289 6    363584.449 6    272967.16048  22477070.78148
 18  5 30  0 23 20.0000000  0  9G03G14G16G22G23G26G27G31G32         -0.000303701
  23677981.375 5   -308128.055 5   -231145.06647  23677979.84047
  20527856.102 6    -73304.809 6    -56033.88348  20527853.42248
  20582327.734 6   -594198.301 6   -446881.27748  20582323.78148
  23564627.000 5   -122348.445 5    -90050.79346  23564622.20346
  24444716.930 5  -1243966.570 5   -927579.18046  24444713.55946
  20559722.078 7   -167980.703 7   -126446.00049  20559722.05549
  22775496.836 5  -1307828.559 5   -983124.86347  22775495.62547
  21528302.172 6   -258001.648 6   -196527.12947  21528298.58247
  22478494.867 6    371066.828 6    278797.58248  22478494.39548
 18  5 30  0 23 25.0000000  0  9G03G14G16G22G23G26G27G31G32         -0.000308622
  23676849.070 5   -314077.246 5   -235780.80546  23676847.87546
  20527637.016 6    -74456.641 6    -56931.39848  20527634.30148
  20580144.945 7   -605668.879 7   -455819.39848  20580141.04348
  23564196.188 5   -124610.457 5    -91813.39547  23564191.21947
  24439986.836 5  -1268827.766 5   -946951.55146  24439981.99646
  20559120.938 7   -171138.043 7   -128906.27049  20559120.82849
  22770590.250 5  -1333610.207 5  -1003214.45747  22770590.11747
  21527325.047 6   -263137.590 6   -200529.16847  21527321.15647
  22479920.164 6    378557.520 6    284634.45748  22479919.68848
 18  5 30  0 23 30.0000000  0  9G03G14G16G22G23G26G27G31G32         -0.000313541
  23675719.492 5   -320014.754 5   -240407.43846  23675717.71146
  20527420.641 7    -75594.387 7    -57817.96549  20527417.65249
  20577964.461 7   -617127.539 7   -464748.21948  20577960.77748
  23563768.008 5   -126864.902 5    -93570.10547  23563761.97347
  24435255.648 5  -1293686.652 5   -966322.08647  24435250.89547
  20558521.617 7   -174287.605 7   -131360.47749  20558521.95749
  22765684.555 5  -1359388.125 5  -1023301.12147  22765684.56647
  21526348.414 6   -268271.008 6   -204529.23047  21526344.96547
  22481347.359 6    386056.469 6    290477.78548  22481346.55948
 18  5 30  0 23 35.0000000  0  9G03G14G16G22G23G26G27G31G32         -0.000318460
  23674591.688 4   -325940.578 4   -245024.95746  23674589.89546
  20527206.695 6    -76718.195 6    -58693.66849  20527204.13349
  20575786.516 6   -628574.320 6   -473667.78948  20575782.60948
  23563340.977 5   -129111.898 5    -95321.02047  23563334.25047
  24430525.742 5  -1318543.316 5   -985690.91846  24430521.16446
  20557923.930 7   -177429.523 7   -133808.71949  20557923.72749
  22760780.039 5  -1385162.410 5  -1043384.98047  22760779.72747
  21525372.297 6   -273401.984 6   -208527.39147  21525368.57847
  22482775.805 6    393563.547 6    296327.44148  22482775.02048
 18  5 30  0 23 40.0000000  0  9G03G14G16G22G23G26G27G31G32         -0.000323381
  23673466.875 5   -331855.004 5   -249633.60547  23673464.87147
  20526995.328 7    -77828.242 7    -59558.64849  20526992.98449
  20573609.477 7   -640009.441 7   -482578.27348  20573606.43848
  23562914.227 5   -131351.715 5    -97066.33247  23562908.03947
  24425796.516 5  -1343397.879 5  -1005058.13347  24425791.79747
  20557327.297 7   -180563.945 7   -136251.12549  20557327.56349
  22755875.828 5  -1410933.180 5  -1063466.09047  22755875.41447
  21524396.289 6   -278530.676 6   -212523.75847  21524393.18847
  22484206.133 6    401078.555 6    302183.27748  22484205.10548
 18  5 30  0 23 45.0000000  0  9G03G14G16G22G23G26G27G31G32         -0.000328302
  23672343.977 5   -337757.695 5   -254233.10247  23672342.14847
  20526786.859 7    -78924.227 7    -60412.66449  20526784.25849
  20571435.922 7   -651432.629 7   -491479.46148  20571432.82048
  23562488.930 5   -133583.992 5    -98805.78146  23562483.35546
  24421066.914 5  -1368250.047 5  -1024423.45747  24421062.77747
  20556732.398 7   -183690.605 7   -138687.48049  20556732.33649
  22750972.563 5  -1436700.188 5  -1083544.26647  22750971.45747
  21523420.727 6   -283656.820 6   -216518.16447  21523417.81347
  22485637.578 6    408601.816 6    308045.53548  22485636.52048
 18  5 30  0 23 50.0000000  0  9G03G14G16G22G23G26G27G31G32         -0.000333223
  23671222.586 5   -343648.676 5   -258823.47747  23671221.17647
  20526580.922 7    -80006.160 7    -61255.74249  20526578.27349
  20569264.695 6   -662843.879 6   -500371.35548  20569261.68048
  23562065.266 4   -135808.723 4   -100539.33246  23562059.75846
  24416337.906 5  -1393099.805 5  -1043786.89147  24416333.80547
  20556138.742 7   -186809.492 7   -141117.78149  20556138.95749
  22746069.797 5  -1462463.414 5  -1103619.50047  22746068.81347
  21522445.477 6   -288780.418 6   -220510.57447  21522442.18847
  22487070.469 6    416133.301 6    313914.21948  22487069.79748
 18  5 30  0 23 55.0000000  0  9G03G14G16G22G23G26G27G31G32         -0.000338142
  23670103.555 5   -349527.742 5   -263404.58247  23670102.43047
  20526378.039 7    -81073.910 7    -62087.75449  20526375.40649
  20567095.344 6   -674243.027 6   -509253.80948  20567092.81348
  23561643.180 5   -138025.809 5   -102266.93446  23561638.00846
  24411609.516 5  -1417946.977 5  -1063148.32446  24411605.76646
  20555546.664 7   -189920.461 7   -143541.91849  20555546.88349
  22741168.414 5  -1488222.645 5  -1123691.62547  22741166.85947
  21521471.195 6   -293901.270 6   -224500.85247  21521467.91047
  22488505.055 6    423673.172 6    319789.42248  22488504.38348
 18  5 30  0 24  0.0000000  0  9G03G14G16G22G23G26G27G31G32         -0.000343063
  23668987.000 5   -355395.082 5   -267976.53147  23668986.21147
  20526177.719 7    -82127.559 7    -62908.78549  20526174.70349
  20564928.430 6   -685630.227 6   -518126.95348  20564925.66448
  23561222.703 4   -140235.383 4   -103988.70746  23561217.66046
  24406882.000 5  -1442791.738 5  -1082507.88746  24406877.68846
  20554956.219 7   -193023.688 7   -145960.02049  20554956.36749
  22736267.586 5  -1513978.004 5  -1143760.73047  22736265.98047
  21520497.375 6   -299019.516 6   -228489.08247  21520493.55147
  22489941.680 6    431221.293 6    325671.06348  22489940.32448
 18  5 30  0 24  5.0000000  0  9G03G14G16G22G23G26G27G31G32         -0.000347984
  23667873.055 5   -361250.633 5   -272539.28547  23667872.51647
  20525979.891 7    -83167.070 7    -63718.79749  20525976.70749
  20562763.859 6   -697005.402 6   -526990.72748  20562761.10548
  23560804.219 4   -142437.355 4   -105704.53947  23560798.48847
  24402154.961 5  -1467633.949 5  -1101865.45746  24402150.02746
  20554367.195 7   -196119.055 7   -148371.99649  20554367.38749
  22731366.938 5  -1539729.465 5  -1163826.78947  22731365.41047
  21519523.672 6   -304135.109 6   -232475.24247  21519520.47347
  22491379.500 6    438777.688 6    331559.14848  22491377.97348
 18  5 30  0 24 10.0000000  0  9G03G14G16G22G23G26G27G31G32         -0.000352905
  23666762.383 3   -367094.508 3   -277092.97346  23666760.79346
  20525784.422 7    -84192.785 7    -64518.06349  20525781.36749
  20560602.000 6   -708368.887 6   -535845.39148  20560598.83648
  23560387.133 4   -144632.090 4   -107414.72346  23560380.89146
  24397427.102 3  -1492473.723 3  -1121221.15646  24397423.14146
  20553779.609 7   -199206.957 7   -150778.14549  20553779.79749
  22726466.828 4  -1565477.215 4  -1183889.97747  22726466.48847
  21518550.344 6   -309248.328 6   -236459.57447  21518546.82847
  22492818.875 6    446342.059 6    337453.44948  22492817.96948
 18  5 30  0 24 15.0000000  0  9G03G14G16G22G23G26G27G31G32         -0.000357826
  23665656.453 2   -372926.699 2   -281637.55146  23665651.67246
  20525591.961 7    -85204.328 7    -65306.30549  20525588.91049
  20558441.570 6   -719720.266 6   -544690.62948  20558438.64548
  23559970.953 4   -146819.219 4   -109118.98046  23559964.84046
  24392700.742 3  -1517311.086 3  -1140574.94546  24392696.63346
  20553193.617 7   -202286.961 7   -153178.13349  20553193.89149
  22721568.109 5  -1591220.996 5  -1203950.09047  22721567.48047
  21517578.539 6   -314358.789 6   -240441.75447  21517574.41047
  22494260.008 6    453914.750 6    343354.21548  22494259.05948
 18  5 30  0 24 20.0000000  0  9G03G14G16G22G23G26G27G31G32         -0.000362747
  23664543.852 5   -378747.121 5   -286172.94147  23664543.58647
  20525402.320 7    -86201.535 7    -66083.33249  20525399.12549
  20556283.891 6   -731059.438 6   -553526.34849  20556280.53149
  23559555.758 5   -148998.520 5   -110817.18447  23559550.57047
  24387975.336 5  -1542145.875 5  -1159926.69946  24387970.34446
  20552608.992 7   -205358.934 7   -155571.91449  20552609.18849
  22716669.789 5  -1616960.594 5  -1224006.86347  22716669.35947
  21516606.070 6   -319466.367 6   -244421.67647  21516602.14847
  22495701.922 6    461495.906 6    349261.62948  22495701.62148
 18  5 30  0 24 25.0000000  0  9G03G14G16G22G23G26G27G31G32         -0.000367670
  23663438.414 5   -384555.660 5   -290699.09047  23663437.98047
  20525215.375 7    -87184.660 7    -66849.41849  20525211.85549
  20554128.430 6   -742386.652 6   -562352.75048  20554125.17248
  23559142.453 4   -151170.348 4   -112509.50847  23559137.26247
  24383249.820 5  -1566977.906 5  -1179276.32846  24383245.43046
  20552026.063 7   -208423.180 7   -157959.62949  20552026.12949
  22711772.078 4  -1642696.207 4  -1244060.61347  22711771.83647
  21515634.602 6   -324571.359 6   -248399.59047  21515630.24647
  22497146.203 6    469085.277 6    355175.40247  22497146.36347
 18  5 30  0 24 30.0000000  0  9G03G14G16G22G23G26G27G31G32         -0.000372591
  23662335.172 5   -390352.309 5   -295215.94547  23662334.66447
  20525030.766 7    -88153.520 7    -67604.37949  20525027.59449
  20551975.500 6   -753701.715 6   -571169.68048  20551972.00048
  23558730.781 4   -153334.531 4   -114195.91046  23558725.66046
  24378525.023 5  -1591807.209 5  -1198623.83146  24378519.83646
  20551444.063 7   -211479.512 7   -160341.19949  20551444.68049
  22706874.836 4  -1668427.728 4  -1264111.13947  22706875.50847
  21514664.172 6   -329673.527 6   -252375.30147  21514659.86747
  22498592.477 6    476683.012 6    361095.70748  22498592.07048
 18  5 30  0 24 35.0000000  0  9G03G14G16G22G23G26G27G31G32         -0.000377512
  23661234.438 5   -396137.273 5   -299723.70747  23661233.90647
  20524848.570 7    -89108.332 7    -68348.39149  20524845.52049
  20549824.594 6   -765004.820 6   -579977.30148  20549820.66848
  23558319.766 4   -155491.184 4   -115876.41447  23558315.13747
  24373800.031 5  -1616634.109 5  -1217969.46146  24373795.52346
  20550864.047 7   -214528.125 7   -162716.74249  20550864.35249
  22701979.617 4  -1694155.203 4  -1284158.48847  22701979.92247
  21513693.898 6   -334773.043 6   -256348.95347  21513688.89547
  22500039.531 6    484288.953 6    367022.40648  22500040.00848
 18  5 30  0 24 40.0000000  0  9G03G14G16G22G23G26G27G31G32         -0.000382435
  23660135.617 5   -401910.672 5   -304222.46947  23660135.40247
  20524669.727 7    -90049.238 7    -69081.57449  20524666.55949
  20547675.750 6   -776296.160 6   -588775.74248  20547672.36348
  23557910.836 5   -157640.566 5   -117551.27747  23557906.34847
  24369076.734 4  -1641458.516 4  -1237313.13346  24369071.75446
  20550285.484 7   -217569.191 7   -165086.40649  20550285.25049
  22697085.156 5  -1719878.895 5  -1304202.91447  22697085.31647
  21512723.203 6   -339870.113 6   -260320.69147  21512719.16447
  22501488.805 6    491902.871 6    372955.31648  22501488.88348
 18  5 30  0 24 45.0000000  0  9G03G14G16G22G23G26G27G31G32         -0.000387356
  23659038.625 5   -407672.155 5   -308711.94347  23659038.69947
  20524493.391 7    -90975.852 7    -69803.61748  20524490.40648
  20545529.297 6   -787575.340 6   -597564.71548  20545525.91048
  23557503.047 4   -159782.215 4   -119220.09447  23557498.77047
  24364352.625 4  -1666280.160 4  -1256654.67246  24364347.98046
  20549708.094 7   -220602.316 7   -167449.88749  20549708.28149
  22692190.688 5  -1745598.340 5  -1324244.03947  22692191.33247
  21511754.039 6   -344964.277 6   -264290.16047  21511749.46547
  22502939.094 6    499525.199 6    378894.78148  22502939.13348
 18  5 30  0 24 50.0000000  0  9G03G14G16G22G23G26G27G31G32         -0.000392277
  23657944.992 5   -413421.723 5   -313192.12547  23657945.41447
  20524319.938 7    -91888.176 7    -70514.52748  20524316.31648
  20543385.250 6   -798842.348 6   -606344.19548  20543381.63748
  23557097.617 4   -161916.293 4   -120883.02347  23557092.98447
  24359629.414 5  -1691098.977 5  -1275994.01646  24359625.00846
  20549132.633 7   -223627.539 7   -169807.20749  20549132.91449
  22687296.445 4  -1771313.590 4  -1344281.88747  22687297.44947
  21510785.484 6   -350055.563 6   -268257.41847  21510780.65647
  22504390.945 6    507155.891 6    384840.77048  22504391.76648
 18  5 30  0 24 55.0000000  0  9G03G14G16G22G23G26G27G31G32         -0.000397200
  23656853.297 5   -419159.465 5   -317663.09447  23656853.29747
  20524148.844 7    -92786.313 7    -71214.37148  20524145.44548
  20541243.656 6   -810097.301 6   -615114.27748  20541240.17248
  23556692.656 4   -164042.703 4   -122539.99647  23556688.59847
  24354907.945 5  -1715915.074 5  -1295331.21546  24354902.82046
  20548558.539 7   -226644.918 7   -172158.41449  20548558.48449
  22682404.313 5  -1797024.590 5  -1364316.43047  22682405.43047
  21509816.594 6   -355144.051 6   -272222.46147  21509812.50047
  22505844.766 6    514794.867 6    390793.20748  22505845.41848
 18  5 30  0 25  0.0000000  0  9G03G14G16G22G23G26G27G31G32         -0.000402121
  23655763.180 5   -424885.570 5   -322124.99247  23655763.90247
  20523980.758 7    -93670.391 7    -71903.26648  20523977.33248
  20539104.094 7   -821340.301 7   -623875.05948  20539100.41448
  23556289.320 4   -166161.758 4   -124191.20747  23556285.26647
  24350185.883 5  -1740728.590 5  -1314666.41446  24350180.87146
  20547985.773 7   -229654.590 7   -174503.60949  20547985.93849
  22677512.828 4  -1822731.574 4  -1384347.85247  22677513.18047
  21508849.031 6   -360229.836 6   -276185.40247  21508844.58647
  22507300.266 6    522441.996 6    396752.00848  22507300.82048
 18  5 30  0 25  5.0000000  0  9G03G14G16G22G23G26G27G31G32         -0.000407043
  23654676.211 5   -430599.805 5   -326577.64847  23654676.40247
  20523814.953 7    -94540.223 7    -72581.06648  20523811.98448
  20536967.031 7   -832571.211 7   -632626.41448  20536963.47348
  23555888.141 5   -168273.191 5   -125836.48847  23555883.85547
  24345464.016 5  -1765539.262 5  -1333999.41046  24345459.06346
  20547414.422 7   -232656.438 7   -176842.71149  20547414.43849
  22672622.047 4  -1848434.344 4  -1404375.98847  22672622.14547
  21507882.359 6   -365312.797 6   -280146.14847  21507877.68047
  22508757.047 6    530097.426 6    402717.26648  22508757.89848
 18  5 30  0 25 10.0000000  0  9G03G14G16G22G23G26G27G31G32         -0.000411964
  23653591.461 5   -436302.199 5   -331021.08247  23653591.10947
  20523652.719 7    -95395.840 7    -73247.78948  20523649.19148
  20534832.578 7   -843790.004 7   -641368.32848  20534828.19148
  23555487.305 5   -170377.039 5   -127475.86347  23555483.17647
  24340743.641 5  -1790347.133 5  -1353330.20346  24340737.89146
  20546844.594 7   -235650.430 7   -179175.69949  20546844.94949
  22667731.703 5  -1874132.836 5  -1424400.79347  22667731.75447
  21506914.906 6   -370392.895 6   -284104.67647  21506910.67647
  22510215.586 6    537761.156 6    408688.98448  22510216.27048
 18  5 30  0 25 15.0000000  0  9G03G14G16G22G23G26G27G31G32         -0.000416887
  23652509.000 6   -441992.863 6   -335455.37947  23652508.56647
  20523492.180 7    -96237.281 7    -73903.46948  20523488.86748
  20532699.672 7   -854996.785 7   -650100.88348  20532695.18848
  23555088.617 5   -172473.445 5   -129109.43047  23555084.12547
  24336023.508 5  -1815152.250 5  -1372658.85946  24336017.54746
  20546276.500 7   -238636.676 7   -181502.64849  20546276.68849
  22662842.500 5  -1899827.121 5  -1444422.30947  22662842.24647
  21505948.484 6   -375470.254 6   -288061.04747  21505944.62947
  22511675.609 6    545433.086 6    414667.10948  22511675.79748
 18  5 30  0 25 20.0000000  0  9G03G14G16G22G23G26G27G31G32         -0.000421808
  23651428.000 5   -447671.727 5   -339880.46547  23651428.35247
  20523334.898 7    -97064.547 7    -74548.09448  20523331.37148
  20530569.266 7   -866191.516 7   -658824.04348  20530564.94548
  23554691.359 5   -174562.301 5   -130737.13347  23554687.21947
  24331303.727 5  -1839954.551 5  -1391985.32446  24331297.73046
  20545709.672 7   -241615.137 7   -183823.52349  20545709.80149
  22657953.664 5  -1925517.199 5  -1464440.56347  22657953.72747
  21504982.523 6   -380544.766 6   -292015.21947  21504978.98847
  22513137.305 6    553113.227 6    420651.62548  22513137.23448
 18  5 30  0 25 25.0000000  0  9G03G14G16G22G23G26G27G31G32         -0.000426731
  23650350.109 5   -453339.098 5   -344296.60947  23650350.16847
  20523180.016 7    -97877.867 7    -75181.84448  20523177.18448
  20528441.438 7   -877374.426 7   -667538.00448  20528436.41048
  23554295.242 5   -176643.941 5   -132359.20747  23554290.94547
  24326584.773 5  -1864754.301 5  -1411309.79346  24326578.68446
  20545144.297 7   -244586.027 7   -186138.50849  20545144.78549
  22653065.836 5  -1951203.215 5  -1484455.65647  22653065.78947
  21504018.203 6   -385616.684 6   -295967.35947  21504014.10947
  22514600.102 6    560801.383 6    426642.38348  22514600.32048
 18  5 30  0 25 30.0000000  0  9G03G14G16G22G23G26G27G31G32         -0.000431652
  23649273.359 5   -458994.527 5   -348703.44547  23649273.75047
  20523027.695 7    -98676.883 7    -75804.44948  20523025.21548
  20526315.813 7   -888545.145 7   -676242.45748  20526310.78548
  23553900.656 5   -178717.949 5   -133975.32047  23553896.12147
  24321866.094 5  -1889551.148 5  -1430631.99246  24321859.18446
  20544580.453 7   -247549.035 7   -188447.35549  20544580.50849
  22648178.914 5  -1976884.887 5  -1504467.34847  22648178.47747
  21503053.188 5   -390685.711 5   -299917.23047  21503049.00047
  22516065.438 6    568497.891 6    432639.64148  22516065.12948
 18  5 30  0 25 35.0000000  0  9G03G14G16G22G23G26G27G31G32         -0.000436575
  23648200.234 6   -464638.250 6   -353101.14847  23648200.37547
  20522878.766 7    -99461.727 7    -76416.03148  20522875.69948
  20524192.375 7   -899703.879 7   -684937.57448  20524187.61348
  23553507.742 5   -180784.535 5   -135585.66447  23553502.80147
  24317148.047 5  -1914345.203 5  -1449952.04346  24317141.02346
  20544018.188 7   -250504.309 7   -190750.16449  20544018.16049
  22643292.594 5  -2002562.219 5  -1524475.66847  22643292.32847
  21502088.828 6   -395751.801 6   -303864.87147  21502085.30547
  22517531.070 6    576202.578 6    438643.29748  22517531.35548
 18  5 30  0 25 40.0000000  0  9G03G14G16G22G23G26G27G31G32         -0.000441496
  23647127.750 5   -470270.113 5   -357489.60547  23647128.08647
  20522732.148 7   -100232.316 7    -77016.49648  20522728.79748
  20522071.273 7   -910850.535 7   -693623.27348  20522066.58248
  23553115.359 5   -182843.570 5   -137190.07447  23553110.98047
  24312430.711 5  -1939136.309 5  -1469269.76646  24312423.28546
  20543457.227 7   -253451.750 7   -193046.87949  20543457.20349
  22638408.297 5  -2028235.180 5  -1544480.56647  22638406.69947
  21501125.703 6   -400815.012 6   -307810.22347  21501121.49647
  22518998.953 6    583915.543 6    444653.39148  22518998.89848
 18  5 30  0 25 45.0000000  0  9G03G14G16G22G23G26G27G31G32         -0.000446419
  23646058.836 5   -475890.219 5   -361868.91047  23646058.61347
  20522588.234 7   -100988.664 7    -77605.84848  20522585.42248
  20519952.469 7   -921985.078 7   -702299.54748  20519947.73848
  23552725.070 5   -184895.098 5   -138788.69147  23552720.72747
  24307713.219 5  -1963924.539 5  -1488585.25446  24307705.88346
  20542897.820 7   -256391.379 7   -195337.50049  20542897.82849
  22633523.352 6  -2053903.789 6  -1564482.10947  22633522.01647
  21500163.289 6   -405875.359 6   -311753.34047  21500158.09047
  22520468.281 6    591636.746 6    450669.90648  22520467.98048
 18  5 30  0 25 50.0000000  0  9G03G14G16G22G23G26G27G31G32         -0.000451342
  23644991.617 5   -481498.762 5   -366239.21147  23644991.19947
  20522446.883 7   -101731.070 7    -78184.35549  20522443.33649
  20517835.938 7   -933107.750 7   -710966.56348  20517831.70748
  23552336.625 5   -186939.316 5   -140381.60547  23552331.78147
  24302996.195 5  -1988710.074 5  -1507898.66846  24302989.43846
  20542340.031 7   -259323.473 7   -197622.25849  20542340.05549
  22628639.344 5  -2079568.242 5  -1584480.37147  22628638.43047
  21499200.383 5   -410933.039 5   -315694.41447  21499196.25447
  22521939.258 6    599365.918 6    456692.62948  22521938.93448
 18  5 30  0 25 55.0000000  0  9G03G14G16G22G23G26G27G31G32         -0.000456263
  23643925.938 5   -487095.477 5   -370600.29747  23643926.27347
  20522308.297 7   -102459.215 7    -78751.73848  20522305.54348
  20515721.648 7   -944218.297 7   -719624.13748  20515717.01648
  23551949.109 5   -188976.051 5   -141968.68447  23551944.37547
  24298280.469 5  -2013492.609 5  -1527209.73646  24298274.08246
  20541783.625 7   -262247.758 7   -199900.93049  20541783.57449
  22623756.117 5  -2105228.273 5  -1604475.19547  22623755.27747
  21498238.141 5   -415987.836 5   -319633.19547  21498234.31647
  22523411.320 6    607103.328 6    462721.76648  22523411.44948
 18  5 30  0 26  0.0000000  0  9G03G14G16G22G23G26G27G31G32         -0.000461185
  23642862.734 5   -492680.207 5   -374952.02747  23642863.77747
  20522172.234 7   -103172.875 7    -79307.84848  20522169.05948
  20513609.742 7   -955316.570 7   -728272.14148  20513605.39148
  23551562.438 5   -191004.992 5   -143549.66847  23551558.40647
  24293565.547 5  -2038272.074 5  -1546518.40246  24293558.73446
  20541228.594 7   -265164.043 7   -202173.35549  20541228.47349
  22618873.773 5  -2130883.645 5  -1624466.41047  22618873.04747
  21497277.258 5   -421039.504 5   -323569.56647  21497273.60947
  22524885.359 6    614849.203 6    468757.50448  22524885.35548
 18  5 30  0 26  5.0000000  0  9G03G14G16G22G23G26G27G31G32         -0.000466106
  23641802.789 5   -498252.930 5   -379294.40647  23641803.39147
  20522039.633 7   -103872.066 7    -79852.68048  20522035.94148
  20511500.180 7   -966402.520 7   -736910.55149  20511495.74649
  23551177.922 5   -193026.258 5   -145124.67647  23551173.53547
  24288850.773 5  -2063048.344 5  -1565824.59046  24288844.50446
  20540674.992 7   -268072.320 7   -204439.55149  20540675.14149
  22613992.578 5  -2156534.336 5  -1644453.94147  22613992.06347
  21496316.859 5   -426087.973 5   -327503.44947  21496312.87147
  22526360.781 6    622603.539 6    474799.83248  22526360.80148
 18  5 30  0 26 10.0000000  0  9G03G14G16G22G23G26G27G31G32         -0.000471029
  23640744.344 5   -503813.840 5   -383627.59847  23640745.07447
  20521909.375 7   -104557.000 7    -80386.39848  20521905.91048
  20509392.805 7   -977476.348 7   -745539.50848  20509388.32448
  23550794.664 5   -195040.012 5   -146693.85247  23550790.06647
  24284136.383 5  -2087821.578 5  -1585128.40646  24284130.02346
  20540123.523 8   -270972.785 8   -206699.65649  20540123.11749
  22609112.633 5  -2182180.457 5  -1664437.93447  22609111.87147
  21495356.984 6   -431133.516 6   -331435.05547  21495352.40647
  22527838.406 6    630366.078 6    480848.56648  22527838.87548
 18  5 30  0 26 15.0000000  0  9G03G14G16G22G23G26G27G31G32         -0.000475950
  23639688.289 5   -509363.207 5   -387951.77347  23639688.59447
  20521781.797 7   -105227.918 7    -80909.19948  20521778.12548
  20507287.742 7   -988538.305 7   -754159.21949  20507283.41449
  23550412.617 4   -197046.504 4   -148257.36347  23550408.38347
  24279423.289 5  -2112592.027 5  -1604430.04346  24279416.63346
  20539572.688 7   -273865.719 7   -208953.88749  20539572.76249
  22604233.031 5  -2207822.406 5  -1684418.66447  22604232.09047
  21494397.094 5   -436176.352 5   -335364.54347  21494393.24247
  22529316.859 6    638136.613 6    486903.50448  22529317.84848
 18  5 30  0 26 20.0000000  0  9G03G14G16G22G23G26G27G31G32         -0.000480873
  23638634.070 5   -514900.793 5   -392266.77347  23638634.62947
  20521656.328 7   -105884.574 7    -81420.87549  20521653.14849
  20505184.914 7   -999588.164 7   -762769.50448  20505180.89548
  23550032.406 4   -199045.527 4   -149815.04747  23550028.11747
  24274710.055 6  -2137359.520 6  -1623729.39147  24274703.65247
  20539023.781 7   -276750.883 7   -211202.07049  20539023.72349
  22599354.344 5  -2233459.840 5  -1704395.87547  22599353.46147
  21493438.211 6   -441216.207 6   -339291.71547  21493434.05547
  22530796.359 6    645915.340 6    492964.84048  22530797.42648
 18  5 30  0 26 25.0000000  0  9G03G14G16G22G23G26G27G31G32         -0.000485794
  23637582.844 5   -520426.605 5   -396572.60547  23637583.07047
  20521534.414 7   -106526.969 7    -81921.46149  20521530.91849
  20503084.445 7  -1010625.926 7   -771370.36349  20503080.45349
  23549653.789 5   -201037.063 5   -151366.91047  23549649.41847
  24269997.250 5  -2162123.930 5  -1643026.32046  24269991.30146
  20538476.125 7   -279628.277 7   -213444.19549  20538476.00049
  22594476.758 5  -2259092.789 5  -1724369.60547  22594476.42247
  21492479.484 6   -446253.074 6   -343216.57047  21492475.69947
  22532278.914 6    653702.270 6    499032.56648  22532279.36348
 18  5 30  0 26 30.0000000  0  9G03G14G16G22G23G26G27G31G32         -0.000490717
  23636533.188 5   -525940.594 5   -400869.21547  23636534.03547
  20521415.031 7   -107155.070 7    -82410.89148  20521411.38748
  20500986.109 7  -1021651.539 7   -779961.73848  20500981.90248
  23549276.359 5   -203021.109 5   -152912.91047  23549271.65647
  24265285.688 5  -2186885.258 5  -1662320.87947  24265279.55147
  20537930.266 7   -282497.859 7   -215680.23449  20537930.23449
  22589599.523 6  -2284721.129 6  -1744339.71947  22589599.79747
  21491521.844 6   -451286.988 6   -347139.07847  21491517.81347
  22533762.180 6    661497.457 6    505106.72748  22533762.68048
 18  5 30  0 26 35.0000000  0  9G03G14G16G22G23G26G27G31G32         -0.000495638
  23635486.070 5   -531442.895 5   -405156.71546  23635486.47346
  20521297.766 7   -107769.027 7    -82889.29748  20521294.28548
  20498890.641 7  -1032665.180 7   -788543.80148  20498886.29348
  23548899.422 5   -204997.820 5   -154453.20747  23548895.36747
  24260574.398 5  -2211643.555 5  -1681613.06346  24260568.65246
  20537385.484 7   -285359.762 7   -217910.28949  20537385.30949
  22584723.727 5  -2310344.969 5  -1764306.34047  22584723.60247
  21490564.109 6   -456317.938 6   -351059.30947  21490561.15647
  22535246.805 6    669300.719 6    511187.17648  22535247.58248
 18  5 30  0 26 39.9990000  0  9G03G14G16G22G23G26G27G31G32          0.000499439
  23634441.526 5   -536932.298 5   -409434.17347  23634441.56247
  20521184.190 7   -108368.577 7    -83356.49048  20521180.75748
  20496797.276 7  -1043664.488 7   -797114.69348  20496792.96448
  23548524.847 5   -206966.646 5   -155987.37347  23548520.70647
  24255864.519 5  -2236393.815 5  -1700898.98247  24255858.62447
  20536842.433 7   -288213.325 7   -220133.84949  20536842.65149
  22579849.472 5  -2335959.099 5  -1784265.40247  22579849.49947
  21489607.331 6   -461344.819 6   -354976.36147  21489604.06247
  22536733.417 6    677110.663 6    517272.83348  22536734.11648
 18  5 30  0 26 44.9990000  0  9G03G14G16G22G23G26G27G31G32          0.000494518
  23633398.495 5   -542410.977 5   -413703.27046  23633398.91346
  20521072.331 7   -108954.000 7    -83812.66848  20521069.17148
  20494705.980 7  -1054653.887 7   -805677.86348  20494702.00348
  23548151.745 4   -208928.348 4   -157515.95346  23548147.47646
  24251154.542 5  -2261145.898 5  -1720186.32047  24251149.12447
  20536301.034 7   -291059.652 7   -222351.76249  20536301.00749
  22574975.222 5  -2361573.684 5  -1804224.80547  22574975.22247
  21488651.901 5   -466369.754 5   -358891.89547  21488647.74147
  22538221.292 6    684930.348 6    523366.07448  22538221.79248
 18  5 30  0 26 49.9990000  0  9G03G14G16G22G23G26G27G31G32          0.000489597
  23632357.940 5   -547877.996 5   -417963.29347  23632358.76547
  20520963.745 7   -109525.285 7    -84257.82448  20520960.15148
  20492617.159 7  -1065631.277 7   -814231.67248  20492613.24548
  23547779.073 5   -210882.703 5   -159038.84447  23547775.73047
  24246445.198 5  -2285894.953 5  -1739471.31647  24246439.34347
  20535760.589 7   -293898.340 7   -224563.73449  20535760.22249
  22570101.480 6  -2387183.766 6  -1824180.70347  22570101.65947
  21487695.308 5   -471391.738 5   -362805.12947  21487692.40947
  22539710.573 6    692758.160 6    529465.65648  22539711.27248
 18  5 30  0 26 54.9990000  0  9G03G14G16G22G23G26G27G31G32          0.000484676
  23631320.300 5   -553333.246 5   -422214.13746  23631320.11246
  20520857.722 6   -110082.328 6    -84691.89148  20520853.91348
  20490530.847 7  -1076596.590 7   -822776.07448  20490526.73348
  23547409.065 4   -212829.703 4   -160555.99246  23547404.95646
  24241735.495 5  -2310640.918 5  -1758753.87547  24241730.65147
  20535221.839 7   -296729.293 7   -226769.66449  20535221.59749
  22565228.987 5  -2412789.188 5  -1844132.98447  22565228.87047
  21486739.995 5   -476410.684 5   -366716.00447  21486737.15547
  22541201.659 6    700594.098 6    535571.56648  22541202.60548
 18  5 30  0 26 59.9990000  0  9G03G14G16G22G23G26G27G31G32          0.000479753
  23630284.597 5   -558776.809 5   -426455.87947  23630283.67947
  20520754.401 6   -110625.137 6    -85114.85248  20520750.99948
