     2.10           OBSERVATION DATA    GPS(GPS)            RINEX VERSION / TYPE
cnvtToRINEX 2.50.0  convertToRINEX OPR  30-May-18 13:32 UTC PGM / RUN BY / DATE 
----------------------------------------------------------- COMMENT             
TC08                                                        MARKER NAME         
TC08                                                        MARKER NUMBER       
GNSS Observer       Trimble                                 OBSERVER / AGENCY   
0220324777          5700                2.32                REC # / TYPE / VERS 
                    TRM39105.00                             ANT # / TYPE        
 -2967124.0941  5005001.5140  2604572.5154                  APPROX POSITION XYZ 
        0.1030        0.0000        0.0000                  ANTENNA: DELTA H/E/N
     1     1     0                                          WAVELENGTH FACT L1/2
     4    C1    L1    L2    P2                              # / TYPES OF OBSERV 
  2018     5    30     0    23   20.0000000     GPS         TIME OF FIRST OBS   
  2018     5    30     1    35   55.0000000     GPS         TIME OF LAST OBS    
     0                                                      RCV CLOCK OFFS APPL 
    17                                                      LEAP SECONDS        
    12                                                      # OF SATELLITES     
   G03   861   861   861   861                              PRN / # OF OBS      
   G08   440   439   438   438                              PRN / # OF OBS      
   G14   872   872   872   872                              PRN / # OF OBS      
   G16   872   872   872   872                              PRN / # OF OBS      
   G21   545   545   543   543                              PRN / # OF OBS      
   G22   770   770   768   768                              PRN / # OF OBS      
   G23   872   872   872   872                              PRN / # OF OBS      
   G26   872   872   872   872                              PRN / # OF OBS      
   G27   872   872   872   872                              PRN / # OF OBS      
   G29   354   354   354   354                              PRN / # OF OBS      
   G31   872   872   872   872                              PRN / # OF OBS      
   G32   619   615   526   526                              PRN / # OF OBS      
CARRIER PHASE MEASUREMENTS: PHASE SHIFTS REMOVED            COMMENT             
                                                            END OF HEADER       
 18  5 30  0 23 20.0000000  0 10G03G14G16G22G23G26G27G29G31G32      -0.000322674
  23673101.01615     -3148.02715     -1661.89557  23673102.10957
  20521760.21116     31644.32816     19802.46158  20521757.57458
  20577039.39116    -48456.37516    -32363.86758  20577035.89158
  23559489.09415     29779.57415     15345.98457  23559484.05957
  24439945.39115   -136089.14115    -69631.23056  24439941.69556
  20554368.43817     21841.48417     13515.10559  20554368.73859
  22769364.47715    -94339.73815    -54133.05957  22769364.66457
  23526985.10915     72607.08215     45500.85556  23526983.46156
  21522522.27317      4070.18817      2257.09458  21522518.43058
  22472039.27316    123607.79716     84439.81358  22472039.60958
 18  5 30  0 23 25.0000000  0 10G03G14G16G22G23G26G27G29G31G32      -0.000324099
  23673016.250 5     -3593.508 5     -2009.01246  23673017.40246
  20522588.148 6     35995.105 6     23192.67648  20522585.46148
  20575904.523 7    -54420.430 7    -37011.18848  20575900.87948
  23560105.734 5     33020.512 5     17871.37547  23560100.50447
  24436262.219 5   -155445.801 5    -84714.35546  24436257.91046
  20554815.328 7     24189.176 7     15344.47749  20554815.79349
  22765506.180 5   -114615.719 5    -69932.51647  22765506.23047
  23528898.047 6     82660.453 6     53334.64847  23528896.32047
  21522592.039 7      4436.074 7      2542.19148  21522588.68048
  22474511.688 6    136602.441 6     94565.50448  22474512.46148
 18  5 30  0 23 30.0000000  0 10G03G14G16G22G23G26G27G29G31G32      -0.000325542
  23672928.844 5     -4054.527 5     -2368.25846  23672929.64146
  20523413.367 6     40332.727 6     26572.63748  20523410.87148
  20574766.617 7    -60399.816 7    -41670.44548  20574762.73048
  23560719.555 6     36241.738 6     20381.44147  23560713.77747
  24432573.602 5   -174827.414 5    -99816.88746  24432569.57446
  20555258.445 7     26517.375 7     17158.65249  20555258.90249
  22761642.539 5   -134915.234 5    -85750.30147  22761643.08247
  23530808.313 5     92697.633 5     61155.82847  23530806.55147
  21522657.281 7      4777.211 7      2808.02348  21522653.34048
  22476980.961 6    149578.035 6    104676.35247  22476981.64547
 18  5 30  0 23 35.0000000  0 10G03G14G16G22G23G26G27G29G31G32      -0.000327000
  23672838.203 5     -4527.727 5     -2736.99246  23672839.49246
  20524237.391 6     44660.480 6     29944.91048  20524234.31348
  20573626.383 6    -66391.137 6    -46339.01248  20573623.02048
  23561328.875 6     39446.633 6     22878.73447  23561324.11747
  24428881.609 5   -194230.539 5   -114936.22746  24428877.48446
  20555698.445 7     28829.418 7     18960.23849  20555698.52049
  22757776.328 5   -155234.930 5   -101583.83247  22757776.76647
  23532715.586 5    102722.074 5     68967.06346  23532714.03546
  21522717.977 7      5097.008 7      3057.20348  21522713.90248
  22479447.109 6    162538.000 6    114775.00848  22479447.76648
 18  5 30  0 23 40.0000000  0 10G03G14G16G22G23G26G27G29G31G32      -0.000328472
  23672745.805 5     -5012.648 5     -3114.85246  23672746.62546
  20525058.883 6     48978.805 6     33309.83248  20525056.24248
  20572483.969 7    -72393.996 7    -51016.56648  20572480.56648
  23561934.945 5     42635.563 5     25363.61346  23561931.55146
  24425185.383 5   -213654.793 5   -130071.97746  24425181.12546
  20556135.500 7     31125.773 7     20749.60249  20556135.51649
  22753906.180 5   -175574.289 5   -117432.68047  22753906.11747
  23534620.617 5    112734.152 5     76768.66846  23534619.46946
  21522774.703 7      5395.840 7      3290.05148  21522771.19148
  22481910.422 6    175482.746 6    124861.81647  22481911.46547
 18  5 30  0 23 45.0000000  0 10G03G14G16G22G23G26G27G29G31G32      -0.000329960
  23672651.672 5     -5508.891 5     -3501.54746  23672652.23846
  20525878.727 6     53288.145 6     36667.74648  20525876.05548
  20571339.703 7    -78407.934 7    -55702.76248  20571336.64148
  23562539.570 5     45808.930 5     27836.34446  23562534.92646
  24421484.844 5   -233099.695 5   -145223.84046  24421481.24646
  20556569.578 7     33406.855 7     22527.07049  20556569.59449
  22750030.703 5   -195932.902 5   -133296.52747  22750031.94947
  23536523.352 5    122734.383 5     84561.05546  23536522.48046
  21522827.703 7      5674.262 7      3506.99648  21522824.36348
  22484370.820 6    188412.680 6    134937.06648  22484371.25448
 18  5 30  0 23 50.0000000  0 10G03G14G16G22G23G26G27G29G31G32      -0.000331461
  23672555.539 5     -6013.711 5     -3894.90246  23672556.30546
  20526697.773 6     57591.270 6     40020.82848  20526695.01648
  20570193.930 6    -84430.219 6    -60395.44948  20570190.60248
  23563140.523 5     48969.563 5     30299.17646  23563136.40246
  24417781.320 5   -252562.488 5   -160389.65246  24417777.34046
  20557001.016 7     35675.422 7     24294.78549  20557001.50049
  22746154.008 5   -216308.023 5   -149173.24647  22746154.85547
  23538425.344 6    132725.395 6     92346.23846  23538423.16046
  21522877.078 7      5934.930 7      3710.10948  21522874.02348
  22486829.203 6    201330.563 6    145002.94548  22486829.84848
 18  5 30  0 23 55.0000000  0 10G03G14G16G22G23G26G27G29G31G32      -0.000332977
  23672457.969 5     -6529.363 5     -4296.73046  23672458.03546
  20527514.641 6     61885.863 6     43367.26248  20527512.48848
  20569045.805 6    -90463.164 6    -65096.45348  20569042.43048
  23563740.039 6     52115.160 6     32750.26647  23563735.09447
  24414074.008 5   -272045.465 5   -175571.19946  24414069.41446
  20557429.766 7     37929.145 7     26050.93049  20557430.21549
  22742273.313 5   -236701.863 5   -165064.54347  22742273.93047
  23540323.727 5    142704.965 5    100122.52046  23540322.45346
  21522923.336 7      6175.586 7      3897.63348  21522919.28148
  22489284.352 6    214234.074 6    155057.60948  22489285.47348
 18  5 30  0 24  0.0000000  0 10G03G14G16G22G23G26G27G29G31G32      -0.000334503
  23672358.641 5     -7052.078 5     -4704.03546  23672358.89146
  20528331.219 6     66175.781 6     46710.04748  20528328.57848
  20567896.625 7    -96502.934 7    -69802.76248  20567893.22348
  23564335.844 5     55249.465 5     35192.58646  23564331.41446
  24410363.523 5   -291544.770 5   -190765.46946  24410359.28546
  20557856.586 7     40171.887 7     27798.52349  20557857.13349
  22738389.617 5   -257110.594 5   -180967.44947  22738390.52747
  23542222.047 5    152676.887 5    107892.84046  23542219.55146
  21522966.133 7      6400.121 7      4072.59448  21522962.34448
  22491738.078 6    227127.090 6    165104.11748  22491739.26648
 18  5 30  0 24  5.0000000  0 10G03G14G16G22G23G26G27G29G31G32      -0.000336042
  23672257.672 3     -7581.305 3     -5116.42246  23672257.80946
  20529146.398 7     70461.188 7     50049.31648  20529144.10948
  20566746.063 6   -102549.293 6    -74514.21148  20566742.99248
  23564931.242 3     58373.074 3     37626.54746  23564925.93846
  24406649.922 5   -311060.223 5   -205972.30546  24406646.15246
  20558281.281 7     42403.809 7     29537.67649  20558281.79749
  22734504.148 4   -277534.070 4   -196881.82446  22734504.62546
  23544118.945 6    162641.266 6    115657.28946  23544116.21946
  21523006.219 7      6608.621 7      4235.05148  21523001.51648
  22494189.742 6    240009.688 6    175142.46947  22494190.77747
 18  5 30  0 24 10.0000000  0 10G03G14G16G22G23G26G27G29G31G32      -0.000337595
  23672154.60915     -8118.75415     -5534.95356  23672155.99656
  20529961.039 6     74740.332 6     53383.71148  20529958.50848
  20565593.680 7   -108604.016 7    -79232.18048  20565590.73448
  23565522.85216     61482.21916                
  24402932.789 5   -330593.352 5   -221192.93446  24402929.05146
  20558704.023 7     44623.215 7     31267.07849  20558703.92649
  22730614.273 5   -297974.430 5   -212809.54347  22730613.94947
  23546012.492 5    172596.563 5    123414.65646  23546010.75446
  21523042.125 7      6799.488 7      4383.77348  21523038.75848
  22496638.617 6    252880.289 6    185171.52047  22496639.94547
 18  5 30  0 24 15.0000000  0 10G03G14G16G22G23G26G27G29G31G32      -0.000339159
  23672051.508 5     -8662.891 5     -5958.99646  23672052.12146
  20530774.664 6     79015.785 6     56715.23048  20530772.11748
  20564440.094 6   -114664.551 6    -83954.67248  20564437.29348
  23566112.266 6     64582.410 6     38400.76657  23566107.26657
  24399212.414 5   -350141.855 5   -236425.55546  24399208.80946
  20559124.141 7     46832.543 7     32988.62549  20559124.27749
  22726721.53115   -318428.64515   -228747.94957  22726721.98857
  23547905.609 6    182545.102 6    131166.77046  23547903.59446
  21523075.672 7      6975.227 7      4520.70748  21523072.00048
  22499086.023 6    265741.328 6    195193.09047  22499087.08247
 18  5 30  0 24 20.0000000  0 10G03G14G16G22G23G26G27G29G31G32      -0.000340734
  23671946.609 6     -9214.449 6     -6388.79347  23671947.07447
  20531587.258 6     83286.211 6     60042.82048  20531584.84448
  20563286.180 7   -120732.230 7    -88682.74248  20563282.50848
  23566699.680 5     67670.984 5     40807.43847  23566695.19547
  24395490.320 5   -369706.867 5   -251671.01246  24395485.87946
  20559542.297 7     49030.520 7     34701.34849  20559542.84049
  22722827.094 5   -338897.531 5   -244697.72747  22722826.91447
  23549796.922 6    192485.703 6    138912.68447  23549795.91447
  21523105.422 7      7134.430 7      4644.76248  21523102.35548
  22501531.305 6    278591.469 6    205206.16847  22501532.63347
 18  5 30  0 24 25.0000000  0 10G03G14G16G22G23G26G27G29G31G32      -0.000342323
  23671840.375 5     -9774.391 5     -6825.12546  23671840.71546
  20532398.563 6     87550.563 6     63365.69148  20532396.10948
  20562129.273 6   -126808.094 6    -93417.18048  20562126.58248
  23567284.859 5     70746.941 5     43204.28147  23567280.96147
  24391763.797 5   -389289.508 5   -266930.21546  24391759.13746
  20559958.250 7     51216.133 7     36404.42649  20559958.55949
  22718928.313 6   -359382.609 6   -260660.12947  22718928.56647
  23551686.672 5    202417.270 5    146651.55947  23551685.89547
  21523132.656 7      7276.094 7      4755.14548  21523129.35248
  22503974.656 6    291429.660 6    215209.93447  22503975.57447
 18  5 30  0 24 30.0000000  0 10G03G14G16G22G23G26G27G29G31G32      -0.000343925
  23671731.414 5    -10341.281 5     -7266.83647  23671732.59847
  20533209.195 6     91810.398 6     66685.04348  20533206.82848
  20560972.172 7   -132890.570 7    -98156.77748  20560968.85948
  23567868.805 5     73811.766 5     45592.43047  23567864.05147
  24388033.609 5   -408888.246 5   -282201.95346  24388030.00446
  20560371.945 7     53390.863 7     38099.01249  20560372.52749
  22715027.078 5   -379882.313 5   -276633.91047  22715027.34847
  23553574.742 5    212341.258 5    154384.52046  23553574.52746
  21523156.547 7      7401.840 7      4853.13748  21523153.18048
  22506415.602 6    304257.461 6    225205.61747  22506415.77347
 18  5 30  0 24 35.0000000  0 10G03G14G16G22G23G26G27G29G31G32      -0.000345535
  23671622.711 5    -10913.473 5     -7712.70746  23671623.62946
  20534019.523 6     96067.258 6     70002.06648  20534017.01648
  20559813.609 7   -138978.164 7   -102900.36748  20559810.80548
  23568450.250 5     76867.051 5     47973.19147  23568445.41447
  24384300.930 5   -428501.527 5   -297485.03146  24384297.44146
  20560783.859 7     55556.254 7     39786.32449  20560784.21949
  22711124.227 6   -400395.125 6   -292617.91447  22711124.21147
  23555462.523 5    222259.199 5    162112.76647  23555461.81647
  21523177.922 7      7513.148 7      4939.85248  21523174.60948
  22508855.164 6    317076.371 6    235194.36747  22508855.55547
 18  5 30  0 24 40.0000000  0 10G03G14G16G22G23G26G27G29G31G32      -0.000347160
  23671512.539 5    -11492.000 5     -8163.51647  23671513.70747
  20534828.602 6    100320.145 6     73316.00048  20534826.40248
  20558653.820 7   -145071.855 7   -107648.69948  20558650.71948
  23569029.336 5     79911.789 5     50345.69147  23569025.19547
  24380565.852 5   -448130.262 5   -312780.13746  24380562.38746
  20561193.695 7     57711.340 7     41465.61749  20561194.71549
  22707218.234 6   -420921.922 6   -308612.82047  22707218.45747
  23557348.727 5    232170.172 5    169835.59446  23557347.69546
  21523195.836 7      7609.070 7      5014.59048  21523192.62948
  22511292.836 6    329885.438 6    245175.44147  22511292.89847
 18  5 30  0 24 45.0000000  0 10G03G14G16G22G23G26G27G29G31G32      -0.000348793
  23671401.891 5    -12076.500 5     -8618.96147  23671402.69947
  20535637.773 6    104569.426 6     76627.12148  20535634.67648
  20557493.258 7   -151171.270 7   -112401.49248  20557489.96948
  23569606.672 6     82946.285 6     52710.22746  23569602.92246
  24376828.141 5   -467774.066 5   -328086.97346  24376824.34446
  20561602.414 7     59856.441 7     43137.11749  20561602.81649
  22703309.438 6   -441462.402 6   -324618.39147  22703309.48447
  23559233.445 6    242074.484 6    177553.23447  23559232.24247
  21523211.258 7      7689.980 7      5077.62548  21523208.24248
  22513727.914 6    342685.016 6    255149.12948  22513728.91448
 18  5 30  0 24 50.0000000  0 10G03G14G16G22G23G26G27G29G31G32      -0.000350439
  23671289.297 5    -12666.160 5     -9078.45747  23671290.46947
  20536444.961 6    108815.973 6     79936.10948  20536443.18848
  20556331.594 7   -157275.563 7   -117158.08248  20556328.56348
  23570182.313 6     85971.406 6     55067.45746  23570178.52046
  24373087.172 5   -487432.184 5   -343404.98846  24373083.80946
  20562008.836 7     61992.453 7     44801.53949  20562009.15649
  22699398.328 6   -462015.695 6   -340633.93847  22699398.40647
  23561117.008 6    251972.980 6    185266.35247  23561116.03147
  21523224.078 7      7756.707 7      5129.62148  21523220.59048
  22516161.984 6    355475.902 6    265116.03948  22516162.77748
 18  5 30  0 24 55.0000000  0 10G03G14G16G22G23G26G27G29G31G32      -0.000352095
  23671176.672 5    -13259.379 5     -9540.71147  23671177.68447
  20537252.977 6    113061.324 6     83244.17648  20537250.80148
  20555169.461 6   -163383.152 6   -121917.23848  20555166.26648
  23570757.516 6     88988.742 6     57418.62946  23570752.61346
  24369344.164 5   -507102.887 5   -358732.80946  24369340.91846
  20562413.898 7     64120.918 7     46460.07449  20562414.60549
  22695484.930 6   -482580.168 6   -356658.20347  22695484.57447
  23562999.836 6    261867.313 6    192976.22746  23562998.13346
  21523234.281 7      7810.934 7      5171.86748  21523231.14548
  22518595.047 6    368259.730 6    275077.44947  22518595.53547
 18  5 30  0 25  0.0000000  0 10G03G14G16G22G23G26G27G29G31G32      -0.000353760
  23671062.563 5    -13857.375 5    -10006.69547  23671064.03547
  20538060.594 6    117304.258 6     86550.34848  20538058.16048
  20554006.234 7   -169495.313 7   -126679.96948  20554003.25448
  23571329.391 6     91997.027 6     59762.73047  23571324.76247
  24365597.648 4   -526787.492 4   -374071.47746  24365594.62546
  20562816.922 7     66240.578 7     48111.75849  20562817.71549
  22691569.328 5   -503157.098 5   -372692.18047  22691569.26647
  23564882.234 6    271756.133 6    200681.77747  23564880.26247
  21523242.242 7      7851.344 7      5203.35248  21523238.76648
  22521025.781 6    381035.199 6    285032.34848  22521026.51248
 18  5 30  0 25  5.0000000  0 10G03G14G16G22G23G26G27G29G31G32      -0.000355436
  23670948.469 5    -14459.371 5    -10475.80947  23670950.13347
  20538867.242 6    121545.617 6     89855.30548  20538865.31348
  20552842.656 6   -175611.191 6   -131445.59448  20552839.69148
  23571900.078 6     94997.035 6     62100.39847  23571895.87147
  24361849.125 4   -546485.133 4   -389420.26246  24361846.31346
  20563218.953 7     68352.227 7     49757.20349  20563219.35949
  22687650.695 5   -523745.625 5   -388735.18447  22687651.21547
  23566762.891 6    281640.273 6    208383.70346  23566761.35946
  21523247.164 7      7878.742 7      5224.70348  21523244.21148
  22523456.055 6    393803.148 6    294981.38747  22523456.42247
 18  5 30  0 25 10.0000000  0 10G03G14G16G22G23G26G27G29G31G32      -0.000357121
  23670833.094 5    -15064.320 5    -10947.19147  23670834.97347
  20539674.609 6    125786.398 6     93159.80148  20539672.45748
  20551678.375 7   -181729.758 7   -136213.30148  20551674.85948
  23572469.266 5     97989.891 5     64432.47347  23572465.59047
  24358099.109 4   -566194.684 4   -404778.32046  24358096.02046
  20563619.563 7     70456.969 7     51397.25448  20563620.28948
  22683731.156 6   -544344.648 6   -404786.37947  22683731.23047
  23568642.906 6    291520.828 6    216082.82847  23568641.69547
  21523250.492 7      7894.199 7      5236.74648  21523247.26248
  22525884.492 6    406564.625 6    304925.38747  22525884.75047
 18  5 30  0 25 15.0000000  0 10G03G14G16G22G23G26G27G29G31G32      -0.000358816
  23670717.406 5    -15672.984 5    -11421.49246  23670718.68846
  20540481.172 6    130025.879 6     96463.29348  20540479.08248
  20550513.430 7   -187851.762 7   -140983.69148  20550510.18448
  23573037.391 5    100974.727 5     66758.30547  23573033.75047
  24354345.633 5   -585916.941 5   -420146.32446  24354342.78546
  20564018.484 7     72554.004 7     53031.30549  20564019.28549
  22679808.852 5   -564954.934 5   -420846.34847  22679809.54347
  23570522.797 6    301396.977 6    223778.51647  23570521.74247
  21523251.000 7      7896.984 7      5238.91448  21523247.47348
  22528311.156 6    419318.836 6    314863.72347  22528312.09447
 18  5 30  0 25 20.0000000  0 10G03G14G16G22G23G26G27G29G31G32      -0.000360521
  23670600.602 5    -16285.996 5    -11899.15647  23670601.92247
  20541287.875 6    134263.434 6     99765.27048  20541285.43048
  20549347.320 7   -193977.840 7   -145757.26648  20549344.25048
  23573604.484 5    103950.941 5     69077.42246  23573599.91846
  24350590.367 4   -605652.566 4   -435524.72346  24350587.48846
  20564415.969 7     74642.691 7     54658.85549  20564416.35949
  22675885.125 6   -585577.129 6   -436915.60547  22675885.30147
  23572400.922 6    311268.102 6    231470.29747  23572399.80147
  21523248.633 7      7886.441 7      5230.69548  21523245.37948
  22530736.789 6    432065.125 6    324795.87547  22530737.60247
 18  5 30  0 25 25.0000000  0 10G03G14G16G22G23G26G27G29G31G32      -0.000362236
  23670482.258 5    -16902.480 5    -12379.54747  23670485.10947
  20542093.875 6    138499.957 6    103066.44948  20542091.63348
  20548180.867 6   -200107.090 6   -150533.30548  20548177.99248
  23574169.445 6    106919.410 6     71390.49646  23574164.37146
  24346831.344 4   -625400.582 4   -450912.78146  24346829.23446
  20564812.141 7     76723.949 7     56280.60249  20564812.79749
  22671958.234 5   -606210.281 5   -452993.37947  22671959.26247
  23574278.156 6    321135.113 6    239158.85247  23574277.32047
  21523244.703 7      7863.508 7      5212.82848  21523241.06348
  22533161.125 6    444804.457 6    334722.62148  22533161.82448
 18  5 30  0 25 30.0000000  0 10G03G14G16G22G23G26G27G29G31G32      -0.000363962
  23670365.250 5    -17521.742 5    -12862.10547  23670367.27047
  20542899.898 6    142736.098 6    106367.33248  20542897.91848
  20547014.430 6   -206238.859 6   -155311.31648  20547011.17648
  23574732.109 5    109880.789 5     73698.06646  23574727.86346
  24343072.609 5   -645160.453 5   -466310.07446  24343068.78146
  20565206.750 7     78798.367 7     57897.02349  20565207.72349
  22668030.453 5   -626853.727 5   -469079.18447  22668030.46147
  23576156.305 6    330998.633 6    246844.71946  23576153.75446
  21523238.234 7      7828.867 7      5185.83248  21523234.81348
  22535583.359 6    457537.430 6    344644.40247  22535584.82847
 18  5 30  0 25 35.0000000  0 10G03G14G16G22G23G26G27G29G31G32      -0.000365694
  23670247.305 5    -18142.352 5    -13345.69147  23670249.03147
  20543706.313 6    146973.344 6    109669.08248  20543703.75848
  20545847.227 6   -212371.680 6   -160090.14148  20545844.14548
  23575295.102 5    112836.598 5     76001.28546  23575290.73046
  24339309.727 5   -664930.500 5   -481715.30546  24339307.07846
  20565600.563 7     80867.504 7     59509.34049  20565601.11349
  22664099.891 5   -647505.922 5   -485171.80547  22664100.30547
  23578031.789 6    340860.141 6    254529.02046  23578030.07046
  21523229.711 7      7784.000 7      5150.86748  21523226.35548
  22538005.648 6    470265.535 6    354562.39547  22538006.73047
 18  5 30  0 25 40.0000000  0 10G03G14G16G22G23G26G27G29G31G32      -0.000367435
  23670129.320 5    -18764.230 5    -13830.27347  23670130.57047
  20544512.750 6    151211.727 6    112971.70748  20544510.48848
  20544680.227 7   -218505.551 7   -164869.77748  20544676.68448
  23575856.781 5    115786.793 5     78300.12547  23575851.80947
  24335545.641 5   -684710.789 5   -497128.52046  24335542.56646
  20565993.344 7     82931.336 7     61117.51649  20565993.93849
  22660168.258 5   -668166.867 5   -501271.24247  22660169.07047
  23579908.320 6    350719.711 6    262211.78947  23579906.27347
  21523218.938 7      7728.879 7      5107.90648  21523215.28548
  22540427.070 6    482988.805 6    364476.61747  22540427.83247
 18  5 30  0 25 45.0000000  0 10G03G14G16G22G23G26G27G29G31G32      -0.000369184
  23670010.258 5    -19387.496 5    -14315.95747  23670011.99647
  20545319.859 6    155451.172 6    116275.16048  20545317.45748
  20543513.102 6   -224640.465 6   -169650.24248  20543509.51648
  23576416.969 5    118731.352 5     80594.59046  23576412.42246
  24331779.180 5   -704501.336 5   -512549.72746  24331776.64846
  20566384.984 7     84989.789 7     62721.50049  20566385.80149
  22656235.086 5   -688836.605 5   -517377.52747  22656235.82047
  23581783.836 6    360577.191 6    269892.94146  23581781.95746
  21523206.289 7      7663.527 7      5056.97748  21523203.12948
  22542847.422 6    495707.137 6    374386.99647  22542848.35247
 18  5 30  0 25 50.0000000  0 10G03G14G16G22G23G26G27G29G31G32      -0.000370941
  23669891.656 5    -20012.227 5    -14802.75447  23669893.55547
  20546126.406 6    159691.570 6    119579.36748  20546124.40648
  20542344.805 6   -230776.543 6   -174431.59848  20542341.53148
  23576976.016 5    121670.145 5     82884.55146  23576971.27346
  24328011.609 4   -724302.211 4   -527978.97346  24328008.53946
  20566775.586 7     87042.758 7     64321.21949  20566776.21149
  22652300.695 5   -709515.172 5   -533490.69547  22652300.39547
  23583659.320 6    370432.516 6    277572.41446  23583657.59446
  21523192.438 7      7587.789 7      4997.94948  21523188.61748
  22545266.578 6    508420.453 6    384293.46947  22545267.95347
 18  5 30  0 25 55.0000000  0 10G03G14G16G22G23G26G27G29G31G32      -0.000372707
  23669773.273 5    -20638.285 5    -15290.59447  23669774.10247
  20546933.859 6    163933.090 6    122884.44548  20546931.39148
  20541176.852 6   -236913.648 6   -179213.75448  20541173.52748
  23577534.211 5    124603.375 5     85170.17246  23577528.99646
  24324241.711 5   -744113.277 5   -543416.15646  24324238.48046
  20567164.688 7     89090.449 7     65916.82049  20567166.18049
  22648363.555 5   -730202.488 5   -549610.69147  22648363.76247
  23585534.805 5    380285.820 5    285250.29346  23585532.14846
  21523175.344 7      7501.801 7      4930.94548  21523172.23048
  22547684.859 6    521128.867 6    394196.11347  22547685.91047
 18  5 30  0 26  0.0000000  0 10G03G14G16G22G23G26G27G29G31G32      -0.000374483
  23669653.953 5    -21266.914 5    -15780.43446  23669654.38346
  20547740.742 6    168174.488 6    126189.43448  20547738.33648
  20540009.203 7   -243053.031 7   -183997.69948  20540005.84448
  23578091.047 5    127529.730 5     87450.45746  23578085.68846
  24320469.805 5   -763935.793 5   -558862.28946  24320466.52746
  20567553.805 7     91131.520 7     67507.25849  20567554.51649
  22644424.914 5   -750899.719 5   -565738.38347  22644424.80947
  23587408.820 6    390135.824 6    292925.61746  23587406.70346
  21523157.242 7      7404.379 7      4855.03548  21523153.93048
  22550101.875 6    533831.148 6    404093.98047  22550103.28547
 18  5 30  0 26  5.0000000  0 10G03G14G16G22G23G26G27G29G31G32      -0.000376266
  23669533.227 5    -21897.254 5    -16271.60246  23669534.61346
  20548548.313 6    172416.660 6    129495.00848  20548545.82048
  20538840.469 7   -249193.824 7   -188782.73848  20538837.05548
  23578646.742 6    130450.102 6     89726.06346  23578641.68046
  24316696.016 5   -783768.855 5   -574316.62946  24316692.17246
  20567940.656 7     93166.883 7     69093.25849  20567941.30149
  22640484.633 5   -771605.977 5   -581873.12547  22640485.15647
  23589283.461 6    399983.445 6    300599.08646  23589280.85246
  21523136.453 7      7296.410 7      4770.89548  21523133.21948
  22552518.344 6    546528.172 6    413987.75847  22552519.53147
 18  5 30  0 26 10.0000000  0 10G03G14G16G22G23G26G27G29G31G32      -0.000378059
  23669413.438 5    -22528.300 5    -16763.35046  23669414.38346
  20549355.602 6    176660.563 6    132801.93448  20549353.66448
  20537671.570 7   -255335.055 7   -193568.11748  20537668.18848
  23579201.242 6    133365.398 6     91997.71947  23579196.68847
  24312919.242 5   -803611.395 5   -589778.32046  24312916.98846
  20568327.773 7     95197.504 7     70675.54349  20568328.15249
  22636542.891 5   -792320.211 5   -598014.09047  22636543.71547
  23591156.438 6    409829.625 6    308271.42646  23591154.61746
  21523114.414 7      7178.828 7      4679.26248  21523110.82048
  22554933.563 6    559220.879 6    423878.16047  22554935.17647
 18  5 30  0 26 15.0000000  0 10G03G14G16G22G23G26G27G29G31G32      -0.000379858
  23669293.430 5    -23160.043 5    -17255.62146  23669293.96946
  20550163.727 6    180906.230 6    136110.25448  20550161.27048
  20536502.664 7   -261476.609 7   -198353.74648  20536499.80548
  23579755.195 5    136275.785 5     94265.53146  23579750.70746
  24309142.430 5   -823463.426 5   -605247.44146  24309139.40246
  20568712.695 7     97223.449 7     72254.21149  20568713.43049
  22632599.281 6   -813042.469 6   -614161.29747  22632599.71147
  23593029.984 6    419674.418 6    315942.69146  23593028.09846
  21523089.742 7      7051.758 7      4580.24248  21523086.96948
  22557347.586 6    571909.375 6    433765.28547  22557349.02747
 18  5 30  0 26 20.0000000  0 10G03G14G16G22G23G26G27G29G31G32      -0.000381666
  23669172.219 5    -23792.824 5    -17748.70346  23669173.27346
  20550971.727 6    185153.379 6    139419.70348  20550969.41448
  20535334.094 7   -267618.898 7   -203139.93848  20535330.91848
  23580307.859 6    139180.816 6     96529.19946  23580303.56646
  24305362.813 5   -843325.289 5   -620724.20346  24305359.70346
  20569097.328 7     99244.320 7     73828.91049  20569098.28949
  22628654.617 5   -833773.063 5   -630315.01647  22628655.05947
  23594902.523 5    429517.430 5    323612.56346  23594901.05546
  21523063.984 7      6914.813 7      4473.52348  21523060.62148
  22559761.844 6    584593.199 6    443648.77047  22559763.14847
 18  5 30  0 26 25.0000000  0 10G03G14G16G22G23G26G27G29G31G32      -0.000383482
  23669052.250 5    -24425.578 5    -18241.75446  23669052.92246
  20551780.219 6    189403.063 6    142731.14548  20551778.16448
  20534165.195 7   -273760.816 7   -207925.84848  20534162.14148
  23580859.805 6    142081.598 6     98789.53146  23580854.83646
  24301580.977 5   -863195.770 5   -636207.71146  24301578.00846
  20569481.203 7    101261.281 7     75400.57449  20569482.06349
  22624708.953 5   -854510.828 5   -646474.30147  22624708.56647
  23596775.320 5    439359.805 5    331281.93846  23596773.86746
  21523036.531 7      6769.133 7      4360.00448  21523033.20348
  22562174.922 6    597273.574 6    453529.57048  22562175.98448
 18  5 30  0 26 30.0000000  0 10G03G14G16G22G23G26G27G29G31G32      -0.000385303
  23668931.695 5    -25058.441 5    -18734.89546  23668932.41046
  20552589.281 6    193655.063 6    146044.39148  20552587.10248
  20532996.555 7   -279902.547 7   -212711.61748  20532993.32048
  23581411.398 6    144977.910 6    101046.40247  23581405.88347
  24297799.422 5   -883075.082 5   -651698.11746  24297795.14546
  20569864.250 7    103274.086 7     76968.98849  20569865.18049
  22620760.063 5   -875255.969 5   -662639.34047  22620761.40647
  23598648.508 5    449201.320 5    338950.63346  23598646.66046
  21523007.031 7      6614.500 7      4239.50848  21523003.71948
  22564587.281 6    609950.195 6    463407.43447  22564588.04347
 18  5 30  0 26 35.0000000  0 10G03G14G16G22G23G26G27G29G31G32      -0.000387133
  23668811.570 5    -25690.965 5    -19227.77747  23668811.76647
  20553398.992 6    197909.871 6    149359.81648  20553396.86348
  20531827.930 6   -286043.645 6   -217496.88748  20531824.64848
  23581961.781 6    147870.230 6    103300.14546  23581956.07046
  24294013.609 5   -902962.852 5   -667195.08646  24294010.50446
  20570246.750 7    105283.176 7     78534.50449  20570247.27049
  22616812.008 6   -896008.004 6   -678809.75847  22616812.64147
  23600521.914 6    459042.410 6    346619.00447  23600519.94147
  21522976.445 7      6451.441 7      4112.44148  21522972.47348
  22566998.992 6    622623.551 6    473282.76647  22567000.03947
 18  5 30  0 26 40.0000000  0 10G03G14G16G22G23G26G27G29G31G32      -0.000388971
  23668691.648 6    -26324.223 6    -19721.24247  23668691.53547
  20554209.453 6    202166.402 6    152676.59048  20554206.97748
  20530659.188 6   -292185.152 6   -222282.48448  20530656.14148
  23582510.547 5    150757.504 5    105549.97747  23582505.80547
  24290227.461 5   -922859.996 5   -682699.37546  24290224.35546
  20570628.281 7    107287.543 7     80096.34849  20570629.20349
  22612861.797 6   -916767.918 6   -694986.30947  22612861.59847
  23602394.172 6    468882.063 6    354286.25847  23602392.38747
  21522943.141 7      6278.887 7      3977.98448  21522939.79348
  22569410.063 6    635292.629 6    483154.75847  22569410.60247
 18  5 30  0 26 45.0000000  0 10G03G14G16G22G23G26G27G29G31G32      -0.000390816
  23668571.031 5    -26956.430 5    -20213.88347  23668570.98447
  20555019.648 6    206426.473 6    155996.12148  20555017.30948
  20529491.008 7   -298325.305 7   -227067.01648  20529487.57448
  23583059.898 6    153641.504 6    107797.22347  23583053.99247
  24286439.180 5   -942764.793 5   -698209.60546  24286436.57046
  20571008.906 7    109288.941 7     81655.87149  20571009.60249
  22608909.914 5   -937533.957 5   -711167.65647  22608910.29347
  23604266.688 6    478722.078 6    361953.81646  23604264.85546
  21522908.836 7      6098.625 7      3837.50848  21522905.49248
  22571820.242 6    647959.156 6    493024.76648  22571820.94948
 18  5 30  0 26 50.0000000  0 10G03G14G16G22G23G26G27G29G31G32      -0.000392668
  23668450.414 5    -27588.582 5    -20706.46947  23668450.99647
  20555831.117 6    210689.051 6    159317.61348  20555828.87948
  20528322.820 7   -304465.047 7   -231851.23448  20528319.57048
  23583608.672 6    156521.234 6    110041.16446  23583602.15246
  24282651.008 5   -962678.141 5   -713726.50046  24282646.91446
  20571389.164 7    111286.387 7     83212.32049  20571389.69149
  22604956.500 5   -958307.063 5   -727354.47747  22604957.24247
  23606139.195 6    488561.383 6    369620.79346  23606137.16446
  21522872.398 7      5909.645 7      3690.26248  21522869.27748
  22574230.102 6    660622.160 6    502892.03548  22574230.68448
 18  5 30  0 26 55.0000000  0 10G03G14G16G22G23G26G27G29G31G32      -0.000394527
  23668330.039 5    -28221.430 5    -21199.58647  23668330.39847
  20556642.523 6    214953.480 6    162640.53548  20556640.38348
  20527154.391 7   -310605.152 7   -236635.73848  20527150.89148
  23584155.070 5    159395.941 5    112281.21146  23584149.65246
  24278858.898 5   -982600.832 5   -729250.67246  24278855.97746
  20571768.313 7    113279.133 7     84765.10948  20571768.87548
  22601001.992 5   -979087.953 5   -743547.37147  22601002.22347
  23608010.602 6    498399.273 6    377286.68047  23608009.52747
  21522834.898 7      5711.254 7      3535.66448  21522831.48048
  22576638.508 6    673280.906 6    512755.98047  22576639.13347
 18  5 30  0 27  0.0000000  0 10G03G14G16G22G23G26G27G29G31G32      -0.000396393
  23668209.344 5    -28853.086 5    -21691.79747  23668210.44147
  20557454.898 6    219221.594 6    165966.34048  20557452.53548
  20525986.305 7   -316743.730 7   -241419.04748  20525982.66048
  23584701.156 5    162267.531 5    114518.79746  23584696.56646
  24275066.539 5  -1002530.906 5   -744780.63746  24275062.99246
  20572147.125 7    115269.023 7     86315.67249  20572147.64549
  22597045.844 5   -999874.789 5   -759744.90647  22597046.94547
  23609882.883 6    508237.641 6    384952.92247  23609881.82447
  21522796.039 7      5505.352 7      3375.21148  21522792.80548
  22579046.859 6    685937.188 6    522618.00447  22579047.98847
 18  5 30  0 27  5.0000000  0 10G03G14G16G22G23G26G27G29G31G32      -0.000398268
  23668088.750 5    -29484.883 5    -22184.11747  23668090.56647
  20558267.805 6    223492.066 6    169293.97348  20558265.43448
  20524817.539 6   -322882.148 6   -246202.23048  20524814.60548
  23585247.414 6    165134.582 6    116752.86346  23585242.05546
  24271272.789 5  -1022469.773 5   -760317.40646  24271269.14146
  20572524.758 7    117254.734 7     87862.98048  20572525.17648
  22593089.531 5  -1020668.848 5   -775948.06347  22593089.67247
  23611755.117 5    518075.148 5    392618.51646  23611753.89146
  21522754.445 7      5290.555 7      3207.84448  21522751.55148
  22581454.578 6    698589.770 6    532477.15247  22581455.72347
 18  5 30  0 27 10.0000000  0 10G03G14G16G22G23G26G27G29G31G32      -0.000400148
  23667968.867 5    -30116.273 5    -22676.10247  23667969.77047
  20559080.539 6    227765.500 6    172623.91848  20559078.16048
  20523649.719 7   -329019.781 7   -250984.80948  20523646.84448
  23585791.922 6    167997.730 6    118983.88346  23585787.12546
  24267477.133 5  -1042416.785 5   -775860.53146  24267473.56346
  20572902.125 7    119236.855 7     89407.48449  20572902.97749
  22589131.703 5  -1041469.547 5   -792156.39547  22589131.37147
  23613626.898 6    527912.285 6    400283.81346  23613625.13746
  21522712.609 7      5067.480 7      3034.01248  21522709.09448
  22583861.828 6    711239.172 6    542333.81647  22583862.74647
 18  5 30  0 27 15.0000000  0 10G03G14G16G22G23G26G27G29G31G32      -0.000402035
  23667849.391 5    -30745.516 5    -23166.43047  23667850.29347
  20559894.828 6    232043.578 6    175957.48048  20559892.35248
  20522482.539 7   -335154.910 7   -255765.43048  20522479.24248
  23586336.320 6    170858.668 6    121213.17246  23586331.68846
  24263679.195 4  -1062370.195 4   -791408.65246  24263675.82446
  20573278.750 7    121217.078 7     90950.51649  20573279.50849
  22585172.148 5  -1062275.078 5   -808368.50447  22585172.04747
  23615498.938 6    537750.836 6    407950.22746  23615497.00046
  21522668.313 7      4837.805 7      2855.03548  21522665.46948
  22586268.945 6    723887.098 6    552189.32847  22586269.68847
 18  5 30  0 27 20.0000000  0 10G03G14G16G22G23G26G27G29G31G32      -0.000403929
  23667730.789 5    -31372.508 5    -23655.00047  23667730.92647
  20560709.938 6    236326.395 6    179294.73048  20560707.27348
  20521315.234 7   -341287.461 7   -260544.03948  20521312.68448
  23586880.516 6    173717.512 6    123440.82847  23586875.79747
  24259881.438 5  -1082329.895 5   -806961.66846  24259877.84046
  20573655.320 7    123195.547 7     92492.17649  20573655.80949
  22581212.039 5  -1083085.410 5   -824584.34847  22581212.08647
  23617371.828 6    547590.898 6    415617.77046  23617369.14546
  21522623.797 7      4601.680 7      2671.02348  21522620.58248
  22588675.531 6    736533.672 6    562043.79747  22588676.17647
 18  5 30  0 27 25.0000000  0 10G03G14G16G22G23G26G27G29G31G32      -0.000405828
  23667611.008 5    -31997.336 5    -24141.87947  23667612.26247
  20561525.664 6    240613.898 6    182635.63748  20561522.86348
  20520148.898 6   -347417.488 6   -265320.68848  20520145.53948
  23587423.859 6    176574.152 6    125666.79747  23587419.14547
  24256081.953 5  -1102295.953 5   -822519.61746  24256078.29346
  20574031.430 7    125172.117 7     94032.35949  20574032.21149
  22577250.688 5  -1103900.594 5   -840803.96547  22577251.09847
  23619244.352 6    557432.309 6    423286.43846  23619241.52746
  21522577.117 7      4359.078 7      2481.98448  21522574.11748
  22591081.570 6    749178.801 6    571897.12147  22591082.47347
 18  5 30  0 27 30.0000000  0 10G03G14G16G22G23G26G27G29G31G32      -0.000407732
  23667492.992 5    -32619.934 5    -24627.03147  23667494.28947
  20562342.297 6    244906.215 6    185980.29348  20562339.55948
  20518982.844 6   -353544.867 6   -270095.27348  20518979.34448
  23587966.867 6    179428.730 6    127891.12546  23587962.23446
  24252281.594 5  -1122268.195 5   -838082.41846  24252278.17246
  20574407.406 7    127146.945 7     95571.18048  20574407.60548
  22573288.813 5  -1124720.434 5   -857027.21547  22573289.62147
  23621117.313 6    567275.277 6    430956.27746  23621115.03946
  21522530.289 7      4110.105 7      2287.97348  21522527.05948
  22593487.602 6    761822.594 6    581749.42247  22593488.81347
 18  5 30  0 27 35.0000000  0 10G03G14G16G22G23G26G27G29G31G32      -0.000409643
  23667374.594 5    -33240.621 5    -25110.67646  23667375.84046
  20563160.219 6    249202.969 6    189328.41448  20563157.94948
  20517817.180 6   -359670.016 6   -274868.10548  20517814.21148
  23588509.922 6    182280.828 6    130113.53146  23588504.97746
  24248479.164 5  -1142247.039 5   -853650.34846  24248476.39546
  20574783.352 7    129119.680 7     97108.37548  20574782.99248
  22569326.875 5  -1145545.328 5   -873254.39147  22569326.69147
  23622990.867 5    577119.355 5    438626.98046  23622988.60246
  21522481.766 7      3854.371 7      2088.70348  21522478.08648
  22595893.258 6    774464.656 6    591600.36347  22595894.18447
 18  5 30  0 27 40.0000000  0 10G03G14G16G22G23G26G27G29G31G32      -0.000411562
  23667256.430 5    -33860.348 5    -25593.58647  23667257.83247
  20563978.516 6    253503.242 6    192679.27348  20563976.19548
  20516652.039 7   -365793.836 7   -279639.92248  20516649.16448
  23589051.719 6    185129.516 6    132333.28147  23589046.77047
  24244676.711 5  -1162233.387 5   -869224.12146  24244673.35246
  20575157.453 7    131089.270 7     98643.12149  20575157.99249
  22565362.594 5  -1166376.164 5   -889486.22347  22565362.62947
  23624863.648 5    586963.637 5    446297.81347  23624862.21947
  21522431.461 7      3590.938 7      1883.43848  21522428.08248
  22598298.102 6    787104.102 6    601449.26247  22598299.28947
 18  5 30  0 27 45.0000000  0 10G03G14G16G22G23G26G27G29G31G32      -0.000413486
  23667139.070 5    -34478.348 5    -26075.14547  23667140.17647
  20564797.805 6    257807.746 6    196033.43048  20564795.36748
  20515486.797 7   -371915.574 7   -284410.10948  20515483.33248
  23589593.031 5    187975.555 5    134550.98846  23589588.55146
  24240871.914 5  -1182226.430 5   -884803.11346  24240868.90246
  20575532.195 7    133056.570 7    100176.07848  20575532.53948
  22561397.227 5  -1187212.191 5   -905722.08647  22561397.28147
  23626737.477 6    596808.867 6    453969.39846  23626735.91446
  21522379.945 7      3320.602 7      1672.78148  21522376.75448
  22600703.438 6    799741.633 6    611296.67247  22600704.25847
 18  5 30  0 27 50.0000000  0 10G03G14G16G22G23G26G27G29G31G32      -0.000415417
  23667021.727 5    -35094.391 5    -26555.17646  23667023.09046
  20565617.680 6    262116.805 6    199391.12948  20565615.07048
  20514322.281 6   -378034.992 6   -289178.48848  20514319.32848
  23590134.484 6    190819.234 6    136766.82846  23590129.65246
  24237066.094 5  -1202225.980 5   -900387.17646  24237062.90646
  20575905.922 7    135021.832 7    101707.44549  20575906.45349
  22557431.633 6  -1208053.117 6   -921961.77047  22557431.56647
  23628610.813 6    606655.344 6    461641.96146  23628609.72346
  21522327.203 7      3043.598 7      1456.93848  21522324.43048
  22603107.578 6    812377.504 6    621142.79347  22603108.83647
 18  5 30  0 27 55.0000000  0 10G03G14G16G22G23G26G27G29G31G32      -0.000417353
  23666904.492 5    -35708.371 5    -27033.60947  23666906.27047
  20566438.500 6    266430.488 6    202752.43848  20566436.02348
  20513158.469 7   -384151.965 7   -293944.96148  20513155.50048
  23590674.906 6    193660.559 6    138980.83246  23590670.30946
  24233259.164 5  -1222231.754 5   -915976.09046  24233255.39146
  20576279.414 7    136985.102 7    103237.26648  20576279.87548
  22553464.281 5  -1228898.848 5   -938205.18847  22553464.66447
  23630485.789 6    616503.070 6    469315.52046  23630483.72346
  21522273.422 7      2760.086 7      1236.01248  21522270.12548
  22605511.883 6    825011.836 6    630987.72347  22605513.20347
 18  5 30  0 28  0.0000000  0 10G03G14G16G22G23G26G27G29G31G32      -0.000419296
  23666788.148 5    -36321.980 5    -27511.74246  23666788.87146
  20567260.109 6    270747.055 6    206115.99648  20567257.68048
  20511994.836 7   -390268.191 7   -298710.85948  20511991.30148
  23591214.461 6    196497.930 6    141191.77346  23591210.46946
  24229450.992 5  -1242245.582 5   -931571.25046  24229447.01246
  20576652.570 7    138944.715 7    104764.23449  20576653.07449
  22549496.250 5  -1249751.043 5   -954453.65247  22549496.74247
  23632359.781 6    626350.410 6    476988.75446  23632357.41046
  21522217.930 7      2468.328 7      1008.66848  21522214.87148
  22607915.852 6    837642.883 6    640830.08647  22607916.98047
 18  5 30  0 28  5.0000000  0 10G03G14G16G22G23G26G27G29G31G32      -0.000421247
  23666672.102 5    -36934.211 5    -27988.82047  23666672.28547
  20568082.578 6    275067.578 6    209482.62948  20568079.38748
  20510831.477 7   -396382.699 7   -303475.41448  20510827.66848
  23591754.531 6    199332.258 6    143400.32447  23591749.70347
  24225640.406 5  -1262266.398 5   -947171.88346  24225637.21546
  20577024.438 7    140901.668 7    106289.12948  20577025.05148
  22545527.172 5  -1270608.676 5   -970706.34447  22545527.72347
  23634233.625 6    636198.344 6    484662.48046  23634231.23446
  21522160.781 7      2169.348 7       775.69948  21522157.61748
  22610318.953 6    850271.703 6    650670.71547  22610320.12547
 18  5 30  0 28 10.0000000  0 10G03G14G16G22G23G26G27G29G31G32      -0.000423204
  23666554.844 5    -37545.598 5    -28465.21946  23666555.78946
  20568904.805 6    279391.523 6    212851.93448  20568902.80548
  20509668.008 7   -402495.977 7   -308239.01248  20509664.55548
  23592293.602 6    202163.105 6    145606.18047  23592288.38347
  24221829.172 5  -1282294.699 5   -962778.34846  24221826.22746
  20577396.469 7    142855.445 7    107811.55149  20577396.90649
  22541557.133 6  -1291472.191 6   -986963.64847  22541557.96947
  23636107.484 6    646046.379 6    492336.27746  23636105.62946
  21522102.914 7      1862.672 7       536.71548  21522099.64148
  22612721.813 6    862897.758 6    660509.18047  22612722.81347
 18  5 30  0 28 15.0000000  0 10G03G14G16G22G23G26G27G29G31G32      -0.000425167
  23666439.453 5    -38155.414 5    -28940.42247  23666439.76247
  20569728.406 6    283719.578 6    216224.43848  20569726.18448
  20508505.344 7   -408607.324 7   -313001.09448  20508501.92648
  23592831.133 6    204991.125 6    147809.82446  23592826.55546
  24218016.313 5  -1302329.762 5   -978390.10246  24218013.60546
  20577767.398 7    144806.734 7    109332.04348  20577767.85948
  22537586.508 6  -1312340.922 6  -1003224.98447  22537586.41447
  23637981.625 6    655895.199 6    500010.68446  23637979.16846
  21522042.695 7      1549.004 7       292.30548  21522039.66848
  22615124.016 6    875521.734 6    670346.02747  22615125.01647
 18  5 30  0 28 20.0000000  0 10G03G14G16G22G23G26G27G29G31G32      -0.000427135
  23666323.656 5    -38762.359 5    -29413.37147  23666324.08647
  20570553.188 6    288053.059 6    219601.17648  20570550.75048
  20507342.109 6   -414715.406 6   -317760.65248  20507339.30148
  23593369.250 5    207817.617 5    150012.27046  23593364.23846
  24214203.195 5  -1322370.238 5   -994006.05146  24214199.68846
  20578138.688 7    146756.855 7    110851.60948  20578139.49248
  22533613.719 5  -1333213.531 5  -1019489.36347  22533614.23847
  23639855.695 6    665746.117 6    507686.72746  23639853.83246
  21521982.039 7      1229.695 7        43.48448  21521979.08248
  22617525.914 6    888144.977 6    680182.29747  22617527.34847
 18  5 30  0 28 25.0000000  0 10G03G14G16G22G23G26G27G29G31G32      -0.000429110
  23666208.484 5    -39365.980 5    -29883.72347  23666208.99647
  20571378.852 6    292392.438 6    222982.50448  20571376.48848
  20506180.875 7   -420819.758 7   -322517.28148  20506177.76648
  23593906.750 5    210643.035 5    152213.88747  23593902.69547
  24210388.422 5  -1342415.656 5  -1009625.83246  24210385.20346
  20578509.820 7    148706.301 7    112370.65649  20578510.45349
  22529641.969 5  -1354089.527 5  -1035756.36347  22529641.66447
  23641730.961 6    675599.578 6    515364.73447  23641729.32047
  21521920.336 7       905.156 7      -209.40648  21521917.07848
  22619928.070 6    900767.895 6    690018.32447  22619929.08647
 18  5 30  0 28 30.0000000  0 10G03G14G16G22G23G26G27G29G31G32      -0.000431089
  23666094.703 5    -39967.469 5    -30352.41046  23666094.66046
  20572205.422 6    296736.559 6    226367.52348  20572203.48048
  20505019.727 7   -426921.570 7   -327271.94148  20505016.57848
  23594444.023 5    213466.203 5    154413.74647  23594439.82447
  24206573.867 5  -1362467.203 5  -1025250.41446  24206569.20346
  20578880.547 7    150653.789 7    113888.16848  20578881.00448
  22525667.758 5  -1374970.113 5  -1052026.94947  22525668.91047
  23643606.586 6    685454.367 6    523043.77347  23643604.73047
  21521857.328 7       574.250 7      -467.26648  21521854.29748
  22622330.063 6    913389.266 6    699853.14847  22622331.37147
 18  5 30  0 28 35.0000000  0 10G03G14G16G22G23G26G27G29G31G32      -0.000433075
  23665980.852 5    -40566.152 5    -30818.94547  23665980.96547
  20573032.922 6    301086.102 6    229756.77348  20573030.94148
  20503859.102 7   -433020.152 7   -332024.08648  20503855.65648
  23594981.805 6    216287.793 6    156612.38347  23594977.09847
  24202756.289 5  -1382524.207 5  -1040879.27046  24202753.18846
  20579250.617 7    152600.090 7    115404.76648  20579251.27048
  22521694.313 6  -1395854.512 6  -1068300.49647  22521694.52047
  23645482.641 6    695311.188 6    530724.40247  23645480.64547
  21521793.102 7       237.664 7      -729.54748  21521790.07048
  22624731.469 6    926009.875 6    709687.37547  22624731.93447
 18  5 30  0 28 40.0000000  0 10G03G14G16G22G23G26G27G29G31G32      -0.000435066
  23665867.516 5    -41162.254 5    -31283.41847  23665867.31647
  20573861.891 6    305440.809 6    233150.05148  20573859.82448
  20502699.227 7   -439115.742 7   -336773.89848  20502695.84448
  23595517.758 5    219107.535 5    158809.58247  23595513.68847
  24198938.656 5  -1402586.863 5  -1056512.48846  24198934.52746
  20579620.656 7    154544.875 7    116920.18448  20579621.45748
  22517719.375 6  -1416743.051 6  -1084577.28147  22517718.96947
  23647358.125 6    705169.719 6    538406.34846  23647356.98046
  21521728.008 7      -104.859 7      -996.44148  21521725.21148
  22627133.164 6    938629.359 6    719520.72747  22627133.97347
 18  5 30  0 28 45.0000000  0 10G03G14G16G22G23G26G27G29G31G32      -0.000437061
  23665754.609 5    -41755.055 5    -31745.35247  23665754.65647
  20574692.063 6    309801.438 6    236547.94548  20574689.58648
  20501540.172 6   -445207.613 6   -341520.82048  20501536.73048
  23596053.984 6    221926.234 6    161005.96147  23596049.57847
  24195119.844 5  -1422654.406 5  -1072149.55146  24195116.38346
  20579990.688 7    156488.938 7    118435.03548  20579991.42248
  22513743.453 5  -1437634.867 5  -1100856.62147  22513743.64847
  23649234.945 6    715030.758 6    546090.26246  23649233.00046
  21521661.938 7      -452.547 7     -1267.37148  21521658.82448
  22629534.664 6    951248.547 6    729353.84447  22629535.41047
 18  5 30  0 28 50.0000000  0 10G03G14G16G22G23G26G27G29G31G32      -0.000439062
  23665642.469 5    -42344.598 5    -32204.75047  23665643.14547
  20575522.688 6    314167.949 6    239950.41048  20575520.29348
  20500381.563 7   -451295.836 7   -346264.88748  20500378.31648
  23596589.938 6    224743.797 6    163201.45746  23596586.31646
  24191300.742 5  -1442726.875 5  -1087790.42646  24191296.94946
  20580360.305 7    158432.227 7    119949.28148  20580361.39148
  22509766.859 5  -1458530.047 5  -1117138.57847  22509767.49647
  23651111.266 6    724894.223 6    553776.09047  23651109.85247
  21521594.836 7      -805.426 7     -1542.34848  21521591.86748
  22631936.172 6    963867.344 6    739186.66047  22631936.49247
 18  5 30  0 28 55.0000000  0 10G03G14G16G22G23G26G27G29G31G32      -0.000441071
  23665530.109 5    -42932.059 5    -32662.50047  23665530.82847
  20576354.398 6    318539.148 6    243356.53548  20576352.32448
  20499223.578 7   -457381.551 7   -351007.00848  20499220.28548
  23597125.414 6    227559.000 6    165395.11346  23597122.41046
  24187479.180 5  -1462805.414 5  -1103436.03146  24187476.00846
  20580729.789 7    160373.551 7    121462.00448  20580730.49648
  22505789.617 5  -1479429.723 5  -1133424.03947  22505790.30547
  23652987.852 6    734759.000 6    561462.90246  23652986.75846
  21521526.406 7     -1164.664 7     -1822.27748  21521523.48048
  22634337.273 6    976484.574 6    749018.25447  22634337.45347
 18  5 30  0 29  0.0000000  0 10G03G14G16G22G23G26G27G29G31G32      -0.000443085
  23665419.445 5    -43517.781 5    -33118.91047  23665419.58647
  20577186.977 6    322914.719 6    246766.06348  20577184.75848
  20498066.008 6   -463465.125 6   -355747.45748  20498062.32448
  23597660.805 6    230371.574 6    167586.73047  23597657.10247
  24183657.766 5  -1482890.316 5  -1119086.59446  24183653.85946
  20581099.000 7    162312.605 7    122972.94548  20581099.58648
  22501812.477 5  -1500334.207 5  -1149713.24647  22501812.39847
  23654866.430 6    744624.719 6    569150.48446  23654863.90246
  21521456.492 7     -1530.648 7     -2107.46948  21521453.37548
  22636737.711 6    989099.898 6    758848.36347  22636738.33247
 18  5 30  0 29  5.0000000  0 10G03G14G16G22G23G26G27G29G31G32      -0.000445103
  23665307.867 5    -44100.293 5    -33572.83247  23665309.09847
  20578021.008 6    327296.066 6    250180.10548  20578018.55148
  20496908.828 6   -469545.043 6   -360485.05548  20496905.55548
  23598196.258 5    233182.910 5    169777.37547  23598192.55547
  24179835.789 5  -1502980.121 5  -1134740.99646  24179831.05946
  20581467.734 7    164250.805 7    124483.22348  20581468.27048
  22497833.703 5  -1521242.023 5  -1166005.04747  22497833.74247
  23656743.000 5    754492.867 5    576839.94546  23656741.91446
  21521385.734 7     -1901.836 7     -2396.70348  21521383.18048
  22639137.813 6   1001714.777 6    768678.12947  22639138.72747
 18  5 30  0 29 10.0000000  0 10G03G14G16G22G23G26G27G29G31G32      -0.000447126
  23665198.109 5    -44679.435 5    -34024.10847  23665198.62147
  20578856.039 6    331683.363 6    253598.77348  20578853.66848
  20495752.813 7   -475621.211 7   -365219.73448  20495749.32448
  23598730.758 5    235993.238 5    171967.23847  23598727.07447
  24176010.820 5  -1523074.738 5  -1150399.15246  24176006.76646
  20581836.742 7    166188.297 7    125992.95348  20581837.08648
  22493854.719 5  -1542153.004 5  -1182299.32047  22493854.86747
  23658622.477 5    764363.590 5    584531.40646  23658620.30546
  21521315.156 7     -2278.094 7     -2689.89848  21521311.54748
  22641538.203 6   1014329.352 6    778507.65647  22641539.39847
 18  5 30  0 29 15.0000000  0 10G03G14G16G22G23G26G27G29G31G32      -0.000449156
  23665087.727 5    -45255.680 5    -34473.14147  23665089.30147
  20579692.063 6    336076.309 6    257021.84048  20579689.58648
  20494596.969 6   -481694.023 6   -369951.79348  20494593.55948
  23599265.797 6    238802.098 6    174155.95746  23599261.69546
  24172186.031 5  -1543174.441 5  -1166061.25446  24172181.94546
  20582204.852 7    168124.688 7    127501.83248  20582205.88348
  22489873.930 5  -1563067.543 5  -1198596.34847  22489874.75847
  23660501.047 6    774236.359 6    592224.47746  23660498.96546
  21521241.523 7     -2659.871 7     -2987.39848  21521239.26648
  22643938.414 6   1026943.219 6    788336.63347  22643939.65247
 18  5 30  0 29 20.0000000  0 10G03G14G16G22G23G26G27G29G31G32      -0.000451191
  23664979.156 5    -45828.582 5    -34919.55547  23664980.53947
  20580528.828 6    340475.152 6    260449.49248  20580526.65648
  20493441.711 6   -487763.074 6   -374680.93048  20493438.64148
  23599799.594 6    241609.859 6    176343.80547  23599795.86347
  24168360.000 4  -1563278.898 4  -1181727.05546  24168356.88346
  20582573.102 7    170060.363 7    129010.14848  20582573.97348
  22485893.758 5  -1583985.230 5  -1214895.84847  22485894.30147
  23662380.172 6    784111.750 6    599919.55946  23662378.59846
  21521168.305 7     -3046.648 7     -3288.78548  21521165.17648
  22646338.992 6   1039556.762 6    798165.35947  22646339.80947
 18  5 30  0 29 25.0000000  0 10G03G14G16G22G23G26G27G29G31G32      -0.000453232
  23664871.055 5    -46398.289 5    -35363.50047  23664872.10547
  20581367.273 6    344879.859 6    263881.73048  20581365.03148
  20492288.195 6   -493828.480 6   -379407.22748  20492284.37948
  23600334.063 6    244416.363 6    178530.68046  23600329.56646
  24164532.859 4  -1583388.211 4  -1197396.62146  24164529.99646
  20582941.625 7    171995.188 7    130517.80548  20582942.26648
  22481912.258 5  -1604906.195 5  -1231197.87547  22481912.92647
  23664259.781 6    793989.410 6    607616.44946  23664257.92246
  21521093.586 7     -3438.684 7     -3594.26648  21521090.91048
  22648739.305 6   1052169.809 6    807993.69147  22648740.10947
 18  5 30  0 29 30.0000000  0 10G03G14G16G22G23G26G27G29G31G32      -0.000455276
  23664762.750 5    -46965.008 5    -35805.09046  23664764.15646
  20582206.211 6    349290.141 6    267318.31348  20582204.25848
  20491134.547 6   -499890.527 6   -384130.90248  20491131.02748
  23600867.328 6    247221.328 6    180716.37547  23600863.11747
  24160705.680 5  -1603502.703 5  -1213070.25046  24160701.67646
  20583309.391 7    173928.895 7    132024.58648  20583310.28148
  22477931.180 5  -1625830.602 5  -1247502.62547  22477931.10947
  23666140.305 6    803869.203 6    615314.99646  23666137.57046
  21521017.633 7     -3836.121 7     -3903.96148  21521015.10248
  22651138.969 6   1064782.152 6    817821.47747  22651139.91447
 18  5 30  0 29 35.0000000  0 10G03G14G16G22G23G26G27G29G31G32      -0.000457327
  23664655.617 5    -47528.297 5    -36244.02347  23664657.16447
  20583046.977 6    353706.508 6    270759.63748  20583044.54348
  20489981.609 6   -505948.660 6   -388851.52348  20489977.97348
  23601401.648 6    250025.387 6    182901.35546  23601396.37146
  24156876.617 5  -1623621.625 5  -1228747.33646  24156873.08246
  20583677.547 7    175862.027 7    133530.90648  20583678.10248
  22473948.813 5  -1646757.949 5  -1263809.64147  22473949.02747
  23668020.484 6    813751.715 6    623015.64146  23668018.49246
  21520941.234 7     -4238.457 7     -4217.48048  21520938.86748
  22653539.117 6   1077394.313 6    827649.12147  22653540.07047
 18  5 30  0 29 40.0000000  0 10G03G14G16G22G23G26G27G29G31G32      -0.000459383
  23664548.992 5    -48088.625 5    -36680.66047  23664550.61747
  20583888.453 6    358128.477 6    274205.32448  20583885.93448
  20488828.844 7   -512003.406 7   -393569.50848  20488825.46548
  23601934.133 6    252827.934 6    185085.14546  23601929.80146
  24153046.617 5  -1643745.621 5  -1244428.36346  24153044.10546
  20584045.086 7    177794.027 7    135036.36348  20584046.01248
  22469965.758 5  -1667688.754 5  -1280119.36347  22469966.00047
  23669901.531 5    823636.348 5    630717.94546  23669899.34846
  21520864.070 7     -4646.203 7     -4535.20748  21520860.78148
  22655939.000 6   1090005.727 6    837476.18047  22655940.18047
 18  5 30  0 29 45.0000000  0 10G03G14G16G22G23G26G27G29G31G32      -0.000461443
  23664442.539 5    -48645.277 5    -37114.41847  23664444.69147
  20584730.922 6    362556.820 6    277655.96948  20584728.70348
  20487677.852 7   -518054.031 7   -398284.28548  20487674.38348
  23602467.578 6    255629.715 6    187268.34846  23602462.95346
  24149216.813 5  -1663873.848 5  -1260112.71146  24149213.93446
  20584412.820 7    179725.695 7    136541.55549  20584413.41449
  22465982.148 5  -1688622.203 5  -1296431.14547  22465982.27047
  23671783.305 6    833523.836 6    638422.48446  23671781.03946
  21520785.695 7     -5058.559 7     -4856.52748  21520782.60948
  22658338.688 6   1102617.195 6    847303.27047  22658340.10547
 18  5 30  0 29 50.0000000  0 10G03G14G16G22G23G26G27G29G31G32      -0.000463509
  23664337.555 5    -49198.168 5    -37545.25447  23664339.30547
  20585574.680 6    366991.539 6    281111.59448  20585572.14148
  20486527.344 6   -524100.469 6   -402995.80148  20486523.69148
  23603000.539 6    258430.797 6    189451.00846  23602996.14546
  24145386.828 5  -1684006.270 5  -1275800.30546  24145382.80546
  20584780.164 7    181657.023 7    138046.48849  20584781.14549
