     2.10           OBSERVATION DATA    GPS(GPS)            RINEX VERSION / TYPE
cnvtToRINEX 3.07.0  convertToRINEX OPR  19-May-20 12:30 UTC PGM / RUN BY / DATE 
----------------------------------------------------------- COMMENT             
9038                                                        MARKER NAME         
9038                                                        MARKER NUMBER       
GNSS Observer       Trimble                                 OBSERVER / AGENCY   
0220327801          TRIMBLE 5700        2.32                REC # / TYPE / VERS 
                    TRM39105.00                             ANT # / TYPE        
 -3049879.4807  4927089.3666  2656211.9261                  APPROX POSITION XYZ 
       -0.0460        0.0000        0.0000                  ANTENNA: DELTA H/E/N
     1     1     0                                          WAVELENGTH FACT L1/2
     4    C1    L1    L2    P2                              # / TYPES OF OBSERV 
  2020     5    16     2     8   37.0000000     GPS         TIME OF FIRST OBS   
  2020     5    16     3     9   59.0000000     GPS         TIME OF LAST OBS    
     0                                                      RCV CLOCK OFFS APPL 
    18                                                      LEAP SECONDS        
     9                                                      # OF SATELLITES     
   G01  2620  2620  2620  2620                              PRN / # OF OBS      
   G04  3683  3678  3683  3683                              PRN / # OF OBS      
   G07  3469  3469  3463  3463                              PRN / # OF OBS      
   G08  3683  3683  3683  3683                              PRN / # OF OBS      
   G09  3683  3683  3683  3683                              PRN / # OF OBS      
   G11  3652  3652  3652  3652                              PRN / # OF OBS      
   G16  3683  3683  3683  3683                              PRN / # OF OBS      
   G26  1752  1704  1569  1569                              PRN / # OF OBS      
   G27  3683  3683  3683  3683                              PRN / # OF OBS      
CARRIER PHASE MEASUREMENTS: PHASE SHIFTS REMOVED            COMMENT             
                                                            END OF HEADER       
 20  5 16  2  8 37.0000000  0  6G04G08G09G16G26G27                   0.000047831
  21767090.50016       111.69916       -10.22258  21767088.46558
  20371622.84417    -38061.80117    -15271.82859  20371623.11359
  22752947.53116    -26114.21516     -5447.09059  22752945.73059
  21918154.76616     -2300.82416     -1179.91858  21918152.36358
  23473967.43815      2982.33615                
  20477663.07817      1546.13317       915.88759  20477662.31659
 20  5 16  2  8 38.0000000  0  6G04G08G09G16G26G27                   0.000046888
  21767089.211 6       104.082 6       -16.12847  21767087.39147
  20371231.633 7    -40117.785 7    -16873.89849  20371231.56349
  22752595.656 6    -27963.402 6     -6888.02749  22752594.33649
  21918122.891 6     -2467.988 6     -1310.18048  21918120.39148
  23474016.758 5      3241.223 5      1023.03157  23474017.77357
  20477672.781 7      1596.613 7       955.22349  20477672.37549
 20  5 16  2  8 39.0000000  0  6G04G08G09G16G26G27                   0.000045946
  21767087.039 5        94.441 5       -23.62147  21767085.71947
  20370840.250 7    -42175.738 7    -18477.50449  20370840.21949
  22752243.297 6    -29814.523 6     -8330.46549  22752241.92249
  21918090.633 6     -2637.676 6     -1442.40648  21918087.97748
  23474065.344 5      3497.566 5      1222.78547  23474066.36347
  20477682.180 7      1645.055 7       992.96549  20477681.41849
 20  5 16  2  8 40.0000000  0  6G04G08G09G16G26G27                   0.000045002
  21767085.023 6        82.859 6       -32.67247  21767083.29747
  20370448.047 7    -44235.602 7    -20082.59449  20370447.97349
  22751890.891 6    -31667.500 6     -9774.34849  22751889.16449
  21918057.672 6     -2809.730 6     -1576.48048  21918055.23448
  23474113.672 5      3751.520 5      1420.66847  23474114.78547
  20477691.094 7      1691.543 7      1029.18849  20477690.41049
 20  5 16  2  8 41.0000000  0  6G04G08G09G16G26G27                   0.000044056
  21767082.336 6        69.496 6       -43.09847  21767080.92647
  20370055.531 7    -46297.137 7    -21688.98449  20370055.85949
  22751537.648 6    -33522.133 6    -11219.51249  22751536.62949
  21918024.563 6     -2983.984 6     -1712.27048  21918022.09448
  23474161.547 5      4003.238 5      1616.81346  23474162.57846
  20477699.750 7      1736.242 7      1064.02349  20477699.00449
 20  5 16  2  8 42.0000000  0  6G04G08G09G16G26G27                   0.000043106
  21767079.531 6        54.305 6       -54.93847  21767077.84047
  20369663.211 7    -48360.488 7    -23296.78949  20369663.11349
  22751184.367 6    -35378.523 6    -12666.05149  22751183.58649
  21917991.352 6     -3160.543 6     -1849.84448  21917988.36348
  23474209.383 5      4252.664 5      1811.16047  23474210.02747
  20477707.523 7      1779.098 7      1097.41449  20477707.01649
 20  5 16  2  8 43.0000000  0  6G04G08G09G16G26G27                   0.000042158
  21767076.305 6        37.813 6       -67.78947  21767074.87147
  20369269.969 7    -50425.117 7    -24905.58649  20369270.30549
  22750830.766 6    -37236.160 6    -14113.55949  22750829.89849
  21917957.078 6     -3338.902 6     -1988.83248  21917954.40648
  23474256.484 5      4500.223 5      2004.06347  23474257.48047
  20477715.648 7      1820.570 7      1129.73449  20477715.13749
 20  5 16  2  8 44.0000000  0  6G04G08G09G16G26G27                   0.000041208
  21767072.867 6        19.667 6       -81.92447  21767071.13747
  20368876.852 7    -52491.305 7    -26515.60549  20368876.69149
  22750476.930 6    -39095.344 6    -15562.27349  22750476.18849
  21917923.180 6     -3519.336 6     -2129.43048  21917920.11748
  23474302.563 5      4745.754 5      2195.37547  23474304.15247
  20477723.273 7      1860.398 7      1160.76249  20477722.65249
 20  5 16  2  8 45.0000000  0  6G04G08G09G16G26G27                   0.000040257
  21767069.750 6         0.234 6       -97.06347  21767067.86347
  20368483.570 7    -54558.727 7    -28126.58249  20368483.67649
  22750122.836 6    -40955.672 6    -17011.87549  22750122.22349
  21917888.039 6     -3701.492 6     -2271.37148  21917885.51648
  23474349.125 5      4989.512 5      2385.30546  23474350.39146
  20477730.594 7      1898.945 7      1190.80149  20477730.28549
 20  5 16  2  8 46.0000000  0  6G04G08G09G16G26G27                   0.000039305
  21767065.383 6       -20.453 6      -113.19147  21767063.67647
  20368089.734 7    -56627.332 7    -29738.48049  20368090.16449
  22749769.250 6    -42817.195 6    -18462.41449  22749768.31649
  21917853.000 6     -3885.352 6     -2414.64548  21917850.15648
  23474395.797 5      5231.551 5      2573.91447  23474396.51647
  20477737.320 7      1936.211 7      1219.84449  20477737.13349
 20  5 16  2  8 47.0000000  0  6G04G08G09G16G26G27                   0.000038351
  21767060.695 6       -42.461 6      -130.34047  21767059.69147
  20367695.836 7    -58697.215 7    -31351.37949  20367696.25449
  22749414.211 6    -44679.914 6    -19913.88749  22749413.61749
  21917818.414 6     -4070.992 6     -2559.30148  21917815.60248
  23474441.039 5      5471.770 5      2761.10946  23474442.59846
  20477744.102 7      1972.156 7      1247.84849  20477743.99649
 20  5 16  2  8 48.0000000  0  6G04G08G09G16G26G27                   0.000037395
  21767056.672 6       -65.441 6      -148.24647  21767055.43847
  20367301.719 7    -60768.063 7    -32965.02749  20367302.27349
  22749059.758 6    -46543.605 6    -21366.11749  22749059.08249
  21917782.477 6     -4258.102 6     -2705.10548  21917779.45748
  23474486.367 5      5710.551 5      2947.16846  23474487.57446
  20477750.992 7      2007.031 7      1275.02349  20477750.69949
 20  5 16  2  8 49.0000000  0  6G04G08G09G16G26G27                   0.000036440
  21767051.641 6       -89.531 6      -167.01647  21767050.79347
  20366907.375 7    -62839.918 7    -34579.45749  20366907.55949
  22748704.820 6    -48408.266 6    -22819.09449  22748704.15249
  21917746.641 6     -4446.758 6     -2852.11348  21917743.84848
  23474531.414 5      5947.754 5      3132.00447  23474533.13347
  20477757.156 7      2040.824 7      1301.35249  20477756.73049
 20  5 16  2  8 50.0000000  0  6G04G08G09G16G26G27                   0.000035482
  21767046.992 6      -114.637 6      -186.58647  21767046.08647
  20366512.984 7    -64912.723 7    -36194.63349  20366513.44149
  22748349.797 6    -50273.820 6    -24272.76649  22748349.24649
  21917710.758 6     -4636.852 6     -3000.23848  21917707.64148
  23474576.625 5      6183.477 5      3315.67647  23474577.90647
  20477763.664 7      2073.590 7      1326.89149  20477763.03949
 20  5 16  2  8 51.0000000  0  6G04G08G09G16G26G27                   0.000034525
  21767042.016 6      -140.777 6      -206.96147  21767041.24247
  20366118.313 7    -66986.527 7    -37810.58649  20366119.05549
  22747995.102 6    -52140.344 6    -25727.19949  22747993.89149
  21917673.969 6     -4828.480 6     -3149.55948  21917670.71148
  23474620.945 5      6417.707 5      3498.18846  23474622.06646
  20477769.484 7      2105.289 7      1351.59049  20477769.06349
 20  5 16  2  8 52.0000000  0  6G04G08G09G16G26G27                   0.000033567
  21767036.680 6      -167.828 6      -228.04747  21767035.91447
  20365723.664 7    -69061.160 7    -39427.18449  20365724.33649
  22747638.961 6    -54007.664 6    -27182.25049  22747638.33249
  21917637.313 6     -5021.457 6     -3299.93448  21917634.37148
  23474664.984 5      6650.551 5      3679.62147  23474666.50047
  20477775.414 7      2136.063 7      1375.57049  20477775.18849
 20  5 16  2  8 53.0000000  0  6G04G08G09G16G26G27                   0.000032608
  21767031.750 6      -195.688 6      -249.75847  21767030.50847
  20365328.750 7    -71136.559 7    -41044.38749  20365329.04349
  22747283.594 6    -55875.762 6    -28637.91449  22747283.39549
  21917600.094 6     -5215.695 6     -3451.28948  21917597.23448
  23474709.156 5      6882.070 5      3860.02046  23474710.66446
  20477780.977 7      2165.992 7      1398.88749  20477780.70349
 20  5 16  2  8 54.0000000  0  6G04G08G09G16G26G27                   0.000031649
  21767026.102 6      -224.383 6      -272.12147  21767025.20347
  20364933.461 7    -73212.703 7    -42662.16449  20364934.08249
  22746928.477 6    -57744.531 6    -30094.10249  22746927.71549
  21917563.203 6     -5411.211 6     -3603.64148  21917559.94948
  23474752.797 5      7112.332 5      4039.44146  23474754.52346
  20477786.898 7      2195.090 7      1421.55949  20477786.15649
 20  5 16  2  8 55.0000000  0  6G04G08G09G16G26G27                   0.000030687
  21767021.047 6      -253.734 6      -294.98447  21767019.57847
  20364538.383 7    -75289.465 7    -44280.41849  20364538.75449
  22746572.344 6    -59613.930 6    -31550.77749  22746571.78149
  21917525.320 6     -5607.867 6     -3756.87548  21917522.34448
  23474796.789 5      7341.410 5      4217.94946  23474798.00846
  20477792.000 7      2223.496 7      1443.69149  20477791.50049
 20  5 16  2  8 56.0000000  0  6G04G08G09G16G26G27                   0.000029726
  21767014.625 6      -283.684 6      -318.32448  21767013.94548
  20364143.141 7    -77366.727 7    -45899.06349  20364143.55949
  22746216.898 6    -61483.758 6    -33007.78549  22746216.04349
  21917488.102 6     -5805.527 6     -3910.90248  21917484.95748
  23474839.414 5      7569.496 5      4395.68046  23474841.63346
  20477797.453 7      2251.309 7      1465.36349  20477796.98049
 20  5 16  2  8 57.0000000  0  6G04G08G09G16G26G27                   0.000028763
  21767008.828 6      -314.230 6      -342.12947  21767008.28947
  20363747.773 7    -79444.578 7    -47518.16049  20363748.10249
  22745860.797 6    -63354.141 6    -34465.22749  22745859.82849
  21917450.250 6     -6004.258 6     -4065.75848  21917447.17648
  23474883.320 5      7796.484 5      4572.55146  23474885.06646
  20477802.711 7      2278.465 7      1486.52349  20477802.30949
 20  5 16  2  8 58.0000000  0  6G04G08G09G16G26G27                   0.000027800
  21767003.773 5      -345.332 5      -366.35947  21767002.52047
  20363352.117 7    -81522.902 7    -49137.64149  20363352.73049
  22745504.617 6    -65224.969 6    -35923.01649  22745504.34049
  21917412.219 6     -6203.980 6     -4221.39548  21917409.25848
  23474926.570 5      8022.469 5      4748.64847  23474927.79347
  20477807.828 7      2305.090 7      1507.27049  20477807.18449
 20  5 16  2  8 59.0000000  0  6G04G08G09G16G26G27                   0.000026836
  21766997.102 6      -376.957 6      -391.01247  21766995.99647
  20362956.828 7    -83601.707 7    -50757.48049  20362956.94549
  22745148.430 6    -67096.266 6    -37381.16849  22745148.51649
  21917373.953 6     -6404.703 6     -4377.80148  21917370.67248
  23474968.844 5      8247.406 5      4923.91847  23474970.87147
  20477812.602 7      2331.121 7      1527.55549  20477812.10249
 20  5 16  2  9  0.0000000  0  6G04G08G09G16G26G27                   0.000025873
  21766991.102 6      -408.973 6      -415.96547  21766990.17647
  20362560.953 7    -85680.840 7    -52377.58249  20362561.39549
  22744792.633 6    -68967.801 6    -38839.50849  22744792.43449
  21917335.422 6     -6606.277 6     -4534.87148  21917332.35548
  23475012.148 5      8471.527 5      5098.55947  23475013.13747
  20477817.219 7      2356.762 7      1547.53549  20477817.34049
 20  5 16  2  9  1.0000000  0  6G04G08G09G16G26G27                   0.000024908
  21766984.992 6      -441.301 6      -441.15647  21766984.08647
  20362165.414 7    -87760.191 7    -53997.86349  20362165.80549
  22744436.539 6    -70839.590 6    -40298.03949  22744436.03149
  21917296.922 6     -6808.586 6     -4692.51248  21917294.12548
  23475054.188 5      8694.852 5      5272.56347  23475055.50047
  20477822.180 7      2382.086 7      1567.27349  20477821.78149
 20  5 16  2  9  2.0000000  0  6G04G08G09G16G26G27                   0.000023943
  21766978.875 6      -474.016 6      -466.64847  21766977.44147
  20361769.680 7    -89839.926 7    -55618.43449  20361769.79349
  22744079.992 6    -72711.676 6    -41756.81349  22744079.71149
  21917258.039 6     -7011.754 6     -4850.82048  21917255.50048
  23475096.023 5      8917.324 5      5445.92246  23475097.96946
  20477826.844 7      2406.996 7      1586.68049  20477826.81649
 20  5 16  2  9  3.0000000  0  6G04G08G09G16G26G27                   0.000022978
  21766972.609 6      -507.133 6      -492.45347  21766971.62947
  20361373.805 7    -91919.977 7    -57239.25049  20361374.07449
  22743723.422 6    -74584.066 6    -43215.82049  22743723.71149
  21917219.625 6     -7215.777 6     -5009.80148  21917216.77748
  23475138.570 5      9138.953 5      5618.61346  23475140.48046
  20477831.852 7      2431.484 7      1605.75849  20477831.62549
 20  5 16  2  9  4.0000000  0  6G04G08G09G16G26G27                   0.000022011
  21766965.992 6      -540.574 6      -518.51648  21766964.87548
  20360977.992 7    -94000.262 7    -58860.25049  20360978.25049
  22743367.117 6    -76456.652 6    -44674.98049  22743366.98449
  21917180.406 6     -7420.547 6     -5169.36748  21917177.71948
  23475181.219 5      9359.754 5      5790.66846  23475182.00846
  20477836.547 7      2455.633 7      1624.57449  20477835.63749
 20  5 16  2  9  5.0000000  0  6G04G08G09G16G26G27                   0.000021044
  21766959.672 6      -574.305 6      -544.79747  21766958.82047
  20360581.734 7    -96080.848 7    -60481.48449  20360582.45749
  22743011.078 6    -78329.488 6    -46134.33249  22743010.76249
  21917141.461 6     -7626.105 6     -5329.53948  21917138.63348
  23475223.313 5      9579.793 5      5962.13346  23475223.88346
  20477840.828 7      2479.457 7      1643.14149  20477840.41449
 20  5 16  2  9  6.0000000  0  6G04G08G09G16G26G27                   0.000020077
  21766953.156 6      -608.285 6      -571.28148  21766952.53148
  20360186.078 7    -98161.594 7    -62102.84449  20360186.32049
  22742654.195 6    -80202.484 6    -47593.81349  22742654.55949
  21917102.023 6     -7832.375 6     -5490.27048  21917099.52048
  23475264.305 5      9799.102 5      6133.02346  23475265.94546
  20477845.492 7      2502.988 7      1661.47749  20477844.54749
 20  5 16  2  9  7.0000000  0  6G04G08G09G16G26G27                   0.000019110
  21766946.891 6      -642.605 6      -598.03948  21766946.07448
  20359790.234 7   -100242.602 7    -63724.41049  20359790.48449
  22742297.766 6    -82075.699 6    -49053.46549  22742298.68049
  21917062.703 6     -8039.359 6     -5651.55148  21917060.14548
  23475305.930 5     10017.648 5      6303.32046  23475307.07846
  20477849.922 7      2526.203 7      1679.56349  20477849.41049
 20  5 16  2  9  8.0000000  0  7G04G08G09G11G16G26G27                0.000018141
  21766940.141 6      -677.074 6      -624.89847  21766938.84847
  20359393.891 7   -102323.762 7    -65346.09449  20359394.17649
  22741941.250 6    -83948.973 6    -50513.16449  22741941.53949
  22340934.44516   -157285.02016   -105206.37958  22340932.57458
  21917023.578 6     -8247.027 6     -5813.36748  21917020.56648
  23475347.625 5     10235.500 5      6473.07846  23475348.48046
  20477854.289 7      2549.219 7      1697.49649  20477853.35549
 20  5 16  2  9  9.0000000  0  7G04G08G09G11G16G26G27                0.000017176
  21766934.156 6      -711.762 6      -651.92247  21766933.29747
  20358997.773 7   -104405.016 7    -66967.84849  20358998.43049
  22741584.922 6    -85822.371 6    -51972.96149  22741585.03949
  22340052.313 6   -161919.496 6   -108817.66048  22340050.52048
  21916983.469 6     -8455.316 6     -5975.67248  21916980.85548
  23475388.992 5     10452.746 5      6642.36346  23475389.88746
  20477858.375 7      2572.023 7      1715.26649  20477857.89549
 20  5 16  2  9 10.0000000  0  7G04G08G09G11G16G26G27                0.000016207
  21766927.383 6      -746.648 6      -679.09848  21766926.50448
  20358601.547 7   -106486.441 7    -68589.74249  20358602.27049
  22741228.359 6    -87695.879 6    -53432.83649  22741228.80149
  22339170.703 6   -166554.461 6   -112429.32448  22339168.55948
  21916944.297 6     -8664.285 6     -6138.51248  21916941.15648
  23475430.336 5     10669.253 5      6811.07746  23475431.21946
  20477862.938 7      2594.586 7      1732.85249  20477862.23449
 20  5 16  2  9 11.0000000  0  7G04G08G09G11G16G26G27                0.000015236
  21766920.586 6      -781.684 6      -706.39848  21766919.68448
  20358205.609 7   -108567.934 7    -70211.69149  20358206.14549
  22740872.086 6    -89569.430 6    -54892.74649  22740872.50049
  22338288.469 6   -171189.789 6   -116041.27048  22338286.64148
  21916904.211 6     -8873.816 6     -6301.78548  21916901.36748
  23475471.102 5     10885.188 5      6979.32447  23475472.14547
  20477867.047 7      2617.020 7      1750.34049  20477866.62949
 20  5 16  2  9 12.0000000  0  7G04G08G09G11G16G26G27                0.000014267
  21766913.758 6      -816.879 6      -733.82847  21766913.06647
  20357809.875 7   -110649.566 7    -71833.74249  20357809.77749
  22740515.055 6    -91443.082 6    -56352.73449  22740515.59449
  22337406.383 6   -175825.520 6   -119653.52348  22337404.59448
  21916863.750 6     -9083.992 6     -6465.57048  21916861.21548
  23475512.086 5     11100.508 5      7147.08647  23475512.96947
  20477871.250 7      2639.227 7      1767.63749  20477870.69949
 20  5 16  2  9 13.0000000  0  7G04G08G09G11G16G26G27                0.000013296
  21766906.727 6      -852.152 6      -761.31648  21766906.00048
  20357413.664 7   -112731.203 7    -73455.79749  20357413.64849
  22740159.078 6    -93316.691 6    -57812.68449  22740159.16049
  22336524.523 6   -180461.563 6   -123266.02048  22336522.14848
  21916823.875 6     -9294.715 6     -6629.77348  21916821.18848
  23475553.109 5     11315.246 5      7314.40247  23475554.19147
  20477875.414 7      2661.340 7      1784.85949  20477874.90249
 20  5 16  2  9 14.0000000  0  7G04G08G09G11G16G26G27                0.000012325
  21766899.977 5      -887.609 5      -788.95347  21766899.40247
  20357017.375 7   -114812.957 7    -75077.93849  20357017.59849
  22739802.258 6    -95190.375 6    -59272.69549  22739802.25849
  22335641.680 6   -185098.012 6   -126878.83248  22335639.88348
  21916783.578 6     -9506.023 6     -6794.40248  21916781.17648
  23475593.844 5     11529.328 5      7481.21547  23475594.44947
  20477879.859 7      2683.270 7      1801.95749  20477879.05949
 20  5 16  2  9 15.0000000  0  7G04G08G09G11G16G26G27                0.000011354
  21766892.922 5      -923.188 5      -816.66847  21766893.07847
  20356621.195 7   -116894.770 7    -76700.13349  20356622.01649
  22739445.563 6    -97064.113 6    -60732.75449  22739446.20749
  22334759.352 6   -189734.809 6   -130491.92248  22334757.56648
  21916743.250 6     -9717.918 6     -6959.50448  21916740.75448
  23475634.477 5     11742.887 5      7647.63747  23475634.99247
  20477883.547 7      2705.078 7      1818.95349  20477883.23849
 20  5 16  2  9 16.0000000  0  7G04G08G09G11G16G26G27                0.000010384
  21766886.672 5      -958.715 5      -844.35248  21766886.02748
  20356225.023 7   -118976.473 7    -78322.23849  20356225.53949
  22739089.711 6    -98937.699 6    -62192.69149  22739089.81649
  22333877.875 6   -194371.836 6   -134105.19148  22333875.32448
  21916703.023 6     -9930.215 6     -7124.93048  21916700.40248
  23475674.281 5     11955.961 5      7813.67647  23475676.04747
  20477887.852 7      2726.875 7      1835.93849  20477887.39849
 20  5 16  2  9 17.0000000  0  7G04G08G09G11G16G26G27                0.000009413
  21766879.992 6      -994.426 6      -872.19148  21766879.10948
  20355828.828 7   -121058.301 7    -79944.44549  20355829.43049
  22738732.891 6   -100811.414 6    -63652.72749  22738733.00449
  22332994.547 6   -199009.242 6   -137718.75848  22332992.87948
  21916662.703 6    -10143.164 6     -7290.88348  21916659.71148
  23475715.531 5     12168.395 5      7979.20347  23475716.18447
  20477892.172 7      2748.473 7      1852.75449  20477891.34449
 20  5 16  2  9 18.0000000  0  7G04G08G09G11G16G26G27                0.000008440
  21766873.266 6     -1030.168 6      -900.04748  21766872.22748
  20355432.438 7   -123140.082 7    -81566.62549  20355432.90649
  22738375.766 6   -102684.980 6    -65112.64149  22738376.06649
  22332112.000 6   -203646.902 6   -141332.52748  22332110.92248
  21916621.836 6    -10356.574 6     -7457.18848  21916619.13748
  23475755.523 5     12380.332 5      8144.34047  23475756.59047
  20477896.164 7      2770.027 7      1869.53549  20477895.53549
 20  5 16  2  9 19.0000000  0  7G04G08G09G11G16G26G27                0.000007467
  21766866.344 5     -1066.008 5      -927.95747  21766865.52747
  20355036.398 7   -125221.934 7    -83188.84049  20355036.85549
  22738019.570 6   -104558.641 6    -66572.64149  22738019.71149
  22331229.469 6   -208284.949 6   -144946.59848  22331228.52348
  21916581.883 6    -10570.652 6     -7624.00048  21916578.34848
  23475795.414 3     12591.664 3      8309.03146  23475796.75846
  20477899.859 6      2791.445 6      1886.23849  20477899.70349
 20  5 16  2  9 20.0000000  0  7G04G08G09G11G16G26G27                0.000006495
  21766859.461 5     -1101.820 5      -955.85947  21766859.24647
  20354640.313 7   -127303.664 7    -84810.96149  20354640.70749
  22737662.883 6   -106432.133 6    -68032.51249  22737663.25449
  22330347.266 6   -212923.156 6   -148560.79348  22330345.77748
  21916540.547 6    -10785.008 6     -7791.00848  21916537.83648
  23475835.617 4     12802.637 4      8473.45746  23475836.99246
  20477904.320 7      2812.895 7      1902.96549  20477903.30949
 20  5 16  2  9 21.0000000  0  7G04G08G09G11G16G26G27                0.000005522
  21766852.695 5     -1137.758 5      -983.84447  21766852.05947
  20354244.164 7   -129385.477 7    -86433.15649  20354245.06649
  22737306.664 6   -108305.637 6    -69492.37949  22737306.90249
  22329464.844 6   -217561.742 6   -152175.27748  22329462.65648
  21916499.594 6    -10999.980 6     -7958.52348  21916496.94148
  23475876.336 4     13012.984 4      8637.34846  23475877.09446
  20477908.305 7      2834.191 7      1919.57049  20477907.74649
 20  5 16  2  9 22.0000000  0  7G04G08G09G11G16G26G27                0.000004547
  21766846.172 5     -1173.820 5     -1011.94948  21766845.22748
  20353847.797 7   -131467.367 7    -88055.40249  20353848.32049
  22736950.250 6   -110179.211 6    -70952.30949  22736950.23049
  22328581.641 6   -222200.652 6   -155790.00048  22328580.14548
  21916458.195 6    -11215.520 6     -8126.48848  21916455.78948
  23475916.289 4     13222.770 4      8800.81346  23475917.26246
  20477912.359 7      2855.344 7      1936.05149  20477911.96949
 20  5 16  2  9 23.0000000  0  7G04G08G09G11G16G26G27                0.000003574
  21766839.570 6     -1209.898 6     -1040.07048  21766838.80148
  20353451.672 7   -133549.223 7    -89677.62549  20353451.94949
  22736593.594 6   -112052.676 6    -72412.15249  22736593.91849
  22327698.977 6   -226839.840 6   -159404.94948  22327697.03148
  21916417.211 6    -11431.523 6     -8294.80148  21916414.55948
  23475956.070 4     13432.078 4      8963.89846  23475956.65246
  20477916.367 7      2876.473 7      1952.51249  20477916.10949
 20  5 16  2  9 24.0000000  0  7G04G08G09G11G16G26G27                0.000002600
  21766832.273 6     -1246.039 6     -1068.23448  21766831.57848
  20353055.609 7   -135631.098 7    -91299.86349  20353055.73449
  22736237.117 6   -113926.172 6    -73872.02749  22736237.22749
  22326816.008 6   -231479.383 6   -163020.16448  22326814.84448
  21916375.938 6    -11648.105 6     -8463.54347  21916373.45347
  23475995.578 3     13640.734 3      9126.50846  23475996.59846
  20477920.172 6      2897.473 6      1968.88349  20477919.61349
 20  5 16  2  9 25.0000000  0  7G04G08G09G11G16G26G27                0.000001625
  21766825.938 6     -1282.215 6     -1096.44548  21766824.85548
  20352659.797 7   -137712.938 7    -92922.08649  20352659.57849
  22735880.445 6   -115799.582 6    -75331.85249  22735880.73849
  22325932.820 6   -236119.148 6   -166635.57448  22325931.65248
  21916334.781 6    -11865.156 6     -8632.65247  21916332.34447
  23476034.516 3     13848.977 3      9288.75846  23476035.63346
  20477923.922 6      2918.430 6      1985.22749  20477923.35549
 20  5 16  2  9 26.0000000  0  7G04G08G09G11G16G26G27                0.000000650
  21766818.836 6     -1318.523 6     -1124.75048  21766818.18848
  20352263.398 7   -139794.836 7    -94544.34849  20352263.06649
  22735524.273 6   -117673.008 6    -76791.66049  22735524.27349
  22325050.273 6   -240759.234 6   -170251.22748  22325048.58248
  21916293.281 7    -12082.637 7     -8802.13747  21916290.66047
  23476073.914 4     14056.637 4      9450.52046  23476075.62546
  20477928.547 7      2939.281 7      2001.47349  20477927.79349
 20  5 16  2  9 27.0000000  0  7G04G08G09G11G16G26G27               -0.000000324
  21766811.609 6     -1354.762 6     -1152.97748  21766811.55548
  20351867.211 7   -141876.609 7    -96166.51249  20351867.77049
  22735167.508 6   -119546.270 6    -78251.34049  22735167.96949
  22324166.797 6   -245399.496 6   -173867.01648  22324165.41848
  21916251.945 6    -12300.629 6     -8972.03148  21916249.47348
  23476114.195 4     14263.898 4      9612.03146  23476115.12546
  20477932.516 7      2960.156 7      2017.73049  20477931.42649
 20  5 16  2  9 28.0000000  0  7G04G08G09G11G16G26G27               -0.000001301
  21766804.461 6     -1391.070 6     -1181.26647  21766804.21547
  20351471.219 7   -143958.387 7    -97788.66849  20351471.25849
  22734811.109 6   -121419.520 6    -79711.00449  22734811.33249
  22323283.664 6   -250040.082 6   -177483.05148  22323282.39848
  21916210.109 6    -12519.145 6     -9142.30547  21916207.72347
  23476153.883 4     14470.629 4      9773.14146  23476154.59446
  20477936.188 6      2980.957 6      2033.92649  20477935.20749
 20  5 16  2  9 29.0000000  0  7G04G08G09G11G16G26G27               -0.000002275
  21766797.547 6     -1427.406 6     -1209.57848  21766797.39148
  20351074.867 7   -146040.109 7    -99410.78949  20351075.15249
  22734454.508 6   -123292.680 6    -81170.60949  22734454.44549
  22322399.820 6   -254680.910 6   -181099.27748  22322399.02048
  21916168.469 6    -12738.125 6     -9312.89547  21916166.32847
  23476191.203 3     14676.848 3      9933.90245  23476193.61345
  20477940.414 6      3001.719 6      2050.11349  20477939.24649
 20  5 16  2  9 30.0000000  0  7G04G08G09G11G16G26G27               -0.000003252
  21766790.555 6     -1463.633 6     -1237.81348  21766790.70748
  20350678.867 7   -148121.648 7   -101032.76649  20350679.30149
  22734098.031 6   -125165.641 6    -82630.06349  22734098.55149
  22321516.898 6   -259321.875 6   -184715.61348  22321516.10948
  21916127.125 6    -12957.434 6     -9483.76247  21916124.68447
  23476231.000 4     14882.738 4     10094.35245  23476233.11345
  20477944.492 6      3022.520 6      2066.32449  20477943.55949
 20  5 16  2  9 31.0000000  0  7G04G08G09G11G16G26G27               -0.000004229
  21766783.805 6     -1499.875 6     -1266.05148  21766783.96148
  20350282.977 7   -150203.176 7   -102654.74649  20350282.88349
  22733741.516 6   -127038.555 6    -84089.47749  22733741.76649
  22320634.031 6   -263963.105 6   -188332.15248  22320632.54748
  21916084.758 6    -13177.227 6     -9655.02047  21916082.82447
  23476269.695 2     15088.090 2     10254.36745  23476272.62545
  20477947.867 6      3043.281 6      2082.50849  20477947.31349
 20  5 16  2  9 32.0000000  0  7G04G08G09G11G16G26G27               -0.000005205
  21766776.609 6     -1536.211 6     -1294.37148  21766776.97748
  20349886.883 7   -152284.699 7   -104276.70749  20349886.71149
  22733385.367 6   -128911.441 6    -85548.86349  22733385.24649
  22319750.539 6   -268604.645 6   -191948.94148  22319749.67248
  21916043.148 6    -13397.547 6     -9826.71147  21916040.86347
  23476309.789 3     15292.891 3     10413.89845  23476311.50045
  20477951.867 6      3063.977 6      2098.63749  20477951.48049
 20  5 16  2  9 33.0000000  0  7G04G08G09G11G16G26G27               -0.000006182
  21766769.969 6     -1572.387 6     -1322.56648  21766770.10948
  20349490.391 7   -154366.023 7   -105898.52349  20349490.92249
  22733028.547 6   -130784.102 6    -87008.07849  22733028.84849
  22318867.813 6   -273246.273 6   -195565.79348  22318866.37548
  21916001.281 6    -13618.156 6     -9998.61747  21915998.72747
  23476347.617 3     15497.457 3     10573.18045  23476350.84445
  20477955.773 6      3084.793 6      2114.86349  20477955.05149
 20  5 16  2  9 34.0000000  0  7G04G08G09G11G16G26G27               -0.000007160
  21766763.148 6     -1608.598 6     -1350.78148  21766762.96548
  20349094.648 7   -156447.313 7   -107520.30549  20349095.30149
  22732672.273 6   -132656.664 6    -88467.21549  22732672.62549
  22317984.445 6   -277888.125 6   -199182.81648  22317983.19148
  21915959.109 6    -13839.262 6    -10170.90647  21915957.10947
  23476386.648 3     15701.441 3     10732.09045  23476389.26645
  20477959.797 6      3105.551 6      2131.03549  20477959.42649
 20  5 16  2  9 35.0000000  0  7G04G08G09G11G16G26G27               -0.000008139
  21766756.141 6     -1644.824 6     -1379.00848  21766756.42248
  20348698.852 7   -158528.555 7   -109142.04749  20348699.17649
  22732316.281 6   -134529.141 6    -89926.27749  22732316.19549
  22317101.102 6   -282530.195 6   -202800.01248  22317099.41048
  21915917.188 6    -14060.672 6    -10343.46948  21915915.88348
  23476426.484 5     15904.973 5     10890.68445  23476428.32045
  20477964.102 7      3126.328 7      2147.20749  20477963.54349
 20  5 16  2  9 36.0000000  0  7G04G08G09G11G16G26G27               -0.000009115
  21766749.680 6     -1681.016 6     -1407.21148  21766749.10248
  20348303.000 7   -160609.754 7   -110763.77049  20348302.77049
  22731960.102 6   -136401.531 6    -91385.27349  22731960.09049
  22316217.906 6   -287172.539 6   -206417.43048  22316216.48848
  21915874.945 6    -14282.668 6    -10516.51648  21915872.94548
  23476465.055 5     16108.117 5     11049.03546  23476467.17246
  20477967.961 7      3147.047 7      2163.30949  20477967.74249
 20  5 16  2  9 37.0000000  0  7G04G08G09G11G16G26G27               -0.000010094
  21766743.109 6     -1717.332 6     -1435.50848  21766742.36748
  20347906.523 7   -162691.000 7   -112385.52349  20347906.84049
  22731603.813 6   -138273.918 6    -92844.27049  22731603.69549
  22315333.914 6   -291815.211 6   -210035.10248  22315332.67248
  21915832.250 6    -14505.230 6    -10689.97348  21915829.57048
  23476503.125 5     16310.609 5     11206.86346  23476505.57846
  20477971.609 7      3167.637 7      2179.33249  20477971.29349
 20  5 16  2  9 38.0000000  0  7G04G08G09G11G16G26G27               -0.000011072
  21766735.727 6     -1753.625 6     -1463.80148  21766734.96548
  20347510.328 7   -164772.145 7   -114007.19149  20347510.75049
  22731247.711 6   -140146.195 6    -94303.18849  22731247.44949
  22314450.359 6   -296458.094 6   -213652.92648  22314449.03948
  21915790.180 6    -14728.215 6    -10863.72748  21915787.45348
  23476542.094 5     16512.688 5     11364.34046  23476544.03146
  20477975.695 7      3188.242 7      2195.38749  20477975.02749
 20  5 16  2  9 39.0000000  0  7G04G08G09G11G16G26G27               -0.000012051
  21766728.813 6     -1789.730 6     -1491.93448  21766727.87548
  20347114.352 7   -166853.070 7   -115628.69149  20347114.74249
  22730891.016 6   -142018.199 6    -95761.89549  22730890.58249
  22313566.969 6   -301101.051 6   -217270.80548  22313565.39848
  21915747.617 6    -14951.516 6    -11037.70348  21915744.62948
  23476580.203 5     16714.465 5     11521.56647  23476581.62147
  20477979.742 7      3208.977 7      2211.55549  20477979.05549
 20  5 16  2  9 40.0000000  0  7G04G08G09G11G16G26G27               -0.000013031
  21766722.141 6     -1825.855 6     -1520.08648  21766721.70348
  20346718.539 7   -168933.922 7   -117250.13349  20346718.86349
  22730535.508 6   -143890.109 6    -97220.52749  22730534.96549
  22312683.305 6   -305744.238 6   -220888.87147  22312681.77347
  21915704.711 6    -15175.227 6    -11211.99648  21915701.78948
  23476618.508 5     16915.793 5     11678.44147  23476620.23447
  20477983.148 7      3229.719 7      2227.72749  20477982.71549
 20  5 16  2  9 41.0000000  0  7G04G08G09G11G16G26G27               -0.000014009
  21766715.352 6     -1861.898 6     -1548.17648  21766714.81648
  20346322.547 7   -171014.656 7   -118871.48449  20346323.02749
  22730178.539 6   -145761.836 6    -98679.01649  22730178.55949
  22311799.766 6   -310387.555 6   -224507.03148  22311798.58648
  21915662.461 6    -15399.281 6    -11386.56648  21915659.75448
  23476656.844 5     17116.680 5     11834.96547  23476658.66047
  20477987.469 7      3250.504 7      2243.93849  20477986.97749
 20  5 16  2  9 42.0000000  0  7G04G08G09G11G16G26G27               -0.000014990
  21766708.344 6     -1897.824 6     -1576.17648  21766707.81648
  20345926.578 7   -173095.195 7   -120492.68849  20345926.49249
  22729822.734 6   -147633.383 6   -100137.36349  22729822.55149
  22310916.383 6   -315030.984 6   -228125.28548  22310914.83248
  21915619.656 6    -15623.691 6    -11561.43848  21915616.94948
  23476694.703 5     17317.270 5     11991.25447  23476696.49247
  20477991.688 7      3271.379 7      2260.20749  20477990.99249
 20  5 16  2  9 43.0000000  0  7G04G08G09G11G16G26G27               -0.000015968
  21766701.445 6     -1933.855 6     -1604.25048  21766700.78548
  20345530.555 7   -175175.824 7   -122113.95749  20345530.93849
  22729466.508 6   -149504.961 6   -101595.73849  22729466.61749
  22310032.375 6   -319674.801 6   -231743.84048  22310030.79748
  21915576.867 6    -15848.680 6    -11736.76648  21915574.49648
  23476732.914 5     17517.211 5     12147.05547  23476734.80147
  20477995.367 7      3292.117 7      2276.36749  20477994.78549
 20  5 16  2  9 44.0000000  0  7G04G08G09G11G16G26G27               -0.000016951
  21766694.930 6     -1970.051 6     -1632.46148  21766694.18048
  20345134.930 7   -177256.547 7   -123735.30149  20345134.85549
  22729110.359 6   -151376.559 6   -103054.12149  22729110.22349
  22309148.766 6   -324318.969 6   -235362.67648  22309147.03548
  21915534.203 6    -16074.277 6    -11912.57448  21915531.18448
  23476770.875 5     17716.574 5     12302.40646  23476772.56346
  20477999.469 7      3312.688 7      2292.39149  20477998.66049
 20  5 16  2  9 45.0000000  0  7G04G08G09G11G16G26G27               -0.000017931
  21766687.859 6     -2006.195 6     -1660.62548  21766687.17648
  20344738.656 7   -179337.102 7   -125356.52049  20344739.12949
  22728754.859 6   -153247.996 6   -104512.38349  22728754.10949
  22308265.250 6   -328963.289 6   -238981.62948  22308263.33248
  21915491.164 6    -16300.246 6    -12088.67248  21915488.21548
  23476809.000 5     17915.555 5     12457.46946  23476810.19546
  20478003.352 7      3333.316 7      2308.45349  20478002.47349
 20  5 16  2  9 46.0000000  0  7G04G08G09G11G16G26G27               -0.000018911
  21766680.758 6     -2042.148 6     -1688.64848  21766680.27748
  20344343.086 7   -181417.449 7   -126977.56649  20344343.26649
  22728398.508 6   -155119.188 6   -105970.46149  22728398.26249
  22307381.445 6   -333607.691 6   -242600.64548  22307379.46148
  21915447.305 6    -16526.500 6    -12264.98048  21915445.11348
  23476845.922 4     18114.223 4     12612.28946  23476847.82046
  20478007.086 7      3354.070 7      2324.62149  20478006.82849
 20  5 16  2  9 47.0000000  0  7G04G08G09G11G16G26G27               -0.000019892
  21766674.133 6     -2077.973 6     -1716.56648  21766673.63348
  20343947.008 7   -183497.621 7   -128598.48049  20343947.16849
  22728042.125 6   -156990.148 6   -107428.35949  22728042.26249
  22306497.719 6   -338252.207 6   -246219.74648  22306495.67648
  21915404.820 6    -16753.074 6    -12441.53148  21915402.21548
  23476884.219 5     18312.570 5     12766.86746  23476885.84446
  20478011.305 7      3374.953 7      2340.89149  20478010.71949
 20  5 16  2  9 48.0000000  0  7G04G08G09G11G16G26G27               -0.000020874
  21766667.367 6     -2113.730 6     -1744.42648  21766666.79348
  20343551.234 7   -185577.625 7   -130219.25849  20343551.49649
  22727686.672 6   -158860.918 6   -108886.09849  22727686.16049
  22305613.500 6   -342896.824 6   -249838.92648  22305611.59048
  21915361.539 6    -16980.039 6    -12618.37948  21915358.87548
  23476922.289 5     18510.598 5     12921.15246  23476923.26246
  20478015.289 7      3395.867 7      2357.19149  20478014.53149
 20  5 16  2  9 49.0000000  0  7G04G08G09G11G16G26G27               -0.000021854
  21766660.484 6     -2149.590 6     -1772.36748  21766659.98848
  20343155.281 7   -187657.664 7   -131840.06649  20343155.35549
  22727330.352 6   -160731.723 6   -110343.86749  22727329.98449
  22304730.055 6   -347541.809 6   -253458.38748  22304728.14148
  21915318.391 6    -17207.527 6    -12795.62148  21915315.82848
  23476959.805 5     18707.977 5     13074.93447  23476960.77347
  20478019.141 7      3416.672 7      2373.42649  20478018.64549
 20  5 16  2  9 50.0000000  0  7G04G08G09G11G16G26G27               -0.000022839
  21766653.328 6     -2185.371 6     -1800.25448  21766652.99248
  20342759.734 7   -189737.563 7   -133460.77049  20342759.86749
  22726974.078 6   -162602.313 6   -111801.46549  22726974.18049
  22303845.734 6   -352186.902 6   -257077.93848  22303843.96948
  21915275.148 6    -17435.367 6    -12973.14148  21915272.37948
  23476997.305 5     18904.980 5     13228.41447  23476997.98847
  20478023.188 7      3437.563 7      2389.71149  20478022.71949
 20  5 16  2  9 51.0000000  0  7G04G08G09G11G16G26G27               -0.000023821
  21766646.477 6     -2220.980 6     -1827.99648  21766646.09848
  20342364.055 7   -191817.246 7   -135081.30149  20342364.04349
  22726618.781 6   -164472.660 6   -113258.87949  22726617.96149
  22302961.930 6   -356832.070 6   -260697.55548  22302960.16048
  21915231.813 6    -17663.512 6    -13150.91048  21915229.25048
  23477034.922 5     19101.688 5     13381.69147  23477035.53547
  20478027.086 7      3458.594 7      2406.09449  20478026.84049
 20  5 16  2  9 52.0000000  0  7G04G08G09G11G16G26G27               -0.000024803
  21766640.164 6     -2256.668 6     -1855.80548  21766639.02748
  20341968.281 7   -193896.949 7   -136701.85549  20341968.11749
  22726262.477 6   -166342.973 6   -114716.26249  22726262.05949
  22302077.656 6   -361477.559 6   -264317.41448  22302076.34048
  21915188.094 6    -17892.148 6    -13329.07448  21915185.74248
  23477072.328 5     19297.816 5     13534.52047  23477072.95747
  20478031.063 7      3479.520 7      2422.39549  20478030.62149
 20  5 16  2  9 53.0000000  0  7G04G08G09G11G16G26G27               -0.000025785
  21766633.438 6     -2292.352 6     -1883.60548  21766632.35948
  20341572.367 7   -195976.563 7   -138322.32849  20341572.23849
  22725906.891 6   -168213.207 6   -116173.58249  22725906.27049
  22301193.539 6   -366123.246 6   -267937.43848  22301192.05148
  21915144.375 7    -18121.258 7    -13507.64148  21915142.34448
  23477108.961 5     19493.531 5     13687.01246  23477110.18846
  20478035.422 7      3500.426 7      2438.66449  20478034.77749
 20  5 16  2  9 54.0000000  0  7G04G08G09G11G16G26G27               -0.000026768
  21766626.719 6     -2327.852 6     -1911.26648  21766625.68048
  20341176.766 7   -198055.980 7   -139942.64549  20341177.07449
  22725550.867 6   -170083.168 6   -117630.69949  22725550.93049
  22300309.484 6   -370769.020 6   -271557.51648  22300307.76648
  21915100.703 7    -18350.680 7    -13686.43448  21915098.34448
  23477146.758 5     19688.902 5     13839.24246  23477147.40646
  20478039.453 7      3521.434 7      2455.02349  20478038.34049
 20  5 16  2  9 55.0000000  0  7G04G08G09G11G16G26G27               -0.000027752
  21766619.914 6     -2363.363 6     -1938.93848  21766618.77748
  20340781.320 7   -200135.297 7   -141562.88749  20340781.41049
  22725195.086 6   -171953.016 6   -119087.73849  22725194.87549
  22299425.766 6   -375415.039 6   -275177.78948  22299423.64548
  21915056.719 7    -18580.516 7    -13865.53148  21915054.84448
  23477183.430 4     19883.828 4     13991.16846  23477184.78146
  20478042.906 7      3542.473 7      2471.42249  20478042.56649
 20  5 16  2  9 56.0000000  0  7G04G08G09G11G16G26G27               -0.000028736
  21766612.695 6     -2398.898 6     -1966.63748  21766611.80548
  20340385.617 7   -202214.590 7   -143183.12149  20340385.58649
  22724838.969 6   -173822.848 6   -120544.75849  22724839.19949
  22298541.422 6   -380061.301 6   -278798.25848  22298539.34448
  21915012.977 6    -18810.855 6    -14045.00848  21915011.08648
  23477220.461 3     20078.301 3     14142.75446  23477221.72346
  20478047.445 7      3563.438 7      2487.76649  20478046.98849
 20  5 16  2  9 57.0000000  0  7G04G08G09G11G16G26G27               -0.000029720
  21766606.281 6     -2434.438 6     -1994.33248  21766605.03548
  20339990.070 7   -204293.840 7   -144803.32049  20339989.73849
  22724483.445 6   -175692.551 6   -122001.67649  22724483.07849
  22297657.391 6   -384707.789 6   -282418.89148  22297655.36748
  21914969.195 6    -19041.656 6    -14224.84048  21914967.06348
  23477257.070 2     20272.219 2     14293.93846  23477258.47346
  20478050.836 7      3584.410 7      2504.12549  20478050.46549
 20  5 16  2  9 58.0000000  0  7G04G08G09G11G16G26G27               -0.000030704
  21766599.258 6     -2469.703 6     -2021.81648  21766598.13748
  20339594.352 7   -206372.742 7   -146423.24249  20339594.51249
  22724127.695 6   -177561.910 6   -123458.32849  22724126.94549
  22296772.719 6   -389354.223 6   -286039.48048  22296770.86748
  21914925.367 6    -19272.605 6    -14404.78147  21914923.85547
  23477294.906 2     20465.996 2     14445.00846  23477295.49246
  20478055.008 6      3605.613 6      2520.67249  20478054.74249
 20  5 16  2  9 59.0000000  0  7G04G08G09G11G16G26G27               -0.000031689
  21766592.797 6     -2505.035 6     -2049.34448  21766591.57448
  20339198.531 7   -208451.641 7   -148043.16449  20339199.04749
  22723771.734 6   -179431.203 6   -124914.92249  22723771.44149
  22295889.055 6   -394000.945 6   -289660.30548  22295886.68448
  21914881.344 6    -19504.039 6    -14585.10947  21914879.45747
  23477330.508 2     20659.254 2     14595.63756  23477332.54756
  20478059.586 6      3626.738 6      2537.14549  20478058.64549
 20  5 16  2 10  0.0000000  0  7G04G08G09G11G16G26G27               -0.000032673
  21766586.156 6     -2540.254 6     -2076.78547  21766585.10547
  20338802.688 7   -210530.367 7   -149662.94949  20338802.90649
  22723416.602 6   -181300.297 6   -126371.35549  22723415.63349
  22295004.844 6   -398647.785 6   -293281.21948  22295002.57848
  21914836.523 6    -19735.832 6    -14765.72347  21914835.80547
  23477367.336 2     20852.215 2                
  20478063.258 6      3647.980 6      2553.69949  20478062.44549
 20  5 16  2 10  1.0000000  0  7G04G08G09G11G16G26G27               -0.000033659
  21766579.344 6     -2575.383 6     -2104.16047  21766578.39547
  20338407.375 7   -212608.957 7   -151282.62549  20338407.79749
  22723060.805 6   -183169.211 6   -127827.65249  22723060.19949
  22294120.727 6   -403294.754 6   -296902.24648  22294118.50848
  21914792.781 6    -19967.973 6    -14946.60547  21914791.42647
  23477404.055 2     21044.781 2                
  20478067.602 6      3669.250 6      2570.25849  20478066.78549
 20  5 16  2 10  2.0000000  0  7G04G08G09G11G16G26G27               -0.000034643
  21766572.844 6     -2610.469 6     -2131.50048  21766571.71948
  20338011.836 7   -214687.453 7   -152902.24249  20338012.65649
  22722705.539 6   -185037.957 6   -129283.80549  22722704.57849
  22293236.828 6   -407941.887 6   -300523.39548  22293234.03548
  21914748.555 6    -20200.430 6    -15127.76248  21914746.86348
  23477440.898 5     21237.043 5                
  20478071.617 7      3690.570 7      2586.85949  20478070.85949
 20  5 16  2 10  3.0000000  0  7G04G08G09G11G16G26G27               -0.000035629
  21766566.094 6     -2645.469 6     -2158.77748  21766565.12548
  20337616.609 7   -216765.789 7   -154521.72349  20337616.75049
  22722349.484 6   -186906.574 6   -130739.84849  22722349.41449
  22292351.969 6   -412589.211 6   -304144.69148  22292349.45748
  21914704.609 6    -20433.355 6    -15309.27748  21914702.18448
  23477477.492 5     21428.742 5                
  20478075.813 7      3711.945 7      2603.49249  20478074.48849
 20  5 16  2 10  4.0000000  0  7G04G08G09G11G16G26G27               -0.000036615
  21766559.227 6     -2680.453 6     -2186.04348  21766557.95748
  20337221.094 7   -218844.031 7   -156141.13749  20337221.20749
  22721993.844 6   -188775.027 6   -132195.77349  22721993.47749
  22291467.492 6   -417236.707 6   -307766.12948  22291465.27348
  21914659.914 6    -20666.711 6    -15491.11748  21914657.53948
  23477514.313 5     21620.086 5                
  20478079.438 7      3733.332 7      2620.14549  20478078.85949
 20  5 16  2 10  5.0000000  0  7G04G08G09G11G16G26G27               -0.000037601
  21766552.820 6     -2715.242 6     -2213.14848  21766551.45748
  20336825.680 7   -220922.035 7   -157760.36749  20336825.89149
  22721638.086 6   -190643.234 6   -133651.52049  22721638.34449
  22290583.336 6   -421884.281 6   -311387.62548  22290580.68048
  21914615.805 6    -20900.332 6    -15673.16848  21914613.18048
  23477550.453 5     21811.070 5                
  20478083.836 7      3754.848 7      2636.90649  20478083.07049
 20  5 16  2 10  6.0000000  0  7G04G08G09G11G16G26G27               -0.000038588
  21766545.969 6     -2750.137 6     -2240.34448  21766544.84048
  20336430.031 7   -223000.066 7   -159379.60949  20336430.32049
  22721283.250 6   -192511.398 6   -135107.23849  22721282.81649
  22289698.727 6   -426532.152 6   -315009.33648  22289696.07848
  21914570.969 6    -21134.473 6    -15855.62148  21914568.68448
  23477587.164 5     22001.566 5                
  20478087.703 7      3776.277 7      2653.60949  20478087.16449
 20  5 16  2 10  7.0000000  0  7G04G08G09G11G16G26G27               -0.000039574
  21766539.555 6     -2784.836 6     -2267.38348  21766538.81348
  20336034.719 7   -225077.863 7   -160998.67649  20336035.16049
  22720927.648 6   -194379.297 6   -136562.74649  22720927.17649
  22288814.641 6   -431180.063 6   -318631.07848  22288811.85948
  21914526.172 6    -21368.898 6    -16038.28148  21914524.01248
  23477623.344 5     22191.773 5                
  20478091.516 7      3797.879 7      2670.44549  20478091.03949
 20  5 16  2 10  8.0000000  0  7G04G08G09G11G16G26G27               -0.000040562
  21766532.789 6     -2819.355 6     -2294.28548  21766532.13748
  20335639.328 7   -227155.375 7   -162617.51649  20335639.28549
  22720572.297 6   -196246.895 6   -138018.02749  22720571.37949
  22287929.914 6   -435827.988 6   -322252.84048  22287926.94148
  21914481.469 6    -21603.547 6    -16221.12148  21914479.43448
  23477659.008 5     22381.688 5                
  20478095.961 7      3819.633 7      2687.40249  20478095.53149
 20  5 16  2 10  9.0000000  0  7G04G08G09G11G16G26G27               -0.000041548
  21766526.227 6     -2853.928 6     -2321.22348  21766525.34448
  20335244.133 7   -229232.941 7   -164236.40249  20335244.28149
  22720216.867 6   -198114.496 6   -139473.30549  22720216.07049
  22287045.602 6   -440476.246 6   -325874.85948  22287042.46548
  21914437.250 6    -21838.754 6    -16404.39548  21914434.87548
  23477695.094 5     22571.078 5                
  20478099.992 7      3841.293 7      2704.28149  20478099.68449
 20  5 16  2 10 10.0000000  0  7G04G08G09G11G16G26G27               -0.000042536
  21766519.805 6     -2888.496 6     -2348.15648  21766518.64848
  20334848.531 7   -231310.383 7   -165855.18449  20334849.08249
  22719861.234 6   -199981.926 6   -140928.44549  22719860.78549
  22286161.094 6   -445124.664 6   -329497.00448  22286158.01248
  21914392.125 6    -22074.355 6    -16587.98848  21914389.93848
  23477731.016 5     22760.051 5                
  20478104.078 7      3862.992 7      2721.19549  20478103.64149
 20  5 16  2 10 11.0000000  0  7G04G08G09G11G16G26G27               -0.000043524
  21766512.938 6     -2923.043 6     -2375.08248  21766512.40648
  20334453.422 7   -233387.770 7   -167473.93049  20334453.37949
  22719505.797 6   -201849.297 6   -142383.53549  22719505.52049
  22285276.094 6   -449773.313 6   -333119.32048  22285273.52048
  21914347.328 6    -22310.391 6    -16771.91848  21914345.02048
  23477766.578 5     22948.570 5                
  20478108.313 7      3884.648 7      2738.07049  20478107.57049
 20  5 16  2 10 12.0000000  0  7G04G08G09G11G16G26G27               -0.000044512
  21766506.930 6     -2957.570 6     -2401.98048  21766505.90648
  20334058.078 7   -235465.066 7   -169092.59849  20334058.64149
  22719150.656 6   -203716.523 6   -143838.51649  22719150.00049
  22284391.711 6   -454422.176 6   -336741.81348  22284389.18448
  21914302.078 6    -22546.863 6    -16956.18448  21914299.81648
  23477802.281 5     23136.656 5                
  20478112.445 7      3906.324 7      2754.95749  20478111.87949
 20  5 16  2 10 13.0000000  0  7G04G08G09G11G16G26G27               -0.000045500
  21766500.180 6     -2992.063 6     -2428.85548  21766499.05948
  20333662.766 7   -237542.277 7   -170711.19949  20333663.16849
  22718795.680 6   -205583.637 6   -145293.40649  22718795.13749
  22283506.969 6   -459071.227 6   -340364.45348  22283504.76248
  21914257.500 6    -22783.750 6    -17140.77748  21914255.07048
  23477838.219 5     23324.281 5     15389.06356  23477836.46956
  20478116.492 7      3928.000 7      2771.84849  20478115.75449
 20  5 16  2 10 14.0000000  0  7G04G08G09G11G16G26G27               -0.000046488
  21766493.602 6     -3026.391 6     -2455.60548  21766492.99648
  20333267.711 7   -239619.289 7   -172329.65249  20333267.88349
  22718439.945 6   -207450.484 6   -146748.09449  22718439.64149
  22282622.211 6   -463720.344 6   -343987.13748  22282619.92248
  21914211.961 6    -23020.922 6    -17325.58648  21914209.97748
  23477873.883 5     23511.602 5     15535.03546  23477872.18846
  20478120.633 7      3949.816 7      2788.84849  20478120.21149
 20  5 16  2 10 15.0000000  0  7G04G08G09G11G16G26G27               -0.000047476
  21766486.969 6     -3060.719 6     -2482.36348  21766486.05548
  20332872.695 7   -241696.188 7   -173948.02049  20332872.82449
  22718085.266 6   -209317.230 6   -148202.70749  22718084.34049
  22281737.078 6   -468369.652 6   -347609.97348  22281734.86348
  21914167.023 6    -23258.539 6    -17510.73448  21914164.66048
  23477909.492 5     23698.500 5     15680.67246  23477908.52346
  20478125.156 7      3971.637 7      2805.84849  20478124.53149
 20  5 16  2 10 16.0000000  0  7G04G08G09G11G16G26G27               -0.000048466
  21766480.227 6     -3094.773 6     -2508.91048  21766479.53948
  20332477.203 7   -243772.754 7   -175566.12149  20332477.46149
  22717729.805 6   -211183.621 6   -149657.02749  22717729.18049
  22280852.711 6   -473018.949 6   -351232.79748  22280850.24648
  21914121.516 6    -23496.340 6    -17696.03948  21914119.42648
  23477944.383 5     23885.184 5     15826.14546  23477944.34446
  20478129.023 7      3993.680 7      2823.02749  20478128.78149
 20  5 16  2 10 17.0000000  0  7G04G08G09G11G16G26G27               -0.000049456
  21766473.945 6     -3128.723 6     -2535.36348  21766472.93448
  20332081.891 7   -245849.164 7   -177184.10549  20332081.98449
  22717374.391 6   -213049.781 6   -151111.18449  22717373.97349
  22279968.055 6   -477668.363 6   -354855.71948  22279965.40248
  21914075.906 6    -23734.496 6    -17881.61748  21914073.59048
  23477980.031 5     24071.492 5     15971.32046  23477979.53946
  20478133.391 7      4015.809 7      2840.26649  20478132.79749
 20  5 16  2 10 18.0000000  0  7G04G08G09G11G16G26G27               -0.000050444
  21766467.227 6     -3162.551 6     -2561.72348  21766466.87948
  20331686.930 7   -247925.363 7   -178801.92649  20331687.35249
  22717019.844 6   -214915.699 6   -152565.15249  22717018.96149
  22279082.922 6   -482317.848 6   -358478.69148  22279080.69548
  21914031.156 6    -23972.953 6    -18067.43048  21914028.48048
  23478015.695 5     24257.516 5     16116.26246  23478015.47746
  20478137.703 7      4038.055 7      2857.59849  20478137.18449
 20  5 16  2 10 19.0000000  0  7G04G08G09G11G16G26G27               -0.000051434
  21766460.828 6     -3196.402 6     -2588.10248  21766460.63748
  20331291.789 7   -250001.543 7   -180419.72749  20331292.28149
  22716664.516 6   -216781.594 6   -154019.09849  22716663.63749
  22278198.313 6   -486967.613 6   -362101.88748  22278195.82448
  21913985.516 6    -24211.875 6    -18253.60248  21913983.01248
  23478051.406 5     24443.027 5     16260.80546  23478051.19546
  20478141.766 7      4060.254 7      2874.90249  20478141.39149
 20  5 16  2 10 20.0000000  0  7G04G08G09G11G16G26G27               -0.000052423
  21766454.242 6     -3230.262 6     -2614.48448  21766453.87948
  20330896.633 7   -252077.668 7   -182037.48449  20330897.25849
  22716309.297 6   -218647.387 6   -155472.96149  22716308.81349
  22277313.391 6   -491617.602 6   -365725.25848  22277310.99248
  21913939.898 6    -24451.270 6    -18440.14148  21913937.26648
  23478085.727 5     24628.055 5     16404.97746  23478086.50446
  20478146.055 7      4082.418 7      2892.17249  20478145.57849
 20  5 16  2 10 21.0000000  0  7G04G08G09G11G16G26G27               -0.000053415
  21766448.055 6     -3263.934 6     -2640.71948  21766447.59848
  20330501.445 7   -254153.543 7   -183655.05549  20330501.81649
  22715954.438 6   -220512.891 6   -156926.60249  22715953.41449
  22276428.719 6   -496267.617 6   -369348.64148  22276426.35548
  21913894.453 6    -24690.906 6    -18626.87148  21913891.76648
  23478121.047 5     24812.844 5     16548.97347  23478121.24247
  20478150.188 7      4104.762 7      2909.58249  20478149.64849
 20  5 16  2 10 22.0000000  0  7G04G08G09G11G16G26G27               -0.000054405
  21766441.570 6     -3297.547 6     -2666.91848  21766441.11748
  20330106.680 7   -256229.301 7   -185272.52349  20330106.99249
  22715599.453 6   -222378.234 6   -158380.11749  22715598.54749
  22275543.492 6   -500917.813 6   -372972.18048  22275541.15648
  21913848.641 6    -24930.941 6    -18813.91848  21913846.35248
  23478156.313 5     24997.184 5     16692.60947  23478156.64847
  20478154.656 7      4127.117 7      2927.00049  20478153.43049
 20  5 16  2 10 23.0000000  0  7G04G08G09G11G16G26G27               -0.000055395
  21766435.102 6     -3331.074 6     -2693.04748  21766434.79748
  20329711.664 7   -258304.855 7   -186889.83649  20329711.72749
  22715244.672 6   -224243.367 6   -159833.46549  22715243.57849
  22274658.641 6   -505568.102 6   -376595.78548  22274656.23448
  21913803.352 6    -25171.313 6    -19001.21948  21913800.31348
  23478191.430 5     25181.207 5     16836.00046  23478191.73846
  20478158.992 7      4149.586 7      2944.50849  20478158.40249
 20  5 16  2 10 24.0000000  0  7G04G08G09G11G16G26G27               -0.000056387
  21766428.781 6     -3364.543 6     -2719.12148  21766428.28948
  20329316.805 7   -260380.363 7   -188507.12149  20329316.78149
  22714889.984 6   -226108.402 6   -161286.74649  22714889.02049
  22273773.906 6   -510218.602 6   -380219.54748  22273771.27348
  21913757.227 6    -25412.109 6    -19188.85248  21913754.43048
  23478226.984 5     25364.758 5     16979.02346  23478226.69946
  20478163.148 7      4172.043 7      2962.00049  20478162.23449
 20  5 16  2 10 25.0000000  0  7G04G08G09G11G16G26G27               -0.000057379
  21766422.492 6     -3397.891 6     -2745.11748  21766422.28948
  20328922.258 7   -262455.688 7   -190124.25849  20328922.01649
  22714534.977 6   -227973.188 6   -162739.82849  22714534.25849
  22272888.813 6   -514869.211 6   -383843.40248  22272886.37148
  21913711.313 6    -25653.199 6    -19376.71948  21913708.62548
  23478261.508 5     25548.012 5     17121.81646  23478261.71946
  20478167.438 7      4194.602 7      2979.58249  20478166.65649
 20  5 16  2 10 26.0000000  0  7G04G08G09G11G16G26G27               -0.000058371
  21766416.555 6     -3431.211 6     -2771.07448  21766415.59048
  20328526.969 7   -264530.863 7   -191741.27749  20328526.99649
  22714179.984 6   -229837.820 6   -164192.79349  22714179.04749
  22272003.859 6   -519519.965 6   -387467.37148  22272001.40248
  21913665.273 6    -25894.695 6    -19564.89148  21913662.88348
  23478295.742 5     25730.848 5     17264.28546  23478296.37546
  20478171.938 7      4217.180 7      2997.18049  20478171.22749
 20  5 16  2 10 27.0000000  0  7G04G08G09G11G16G26G27               -0.000059361
  21766409.703 6     -3464.512 6     -2797.02748  21766409.20348
  20328132.344 7   -266605.949 7   -193358.22749  20328132.58249
  22713825.219 6   -231702.359 6   -165645.67649  22713824.22349
  22271119.102 6   -524170.918 6   -391091.48448  22271116.55948
  21913619.461 6    -26136.633 6    -19753.42248  21913616.73048
  23478330.672 5     25913.215 5     17406.39546  23478331.02346
  20478175.930 7      4239.793 7      3014.79749  20478175.43049
 20  5 16  2 10 28.0000000  0  7G04G08G09G11G16G26G27               -0.000060354
  21766403.914 6     -3497.496 6     -2822.73448  21766402.76248
  20327737.461 7   -268680.684 7   -194974.90249  20327737.63749
  22713470.258 6   -233566.484 6   -167098.24249  22713469.14849
  22270233.961 6   -528821.832 6   -394715.57048  22270231.35948
  21913573.727 6    -26378.719 6    -19942.05948  21913570.71548
  23478365.875 5     26095.426 5     17548.37146  23478366.21546
