     2.10           OBSERVATION DATA    Mixed(MIXED)        RINEX VERSION / TYPE
cnvtToRINEX 3.07.0  convertToRINEX OPR  19-May-20 12:30 UTC PGM / RUN BY / DATE 
----------------------------------------------------------- COMMENT             
G051                                                        MARKER NAME         
G051                                                        MARKER NUMBER       
GNSS Observer       Trimble                                 OBSERVER / AGENCY   
0220379195          5700                2.32                REC # / TYPE / VERS 
                    TRM39105.00                             ANT # / TYPE        
 -3050787.3122  4927445.1096  2654515.8738                  APPROX POSITION XYZ 
       -0.0460        0.0000        0.0000                  ANTENNA: DELTA H/E/N
     1     1     0                                          WAVELENGTH FACT L1/2
     4    C1    L1    L2    P2                              # / TYPES OF OBSERV 
  2020     5    16     3    27   56.0000000     GPS         TIME OF FIRST OBS   
  2020     5    16     5     0   45.0000000     GPS         TIME OF LAST OBS    
     0                                                      RCV CLOCK OFFS APPL 
    18                                                      LEAP SECONDS        
    12                                                      # OF SATELLITES     
   G01  5570  5570  5570  5570                              PRN / # OF OBS      
   G03  1826  1826  1826  1826                              PRN / # OF OBS      
   G04  1801  1801  1801  1801                              PRN / # OF OBS      
   G07  5570  5570  5570  5570                              PRN / # OF OBS      
   G08  5570  5570  5570  5570                              PRN / # OF OBS      
   G09  1014   997  1014  1014                              PRN / # OF OBS      
   G11  5547  5547  5547  5547                              PRN / # OF OBS      
   G16  4905  4893  4815  4815                              PRN / # OF OBS      
   G22  3453  3440  3376  3376                              PRN / # OF OBS      
   G27  4520  4520  4520  4520                              PRN / # OF OBS      
   G28  1659  1643  1588  1588                              PRN / # OF OBS      
   G30  5546  5546  5546  5546                              PRN / # OF OBS      
CARRIER PHASE MEASUREMENTS: PHASE SHIFTS REMOVED            COMMENT             
                                                            END OF HEADER       
 20  5 16  3 27 56.0000000  0  3G01G07G08                            0.000427191
  22081099.75016    -51415.26216    -20683.64859  22081102.60959
  22142304.05516    -45372.11716    -14844.55959  22142301.58659
  20990285.68017     -2749.50817      -893.62559  20990282.01659
 20  5 16  3 27 57.0000000  0  3G01G07G08                            0.000426107
  22080160.977 6    -56349.984 6    -24528.87549  22080163.39549
  22141475.219 6    -49727.145 6    -18238.09049  22141472.87149
  20990235.078 7     -3014.160 7     -1099.82449  20990235.70349
 20  5 16  3 27 58.0000000  0  3G01G07G08                            0.000425032
  22079221.711 6    -61287.293 6    -28376.12949  22079223.55549
  22140645.789 6    -54084.723 6    -21633.60949  22140643.97349
  20990184.227 7     -3281.516 7     -1308.15249  20990184.15649
 20  5 16  3 27 59.0000000  0  3G01G07G08                            0.000423944
  22078281.734 6    -66227.250 6    -32225.44949  22078284.07049
  22139816.211 6    -58444.867 6    -25031.12149  22139813.81349
  20990132.906 7     -3551.523 7     -1518.53949  20990133.15249
 20  5 16  3 28  0.0000000  0  3G01G07G08                            0.000422857
  22077341.031 6    -71169.820 6    -36076.80149  22077343.35549
  22138985.938 6    -62807.641 6    -28430.68849  22138983.66049
  20990081.133 7     -3824.316 7     -1731.10949  20990080.60549
 20  5 16  3 28  1.0000000  0  3G01G07G08                            0.000421766
  22076399.883 6    -76115.152 6    -39930.30949  22076402.10249
  22138155.391 6    -67173.109 6    -31832.34849  22138152.62149
  20990028.813 7     -4099.922 7     -1945.86749  20990028.54749
 20  5 16  3 28  2.0000000  0  3G01G07G08                            0.000420677
  22075458.727 6    -81063.098 6    -43785.84849  22075460.67649
  22137324.180 6    -71541.145 6    -35236.00849  22137321.63749
  20989975.586 7     -4378.230 7     -2162.73849  20989975.26649
 20  5 16  3 28  3.0000000  0  3G01G07G08                            0.000419584
  22074516.641 6    -86013.621 6    -47643.41049  22074518.65249
  22136492.516 6    -75911.711 6    -38641.64849  22136489.91049
  20989922.164 7     -4659.211 7     -2381.68849  20989921.66449
 20  5 16  3 28  4.0000000  0  3G01G07G08                            0.000418491
  22073573.680 6    -90966.586 6    -51502.85949  22073576.11349
  22135660.164 6    -80284.691 6    -42049.16849  22135657.46549
  20989868.383 7     -4942.723 7     -2602.60249  20989868.18449
 20  5 16  3 28  5.0000000  0  3G01G07G08                            0.000417395
  22072630.820 6    -95921.895 6    -55364.13749  22072632.43049
  22134827.547 6    -84659.988 6    -45458.48849  22134825.10549
  20989813.695 7     -5228.680 7     -2825.43449  20989813.57449
 20  5 16  3 28  6.0000000  0  3G01G07G08                            0.000416298
  22071687.680 6   -100879.637 6    -59227.30549  22071689.59449
  22133994.352 6    -89037.664 6    -48869.67249  22133992.03949
  20989758.836 7     -5517.160 7     -3050.21949  20989758.74649
 20  5 16  3 28  7.0000000  0  3G01G07G08                            0.000415197
  22070743.969 6   -105839.449 6    -63092.10249  22070745.35249
  22133161.195 6    -93417.410 6    -52282.46149  22133158.64849
  20989703.539 7     -5807.828 7     -3276.71549  20989703.33649
 20  5 16  3 28  8.0000000  0  3G01G07G08                            0.000414097
  22069799.430 6   -110801.379 6    -66958.53949  22069801.41449
  22132326.992 6    -97799.207 6    -55696.84849  22132324.92649
  20989647.773 7     -6100.695 7     -3504.92649  20989647.85249
 20  5 16  3 28  9.0000000  0  3G01G07G08                            0.000412994
  22068854.828 6   -115765.215 6    -70826.45749  22068857.08649
  22131493.086 6   -102182.879 6    -59112.69549  22131490.63349
  20989591.805 7     -6395.539 7     -3734.67249  20989591.31349
 20  5 16  3 28 10.0000000  0  3G01G07G08                            0.000411892
  22067909.813 6   -120730.809 6    -74695.75449  22067912.06349
  22130658.773 6   -106568.270 6    -62529.87949  22130656.13749
  20989535.164 7     -6692.234 7     -3965.86349  20989534.91049
 20  5 16  3 28 11.0000000  0  3G01G07G08                            0.000410786
  22066964.516 6   -125698.074 6    -78566.34849  22066966.78949
  22129823.883 6   -110955.289 6    -65948.34849  22129821.51249
  20989478.492 7     -6990.676 7     -4198.41849  20989478.62549
 20  5 16  3 28 12.0000000  0  3G01G07G08                            0.000409681
  22066018.680 6   -130666.858 6    -82438.12849  22066020.93049
  22128988.930 6   -115343.789 6    -69367.96149  22128986.05549
  20989421.195 7     -7290.730 7     -4432.23449  20989421.52349
 20  5 16  3 28 13.0000000  0  3G01G07G08                            0.000408573
  22065073.203 6   -135637.004 6    -86310.97349  22065074.89149
  22128153.188 6   -119733.621 6    -72788.60949  22128150.53549
  20989364.141 7     -7592.273 7     -4667.20349  20989363.97749
 20  5 16  3 28 14.0000000  0  3G01G07G08                            0.000407465
  22064127.383 6   -140608.480 6    -90184.84449  22064129.03549
  22127317.625 6   -124124.738 6    -76210.25449  22127315.62949
  20989306.477 7     -7895.215 7     -4903.26249  20989306.77349
 20  5 16  3 28 15.0000000  0  3G01G07G08                            0.000406357
  22063181.031 6   -145580.992 6    -94059.52349  22063182.97349
  22126481.969 6   -128516.910 6    -79632.72749  22126479.35949
  20989248.352 7     -8199.309 7     -5140.21949  20989248.36349
 20  5 16  3 28 16.0000000  0  3G01G07G08                            0.000405247
  22062234.563 6   -150554.594 6    -97935.05949  22062236.31349
  22125646.195 6   -132910.105 6    -83055.99249  22125643.37549
  20989190.445 7     -8504.598 7     -5378.10949  20989190.31349
 20  5 16  3 28 17.0000000  0  3G01G07G08                            0.000404135
  22061288.344 6   -155529.230 6   -101811.39849  22061290.11749
  22124810.180 6   -137304.234 6    -86479.98849  22124807.14149
  20989132.391 7     -8810.945 7     -5616.82049  20989132.12549
 20  5 16  3 28 18.0000000  0  3G01G07G08                            0.000403025
  22060341.883 6   -160504.582 6   -105688.30149  22060342.68849
  22123973.758 6   -141699.141 6    -89904.58649  22123970.76249
  20989073.586 7     -9118.168 7     -5856.21549  20989073.74249
 20  5 16  3 28 19.0000000  0  5G01G04G07G08G11                      0.000401911
  22059394.688 6   -165480.629 6   -109565.73849  22059396.21149
  23936153.63314     26058.44514     11521.82856  23936154.64856
  22123136.938 6   -146094.664 6    -93329.66849  22123134.14849
  20989015.500 7     -9426.172 7     -6096.22349  20989015.49249
  20477146.63316    -83830.15216    -46453.35259  20477144.31659
 20  5 16  3 28 20.0000000  0  8G01G04G07G08G11G16G27G30             0.000400799
  22058446.969 6   -170457.320 6   -113443.68449  22058448.81649
  23936322.836 5     26945.902 5     12213.34046  23936323.39846
  22122300.789 6   -150490.750 6    -96755.19149  22122297.69949
  20988956.500 7     -9734.887 7     -6336.77749  20988956.60549
  20476619.555 6    -86599.566 6    -48611.33249  20476617.34449
  23325052.32016     -4123.13716     -2489.10257  23325050.40657
  22682700.03116     34564.12116     22115.04359  22682701.01659
  24719090.57815   -170210.12115    -68463.99257  24719089.65657
 20  5 16  3 28 21.0000000  0  8G01G04G07G08G11G16G27G30             0.000399685
  22057500.375 6   -175434.586 6   -117322.06649  22057501.93449
  23936491.188 4     27832.445 4     12904.15246  23936492.07046
  22121464.164 6   -154887.383 6   -100181.14149  22121461.27349
  20988897.563 7    -10044.273 7     -6577.85949  20988897.62949
  20476092.898 6    -89369.313 6    -50769.57849  20476090.38349
  23325021.992 6     -4281.855 6     -2612.78547  23325020.62147
  22682884.219 6     35535.953 6     22872.30949  22682885.69949
  24718103.648 4   -175393.824 4    -72503.24247  24718103.46547
 20  5 16  3 28 22.0000000  0  8G01G04G07G08G11G16G27G30             0.000398571
  22056552.891 6   -180412.320 6   -121200.81649  22056554.63749
  23936660.086 4     28718.090 4     13594.25846  23936661.02746
  22120627.031 6   -159284.492 6   -103607.46149  22120624.28949
  20988838.633 7    -10354.242 7     -6819.39549  20988838.73049
  20475565.594 6    -92139.359 6    -52928.05949  20475563.31649
  23324991.445 6     -4441.332 6     -2737.05547  23324989.96147
  22683069.102 6     36507.000 6     23628.96549  22683070.29749
  24717117.250 4   -180578.270 4    -76543.04347  24717116.82047
 20  5 16  3 28 23.0000000  0  8G01G04G07G08G11G16G27G30             0.000397457
  22055605.531 6   -185390.453 6   -125079.87949  22055607.12949
  23936828.000 4     29603.000 4     14283.78946  23936829.10246
  22119790.516 6   -163681.957 6   -107034.05149  22119787.66049
  20988779.617 7    -10664.707 7     -7061.31349  20988779.96549
  20475038.305 6    -94909.574 6    -55086.67249  20475035.78549
  23324961.484 6     -4601.418 6     -2861.79747  23324959.41447
  22683253.961 6     37477.316 6     24385.05949  22683255.38749
  24716130.758 4   -185763.301 4    -80583.32847  24716130.02347
 20  5 16  3 28 24.0000000  0  8G01G04G07G08G11G16G27G30             0.000396343
  22054658.172 6   -190368.902 6   -128959.19149  22054659.53549
  23936996.484 4     30487.285 4     14972.84446  23936997.73046
  22118953.359 6   -168079.680 6   -110460.84849  22118950.89149
  20988720.391 7    -10975.555 7     -7303.53549  20988720.85249
  20474511.188 6    -97679.875 6    -57245.34448  20474508.73448
  23324930.992 6     -4762.086 6     -2987.00447  23324928.99247
  22683438.016 6     38447.063 6     25140.69949  22683439.46549
  24715144.297 5   -190948.863 5    -84624.03947  24715143.32447
 20  5 16  3 28 25.0000000  0  8G01G04G07G08G11G16G27G30             0.000395227
  22053711.281 6   -195347.598 6   -132838.69149  22053712.52049
  23937165.031 5     31370.934 5     15661.39546  23937165.60246
  22118116.563 6   -172477.609 6   -113887.81349  22118114.22349
  20988661.148 7    -11286.738 7     -7546.01649  20988661.09849
  20473984.109 6   -100450.168 6    -59404.02048  20473981.63748
  23324900.234 6     -4923.188 6     -3112.54347  23324898.34447
  22683623.086 6     39416.242 6     25895.90249  22683624.42249
  24714156.828 4   -196134.906 4    -88665.11747  24714156.71947
 20  5 16  3 28 26.0000000  0  8G01G04G07G08G11G16G27G30             0.000394112
  22052763.297 6   -200326.438 6   -136718.30949  22052765.05149
  23937333.500 4     32254.035 4     16349.51246  23937333.87546
  22117279.609 6   -176875.645 6   -117314.84849  22117276.98049
  20988601.875 7    -11598.160 7     -7788.68049  20988602.19549
  20473456.805 6   -103220.414 6    -61562.64848  20473454.48048
  23324868.883 6     -5084.723 6     -3238.40647  23324867.15247
  22683807.344 6     40385.000 6     26650.77349  22683808.77049
  24713169.680 4   -201321.301 4    -92706.46947  24713169.49647
 20  5 16  3 28 27.0000000  0  8G01G04G07G08G11G16G27G30             0.000392996
  22051815.672 6   -205305.363 6   -140597.99249  22051817.12949
  23937500.766 4     33136.684 4     17037.29346  23937501.85946
  22116442.633 6   -181273.758 6   -120741.95349  22116439.97349
  20988542.867 7    -11909.809 7     -8031.52749  20988542.78149
  20472930.125 6   -105990.535 6    -63721.18048  20472927.62948
  23324838.688 6     -5246.578 6     -3364.52747  23324836.89847
  22683991.547 6     41353.328 6     27405.31349  22683993.25049
  24712182.344 4   -206508.070 4    -96748.11347  24712182.78547
 20  5 16  3 28 28.0000000  0  8G01G04G07G08G11G16G27G30             0.000391880
  22050868.500 6   -210284.363 6   -144477.73049  22050869.91449
  23937668.914 4     34018.926 4     17724.75846  23937669.93846
  22115605.945 6   -185671.875 6   -124169.05549  22115603.36749
  20988483.242 7    -12221.609 7     -8274.49249  20988483.58249
  20472402.578 6   -108760.496 6    -65879.59048  20472400.10248
  23324807.594 6     -5408.723 6     -3490.87947  23324805.62147
  22684175.398 6     42321.305 6     28159.57449  22684176.95349
  24711195.773 5   -211695.066 5   -100789.92247  24711195.84047
 20  5 16  3 28 29.0000000  0  8G01G04G07G08G11G16G27G30             0.000390764
  22049921.531 6   -215263.348 6   -148357.45349  22049922.54749
  23937836.453 5     34900.809 5     18411.91846  23937837.46146
  22114768.633 6   -190069.973 6   -127596.14149  22114766.78949
  20988423.797 7    -12533.488 7     -8517.50849  20988424.50849
  20471875.656 6   -111530.230 6    -68037.82448  20471873.59048
  23324777.133 6     -5571.129 6     -3617.42647  23324774.98847
  22684359.836 6     43288.980 6     28913.60949  22684360.92249
  24710208.727 5   -216882.297 5   -104831.93047  24710208.63347
 20  5 16  3 28 30.0000000  0  8G01G04G07G08G11G16G27G30             0.000389648
  22048973.148 6   -220242.293 6   -152237.15249  22048974.98449
  23938004.258 5     35782.367 5     19098.83246  23938005.54746
  22113931.609 6   -194467.969 6   -131023.15249  22113929.26249
  20988364.477 7    -12845.430 7     -8760.57849  20988364.82849
  20471348.320 6   -114299.707 6    -70195.85548  20471345.98848
  23324746.156 6     -5733.707 6     -3744.11747  23324743.98447
  22684544.039 6     44256.395 6     29667.44549  22684545.55549
  24709221.898 5   -222069.719 5   -108874.08647  24709221.80947
 20  5 16  3 28 31.0000000  0  8G01G04G07G08G11G16G27G30             0.000388531
  22048026.195 6   -225221.117 6   -156116.74649  22048027.49249
  23938171.258 4     36663.680 4     19785.55546  23938173.12946
  22113094.781 6   -198865.813 6   -134450.04349  22113092.64149
  20988305.414 7    -13157.352 7     -9003.63349  20988305.36749
  20470821.930 6   -117068.859 6    -72353.64148  20470819.28148
  23324715.172 6     -5896.426 6     -3870.91047  23324712.75847
  22684728.195 6     45223.637 6     30421.14149  22684728.98849
  24708234.766 5   -227257.313 5   -112916.38347  24708234.83247
 20  5 16  3 28 32.0000000  0  8G01G04G07G08G11G16G27G30             0.000387415
  22047078.656 6   -230199.789 6   -159996.23449  22047080.32049
  23938339.688 4     37544.844 4     20472.18446  23938340.57846
  22112257.906 6   -203263.480 6   -137876.79749  22112255.92649
  20988245.953 7    -13469.219 7     -9246.64149  20988246.24249
  20470294.711 6   -119837.617 6    -74511.11748  20470292.41848
  23324683.992 6     -6059.250 6     -3997.77746  23324682.00446
  22684912.055 6     46190.734 6     31174.72349  22684913.18849
  24707246.281 5   -232444.957 5   -116958.69947  24707247.59847
 20  5 16  3 28 33.0000000  0  8G01G04G07G08G11G16G27G30             0.000386297
  22046131.219 6   -235178.277 6   -163875.56649  22046132.93049
  23938507.734 2     38425.668 2     21158.55546  23938508.50046
  22111421.383 6   -207660.965 6   -141303.41049  22111418.84449
  20988186.414 7    -13780.996 7     -9489.59049  20988186.84049
  20469768.000 6   -122606.016 6    -76668.31348  20469765.57848
  23324652.867 6     -6222.137 6     -4124.69947  23324650.62947
  22685096.125 6     47157.664 6     31928.17649  22685097.25049
  24706259.344 4   -237632.586 4   -121001.00047  24706260.46547
 20  5 16  3 28 34.0000000  0  8G01G04G07G08G11G16G27G30             0.000385181
  22045183.695 6   -240156.625 6   -167754.79749  22045185.35249
  23938674.547 4     39306.406 4     21844.87546  23938676.40246
  22110584.539 6   -212058.215 6   -144729.83649  22110581.71949
  20988127.273 7    -14092.699 7     -9732.48049  20988127.54749
  20469241.219 6   -125373.996 6    -78825.18448  20469238.93848
  23324621.539 6     -6385.070 6     -4251.66046  23324619.93446
  22685280.273 6     48124.508 6     32681.55949  22685281.57849
  24705272.273 3   -242820.316 3   -125043.37147  24705273.08247
 20  5 16  3 28 35.0000000  0  8G01G04G07G08G11G16G27G30             0.000384064
  22044236.648 6   -245134.664 6   -171633.79749  22044238.08649
  23938842.336 3     40186.973 3     22531.03546  23938843.92646
  22109747.852 6   -216455.133 6   -148156.00449  22109745.63749
  20988068.148 7    -14404.227 7     -9975.22349  20988068.52349
  20468714.656 6   -128141.496 6    -80981.67248  20468712.04348
  23324590.563 6     -6547.992 6     -4378.60547  23324588.86747
  22685464.234 6     49091.367 6     33434.94549  22685464.98849
  24704285.039 3   -248007.980 3   -129085.71147  24704285.87547
 20  5 16  3 28 36.0000000  0  8G01G04G07G08G11G16G27G30             0.000382946
  22043288.984 6   -250112.418 6   -175512.55549  22043290.68449
  23939009.313 3     41067.551 3     23217.18446  23939011.25446
  22108910.938 6   -220851.730 6   -151581.92249  22108908.84449
  20988009.031 7    -14715.559 7    -10217.81649  20988009.45349
  20468187.938 6   -130908.449 6    -83137.73848  20468185.76648
  23324559.703 6     -6710.855 6     -4505.50447  23324557.84447
  22685648.727 6     50058.160 6     34188.28549  22685648.59049
  24703298.203 3   -253195.621 3   -133128.00846  24703298.42646
 20  5 16  3 28 37.0000000  0  8G01G04G07G08G11G16G27G30             0.000381830
  22042342.031 6   -255089.824 6   -179391.04749  22042343.69949
  23939177.117 3     41948.063 3     23903.30146  23939178.69946
  22108074.766 6   -225247.953 6   -155007.55949  22108072.27349
  20987949.688 7    -15026.637 7    -10460.21549  20987950.06649
  20467661.766 6   -133674.902 6    -85293.41448  20467659.54748
  23324528.891 6     -6873.613 6     -4632.30947  23324527.06347
  22685832.289 6     51025.004 6     34941.67649  22685832.89149
  24702310.484 3   -258383.074 3   -137170.15246  24702311.67646
 20  5 16  3 28 38.0000000  0  8G01G04G07G08G11G16G27G30             0.000380713
  22041394.984 6   -260066.926 6   -183269.31349  22041396.34049
  23939344.773 3     42828.555 3     24589.39546  23939346.68046
  22107238.047 6   -229643.809 6   -158432.89549  22107235.80149
  20987890.586 7    -15337.516 7    -10702.46549  20987890.79749
  20467135.188 6   -136440.773 6    -87448.64549  20467133.32049
  23324497.664 6     -7036.285 6     -4759.08647  23324495.62947
  22686015.680 6     51991.867 6     35695.07049  22686016.29749
  24701323.859 4   -263570.449 4   -141212.27746  24701324.56646
 20  5 16  3 28 39.0000000  0  8G01G04G07G08G11G16G27G30             0.000379595
  22040447.938 6   -265043.637 6   -187147.26249  22040449.17649
  23939512.961 2     43709.055 2     25275.50846  23939514.13746
  22106401.602 6   -234039.293 6   -161857.94549  22106399.36349
  20987831.336 7    -15648.125 7    -10944.50049  20987832.23449
  20466609.102 6   -139206.102 6    -89603.44549  20466606.89849
  23324466.430 5     -7198.824 5     -4885.73847  23324464.80947
  22686200.094 6     52958.734 6     36448.46949  22686200.15649
  24700336.203 4   -268757.730 4   -145254.31647  24700337.54347
 20  5 16  3 28 40.0000000  0  8G01G04G07G08G11G16G27G30             0.000378479
  22039501.063 6   -270020.023 6   -191024.95749  22039502.87949
  23939680.805 1     44589.500 1     25961.62146  23939681.91846
  22105565.211 6   -238434.398 6   -165282.70349  22105562.68849
  20987772.500 7    -15958.504 7    -11186.35949  20987772.57049
  20466082.898 6   -141970.820 6    -91757.77348  20466080.60548
  23324435.641 6     -7361.309 6     -5012.36347  23324433.73847
  22686383.602 5     53925.695 5     37201.96549  22686385.51649
  24699348.797 4   -273944.910 4   -149296.27347  24699350.20347
 20  5 16  3 28 41.0000000  0  8G01G04G07G08G11G16G27G30             0.000377361
  22038554.070 6   -274995.988 6   -194902.31649  22038555.98849
  23939848.078 2     45469.918 2     26647.64146  23939849.71146
  22104729.430 6   -242829.027 6   -168707.07049  22104726.78149
  20987713.203 7    -16268.500 7    -11427.91849  20987713.41849
  20465556.930 6   -144734.930 6    -93911.61748  20465554.61748
  23324404.594 6     -7523.594 6     -5138.85547  23324402.81647
  22686567.914 6     54892.801 6     37955.55949  22686569.83249
  24698361.836 4   -279131.844 4   -153338.07047  24698362.94547
 20  5 16  3 28 42.0000000  0  8G01G04G07G08G11G16G27G30             0.000376245
  22037607.008 6   -279971.480 6   -198779.32049  22037609.15249
  23940016.422 2     46350.480 2     27333.78146  23940017.47746
  22103892.789 6   -247223.180 6   -172131.06649  22103890.73449
  20987654.609 7    -16578.148 7    -11669.20749  20987654.77049
  20465031.516 6   -147498.363 6    -96064.94948  20465028.73848
  23324373.938 6     -7685.656 6     -5265.16047  23324372.33647
  22686752.297 6     55860.023 6     38709.23449  22686753.46149
  24697374.023 4   -284318.535 4   -157379.65247  24697376.19947
 20  5 16  3 28 43.0000000  0  8G01G04G07G08G11G16G27G30             0.000375128
  22036660.461 5   -284946.563 5   -202656.00049  22036662.51649
  23940183.258 4     47231.113 4     28020.00445  23940184.88345
  22103056.602 6   -251616.844 6   -175554.69149  22103054.58649
  20987595.734 7    -16887.477 7    -11910.23449  20987595.87549
  20464505.563 6   -150261.133 6    -98217.75048  20464502.71548
  23324342.617 6     -7847.586 6     -5391.35247  23324341.38747
  22686936.508 6     56827.313 6     39462.95749  22686937.23449
  24696387.359 4   -289505.125 4   -161421.13347  24696388.60547
 20  5 16  3 28 44.0000000  0  8G01G04G07G08G11G16G27G30             0.000374012
  22035713.836 6   -289921.164 6   -206532.30949  22035715.81649
  23940350.680 4     48111.914 4     28706.27045  23940352.98845
  22102220.578 6   -256009.992 6   -178977.93449  22102218.74249
  20987536.891 7    -17196.410 7    -12150.94949  20987537.14849
  20463979.734 6   -153023.195 6   -100370.00848  20463977.43848
  23324312.109 6     -8009.184 6     -5517.26647  23324310.12547
  22687120.461 6     57794.906 6     40216.93049  22687121.14149
  24695400.422 4   -294691.363 4   -165462.31347  24695402.61347
 20  5 16  3 28 45.0000000  0  8G01G04G07G08G11G16G27G30             0.000372894
  22034767.156 6   -294895.250 6   -210408.21949  22034768.98049
  23940517.734 4     48992.766 4     29392.57445  23940520.53545
  22101384.641 6   -260402.598 6   -182400.75049  22101382.53149
  20987478.266 7    -17504.973 7    -12391.39149  20987478.39849
  20463454.461 6   -155784.578 6   -102521.73848  20463451.71548
  23324281.438 6     -8170.566 6     -5643.01247  23324280.08247
  22687304.664 6     58762.637 6     40971.00049  22687305.13749
  24694413.516 4   -299877.395 4   -169503.36747  24694415.14147
 20  5 16  3 28 46.0000000  0  8G01G04G07G08G11G16G27G30             0.000371778
  22033820.867 5   -299868.836 5   -214283.74249  22033822.87949
  23940686.156 4     49873.789 4     30079.03545  23940688.22345
  22100549.250 6   -264794.676 6   -185823.15249  22100547.07849
  20987419.406 7    -17813.121 7    -12631.50049  20987419.69549
  20462929.156 6   -158545.234 6   -104672.89848  20462926.38348
  23324250.859 5     -8331.707 5     -5768.57047  23324249.37547
  22687488.781 6     59730.523 6     41725.19549  22687488.26249
  24693426.953 4   -305063.145 4   -173544.22347  24693428.80547
 20  5 16  3 28 47.0000000  0  8G01G04G07G08G11G16G27G30             0.000370661
  22032874.484 5   -304841.934 5   -218158.88349  22032876.08249
  23940853.484 5     50754.922 5     30765.61745  23940855.35545
  22099713.367 6   -269186.215 6   -189245.14849  22099710.88349
  20987360.883 7    -18120.879 7    -12871.30149  20987361.29349
  20462404.047 6   -161305.160 6   -106823.49648  20462401.29348
  23324219.953 5     -8492.586 5     -5893.90247  23324218.87547
  22687673.242 6     60698.645 6     42479.59049  22687673.01249
  24692440.945 4   -310248.617 4   -177584.81346  24692441.95346
 20  5 16  3 28 48.0000000  0  8G01G04G07G08G11G16G27G30             0.000369545
  22031928.578 5   -309814.539 5   -222033.63749  22031929.87549
  23941021.359 5     51636.203 5     31452.33245  23941023.34045
  22098877.602 6   -273577.219 6   -192666.71949  22098875.36749
  20987302.484 7    -18428.215 7    -13110.77749  20987302.70749
  20461878.922 6   -164064.383 6   -108973.54348  20461876.02048
  23324189.344 5     -8653.211 5     -6019.05547  23324187.64847
  22687857.594 6     61666.965 6     43234.13749  22687856.90649
  24691453.695 4   -315433.801 4   -181625.17646  24691455.09846
 20  5 16  3 28 49.0000000  0  8G01G04G07G08G11G16G27G30             0.000368429
  22030982.313 5   -314786.613 5   -225907.98048  22030983.59448
  23941188.992 5     52517.656 5     32139.18445  23941191.07845
  22098042.289 6   -277967.641 6   -196087.82849  22098040.02049
  20987244.109 7    -18735.137 7    -13349.93849  20987244.48449
  20461353.789 6   -166822.848 6   -111122.99648  20461351.00048
  23324158.859 5     -8813.523 5     -6143.97346  23324157.40246
  22688041.820 6     62635.523 6     43988.86349  22688041.53549
  24690466.813 3   -320618.676 3   -185665.31646  24690468.44546
 20  5 16  3 28 50.0000000  0  8G01G04G07G08G11G16G27G30             0.000367311
  22030035.805 5   -319758.074 5   -229781.84448  22030037.39548
  23941357.383 5     53399.344 5     32826.25045  23941359.03145
  22097206.758 6   -282357.434 6   -199508.44149  22097204.71549
  20987185.984 7    -19041.551 7    -13588.70749  20987186.05949
  20460829.133 6   -169580.488 6   -113271.80548  20460826.37548
  23324127.992 5     -8973.480 5     -6268.62146  23324127.23046
  22688226.023 6     63604.355 6     44743.79749  22688226.03149
  24689480.539 3   -325803.211 3   -189705.19146  24689481.66046
 20  5 16  3 28 51.0000000  0  8G01G04G07G08G11G16G27G30             0.000366198
  22029089.719 5   -324728.961 5   -233655.25848  22029091.78548
  23941524.594 5     54281.203 5     33513.40645  23941526.50045
  22096371.438 6   -286746.648 6   -202928.60949  22096369.43049
  20987127.578 7    -19347.496 7    -13827.10549  20987127.95349
  20460304.477 6   -172337.391 6   -115420.03948  20460302.00048
  23324098.594 5     -9133.145 5     -6393.03946  23324096.78146
  22688410.422 6     64573.461 6     45498.94149  22688409.78549
  24688494.398 4   -330987.391 4   -193744.79346  24688495.01246
 20  5 16  3 28 52.0000000  0  8G01G04G07G08G11G16G27G30             0.000365082
  22028143.938 5   -329699.277 5   -237528.22748  22028145.59048
  23941693.148 5     55163.270 5     34200.71545  23941694.69545
  22095536.141 6   -291135.211 6   -206348.26649  22095534.33649
  20987069.289 7    -19652.945 7    -14065.11749  20987069.66449
  20459780.180 6   -175093.438 6   -117567.60948  20459777.36348
  23324068.563 5     -9292.445 5     -6517.17246  23324066.05546
  22688594.734 6     65542.840 6     46254.30549  22688593.95349
  24687507.445 3   -336171.219 3   -197784.12946  24687509.02046
 20  5 16  3 28 53.0000000  0  8G01G04G07G08G11G16G27G30             0.000363966
  22027197.883 4   -334669.012 4   -241400.74648  22027199.60248
  23941860.680 4     56045.578 4     34888.22745  23941862.95345
  22094701.406 6   -295523.184 6   -209767.46949  22094699.56349
  20987011.078 7    -19957.930 7    -14302.76249  20987011.31649
  20459255.766 6   -177848.715 6   -119714.57848  20459252.75848
  23324037.750 5     -9451.418 5     -6641.03946  23324035.75046
  22688779.344 6     66512.480 6     47009.86749  22688778.51249
  24686521.375 3   -341354.699 3   -201823.21146  24686522.70746
 20  5 16  3 28 54.0000000  0  8G01G04G07G08G11G16G27G30             0.000362850
  22026251.938 5   -339638.133 5   -245272.78148  22026254.20348
  23942028.289 5     56928.156 5     35575.93045  23942030.86745
  22093866.641 6   -299910.488 6   -213186.14849  22093864.76649
  20986952.945 7    -20262.398 7    -14540.01249  20986953.99649
  20458731.672 6   -180603.148 6   -121860.89148  20458728.52348
  23324007.695 5     -9610.008 5     -6764.62146  23324005.85946
  22688963.805 6     67482.453 6     47765.68449  22688962.93449
  24685534.898 3   -346537.828 3   -205862.02746  24685536.55146
 20  5 16  3 28 55.0000000  0  8G01G04G07G08G11G16G27G30             0.000361734
  22025307.477 5   -344606.676 5   -249144.37948  22025308.90248
  23942196.711 5     57810.887 5     36263.75045  23942198.95745
  22093031.773 6   -304297.172 6   -216604.33649  22093029.68449
  20986895.516 7    -20566.406 7    -14776.90649  20986895.96949
  20458208.039 6   -183356.805 6   -124006.59848  20458204.67248
  23323978.195 6     -9768.254 6     -6887.93046  23323975.88346
  22689148.477 6     68452.707 6     48521.71949  22689147.23849
  24684549.258 4   -351720.586 4   -209900.56346  24684550.31646
 20  5 16  3 28 56.0000000  0  8G01G04G07G08G11G16G27G30             0.000360619
  22024362.547 6   -349574.773 6   -253015.62149  22024363.82049
  23942365.172 3     58693.875 3     36951.81345  23942366.92245
  22092197.664 6   -308683.313 6   -220022.10549  22092194.92649
  20986837.641 7    -20869.969 7    -15013.44949  20986838.05149
  20457684.281 6   -186109.727 6   -126151.73448  20457681.12948
  23323948.078 6     -9926.141 6     -7010.96547  23323946.09447
  22689333.227 6     69423.219 6     49277.94149  22689332.67249
  24683562.508 4   -356903.004 4   -213938.84847  24683564.16847
 20  5 16  3 28 57.0000000  0  8G01G04G07G08G11G16G27G30             0.000359505
  22023417.398 6   -354542.199 6   -256886.36749  22023418.68449
  23942532.844 3     59577.035 3     37640.04345  23942534.65645
  22091362.727 6   -313068.805 6   -223439.37949  22091361.34049
  20986780.164 7    -21173.023 7    -15249.61749  20986780.66049
  20457160.523 6   -188861.785 6   -128296.19948  20457157.51248
  23323918.039 6    -10083.793 6     -7133.82446  23323915.86346
  22689517.063 6     70393.953 6     50034.35249  22689518.04749
  24682576.586 4   -362085.109 4   -217976.88347  24682578.25447
 20  5 16  3 28 58.0000000  0  8G01G04G07G08G11G16G27G30             0.000358389
  22022472.039 6   -359508.938 6   -260756.57449  22022473.72749
  23942700.500 5     60460.453 5     38328.44545  23942702.48445
  22090528.500 6   -317453.617 6   -226856.12549  22090526.49249
  20986722.547 7    -21475.504 7    -15485.32849  20986723.25449
  20456636.492 6   -191613.020 6   -130440.02348  20456633.71548
  23323888.211 5    -10240.973 5     -7256.30147  23323885.67247
  22689702.211 6     71365.063 6     50791.06649  22689702.58649
  24681591.117 3   -367266.762 3   -222014.53947  24681592.07447
 20  5 16  3 28 59.0000000  0  8G01G04G07G08G11G16G27G30             0.000357275
  22021527.344 6   -364475.117 6   -264626.32049  22021528.38749
  23942868.828 5     61344.094 5     39016.97746  23942871.09446
  22089693.938 6   -321837.781 6   -230272.35949  22089692.17249
  20986664.766 7    -21777.531 7    -15720.67249  20986665.37149
  20456112.906 6   -194363.418 6   -132583.19148  20456110.75848
  23323858.563 6    -10397.820 6     -7378.51647  23323856.10947
  22689887.203 6     72336.445 6     51547.98849  22689887.65249
  24680605.070 4   -372448.086 4   -226051.91447  24680606.07847
 20  5 16  3 29  0.0000000  0  8G01G04G07G08G11G16G27G30             0.000356161
  22020581.602 6   -369440.734 6   -268495.63349  22020583.09449
  23943036.641 5     62227.918 5     39705.64546  23943038.95346
  22088860.063 6   -326221.344 6   -233688.12149  22088858.46549
  20986607.703 7    -22079.086 7    -15955.64849  20986608.22349
  20455590.266 6   -197113.055 6   -134725.76248  20455587.53548
  23323828.352 6    -10554.367 6     -7500.50447  23323826.26247
  22690072.258 6     73308.102 6     52305.12149  22690072.75449
  24679618.984 3   -377629.063 3   -230089.03547  24679620.29747
 20  5 16  3 29  1.0000000  0  8G01G04G07G08G11G16G27G30             0.000355045
  22019637.164 6   -374405.703 6   -272364.43449  22019638.47349
  23943205.484 4     63111.984 4     40394.51646  23943207.33646
  22088025.906 6   -330604.262 6   -237103.38749  22088023.78949
  20986550.625 7    -22380.145 7    -16190.23849  20986550.79349
  20455066.375 6   -199861.844 6   -136867.68048  20455064.39548
  23323798.883 6    -10710.520 6     -7622.18047  23323796.37147
  22690257.523 6     74280.063 6     53062.49649  22690257.78149
  24678632.922 3   -382809.660 3   -234125.86347  24678634.46947
 20  5 16  3 29  2.0000000  0  8G01G04G07G08G11G16G27G30             0.000353931
  22018692.211 6   -379369.984 6   -276232.69549  22018694.12949
  23943373.125 4     63996.379 4     41083.64846  23943375.53946
  22087192.367 6   -334986.441 6   -240518.07449  22087189.84449
  20986493.297 7    -22680.629 7    -16424.38349  20986493.62949
  20454544.203 6   -202609.715 6   -139008.87148  20454541.53948
  23323769.336 5    -10866.230 5     -7743.51247  23323766.93047
  22690442.781 6     75252.402 6     53820.16449  22690443.43449
  24677647.391 3   -387989.816 3   -238162.35947  24677648.36347
 20  5 16  3 29  3.0000000  0  8G01G04G07G08G11G16G27G30             0.000352818
  22017747.461 6   -384333.629 6   -280100.46949  22017749.66849
  23943541.594 4     64881.047 4     41772.99646  23943543.87546
  22086358.422 6   -339367.953 6   -243932.23449  22086356.21949
  20986435.891 7    -22980.523 7    -16658.06649  20986436.45349
  20454020.844 6   -205356.738 6   -141149.41048  20454018.36748
  23323739.484 6    -11021.527 6     -7864.52346  23323737.19146
  22690627.883 6     76225.098 6     54578.10549  22690627.99649
  24676661.781 3   -393169.484 3   -242198.46947  24676662.65647
 20  5 16  3 29  4.0000000  0  8G01G04G07G08G11G16G27G30             0.000351704
  22016803.656 6   -389296.656 6   -283967.76249  22016805.32449
  23943710.016 4     65765.965 4     42462.53546  23943712.45746
  22085524.539 6   -343748.816 6   -247345.89149  22085522.44549
  20986378.938 7    -23279.914 7    -16891.35249  20986379.53149
  20453498.578 6   -208102.949 6   -143289.31648  20453496.19148
  23323710.148 6    -11176.484 6     -7985.26247  23323708.19547
  22690813.039 6     77198.102 6     55336.28949  22690812.93049
  24675676.328 4   -398348.809 4   -246234.31347  24675677.29747
 20  5 16  3 29  5.0000000  0  8G01G04G07G08G11G16G27G30             0.000350590
  22015859.227 6   -394259.074 6   -287834.58249  22015860.99649
  23943878.578 5     66651.090 5     43152.24446  23943881.17246
  22084691.125 6   -348129.020 6   -250759.03549  22084688.75849
  20986322.148 7    -23578.832 7    -17124.28149  20986322.48049
  20452976.258 6   -210848.316 6   -145428.56348  20452973.45348
  23323680.844 6    -11331.055 6     -8105.70747  23323678.48447
  22690998.172 6     78171.398 6     56094.69549  22690998.33249
  24674691.320 4   -403527.762 4   -250269.85247  24674691.53547
 20  5 16  3 29  6.0000000  0  8G01G04G07G08G11G16G27G30             0.000349478
  22014914.719 6   -399220.891 6   -291700.93849  22014916.77349
  23944046.891 5     67536.500 5     43842.17646  23944048.95746
  22083857.594 6   -352508.570 6   -254171.67649  22083855.29749
  20986265.359 7    -23877.219 7    -17356.78949  20986265.76249
  20452454.195 6   -213592.859 6   -147567.17248  20452451.64848
  23323651.898 6    -11485.258 6     -8225.85947  23323649.21947
  22691183.398 6     79145.012 6     56853.35549  22691183.28149
  24673705.977 4   -408706.316 4   -254305.09847  24673705.73847
 20  5 16  3 29  7.0000000  0  8G01G04G07G08G11G16G27G30             0.000348364
  22013970.344 6   -404182.027 6   -295566.75849  22013972.60949
  23944215.859 5     68422.227 5     44532.34446  23944218.02346
  22083024.367 6   -356887.410 6   -257583.76249  22083022.07449
  20986208.820 7    -24175.051 7    -17588.86749  20986208.89549
  20451931.727 6   -216336.500 6   -149705.07048  20451929.21948
  23323622.641 6    -11639.043 6     -8345.68847  23323620.03147
  22691368.781 6     80118.973 6     57612.28549  22691368.63349
  24672720.563 4   -413884.441 4   -258340.00847  24672720.55147
 20  5 16  3 29  8.0000000  0  8G01G04G07G08G11G16G27G30             0.000347250
  22013027.109 6   -409142.512 6   -299432.07049  22013029.17649
  23944383.789 4     69308.148 4     45222.67246  23944386.54746
  22082191.289 6   -361265.594 6   -260995.33249  22082188.97749
  20986152.289 7    -24472.344 7    -17820.52349  20986152.48449
  20451409.680 6   -219079.313 6   -151842.33249  20451407.64549
  23323592.945 6    -11792.434 6     -8465.21947  23323590.84447
  22691553.742 6     81093.246 6     58371.46149  22691553.97749
  24671735.313 4   -419062.168 4   -262374.60547  24671735.58647
 20  5 16  3 29  9.0000000  0  8G01G04G07G08G11G16G27G30             0.000346138
  22012083.055 6   -414102.391 6   -303296.91049  22012084.61749
  23944552.867 5     70194.344 5     45913.20746  23944554.68846
  22081358.188 6   -365643.102 6   -264406.37949  22081355.84849
  20986095.789 7    -24769.090 7    -18051.75449  20986096.19149
  20450887.852 6   -221821.238 6   -153978.89848  20450885.46548
  23323563.734 6    -11945.426 6     -8584.42647  23323561.71947
  22691739.453 6     82067.902 6     59130.93049  22691739.30549
  24670749.648 4   -424239.445 4   -266408.85947  24670750.13747
 20  5 16  3 29 10.0000000  0  8G01G04G07G08G11G16G27G30             0.000345026
  22011138.453 6   -419061.559 6   -307161.19549  22011141.51249
  23944721.836 5     71080.879 5     46604.00846  23944723.55546
  22080525.500 6   -370019.906 6   -267816.87949  22080523.00849
  20986039.547 7    -25065.273 7    -18282.54349  20986039.53549
  20450366.570 6   -224562.324 6   -156114.80148  20450364.38348
  23323534.719 6    -12098.004 6     -8703.32047  23323532.78147
  22691925.289 6     83042.859 6     59890.62949  22691924.94549
  24669764.813 4   -429416.320 4   -270442.79747  24669765.00447
 20  5 16  3 29 11.0000000  0  8G01G04G07G08G11G16G27G30             0.000343912
  22010194.984 6   -424020.105 6   -311024.99649  22010197.60249
  23944890.711 4     71967.625 4     47294.98446  23944892.39146
  22079692.891 6   -374396.031 6   -271226.84049  22079690.09049
  20985983.141 7    -25360.914 7    -18512.91849  20985983.33649
  20449844.984 6   -227302.516 6   -158250.02048  20449842.56348
  23323505.734 6    -12250.176 6     -8821.90647  23323503.96947
  22692110.422 6     84018.191 6     60650.63349  22692110.73049
  24668780.336 4   -434592.754 4   -274476.38347  24668780.02347
 20  5 16  3 29 12.0000000  0  8G01G04G07G08G11G16G27G30             0.000342800
  22009251.703 6   -428978.059 6   -314888.34049  22009254.31349
  23945059.016 4     72854.656 4     47986.16846  23945061.34046
  22078859.984 6   -378771.480 6   -274636.27749  22078857.48849
  20985926.953 7    -25656.027 7    -18742.88349  20985927.23049
  20449323.945 6   -230041.887 6   -160384.59049  20449321.41449
  23323476.734 6    -12401.984 6     -8940.20347  23323475.38347
  22692296.180 6     84993.805 6     61410.84849  22692296.08249
  24667795.188 4   -439768.863 4   -278509.72347  24667795.02747
 20  5 16  3 29 13.0000000  0  8G01G04G07G08G11G16G27G30             0.000341688
  22008308.898 6   -433935.262 6   -318751.09449  22008311.48849
  23945228.063 4     73741.996 4     48677.60246  23945230.02046
  22078027.844 6   -383146.207 6   -278045.15249  22078025.31349
  20985870.820 7    -25950.566 7    -18972.39149  20985870.91049
  20448803.016 6   -232780.309 6   -162518.43048  20448800.07448
  23323448.406 6    -12553.316 6     -9058.12947  23323446.35247
  22692482.180 6     85969.844 6     62171.39849  22692482.21949
  24666810.859 4   -444944.445 4   -282542.64547  24666810.04747
 20  5 16  3 29 14.0000000  0  8G01G04G07G08G11G16G27G30             0.000340576
  22007365.289 6   -438891.875 6   -322613.38349  22007367.95349
  23945397.602 4     74629.594 4     49369.21946  23945398.76246
  22077195.445 6   -387520.297 6   -281453.53549  22077193.21149
  20985814.445 7    -26244.605 7    -19201.51649  20985814.74649
  20448282.094 6   -235517.969 6   -164651.66849  20448279.43049
  23323419.773 6    -12704.305 6     -9175.77747  23323417.46547
  22692667.625 6     86946.156 6     62932.15649  22692667.46549
  24665825.570 3   -450119.684 3   -286575.29346  24665825.12146
 20  5 16  3 29 15.0000000  0  8G01G04G07G08G11G16G27G30             0.000339464
  22006422.078 6   -443847.879 6   -326475.19949  22006424.84049
  23945565.883 4     75517.422 4     50061.02746  23945568.04746
  22076362.984 6   -391893.711 6   -284861.39849  22076360.64549
  20985758.711 7    -26538.125 7    -19430.23449  20985759.11749
  20447761.070 6   -238254.746 6   -166784.22349  20447758.49649
  23323390.852 6    -12854.922 6     -9293.13747  23323389.02747
  22692853.555 6     87922.797 6     63693.17249  22692853.19149
  24664841.164 4   -455294.469 4   -290607.59046  24664840.23446
 20  5 16  3 29 16.0000000  0  8G01G04G07G08G11G16G27G30             0.000338352
  22005479.117 6   -448803.176 6   -330336.46949  22005481.52049
  23945734.531 5     76405.535 5     50753.06346  23945736.68846
  22075531.289 6   -396266.410 6   -288268.69949  22075528.63349
  20985702.914 7    -26831.059 7    -19658.49249  20985703.17649
  20447240.328 6   -240990.652 6   -168916.09849  20447237.81349
  23323362.344 6    -13005.082 6     -9410.14847  23323360.37547
  22693039.961 6     88899.805 6     64454.48049  22693038.83649
  24663855.992 3   -460468.816 3   -294639.54746  24663856.11746
 20  5 16  3 29 17.0000000  0  8G01G04G07G08G11G16G27G30             0.000337242
  22004536.398 6   -453757.852 6   -334197.25449  22004539.23049
  23945903.914 4     77293.941 4     51445.32446  23945905.77346
  22074698.602 6   -400638.445 6   -291675.48049  22074696.35549
  20985647.602 7    -27123.484 7    -19886.35549  20985648.03149
  20446719.883 6   -243725.688 6   -171047.29349  20446717.62949
  23323333.547 6    -13154.840 6     -9526.84447  23323331.72747
  22693225.609 6     89877.152 6     65216.04349  22693225.42249
  24662871.344 4   -465642.750 4   -298671.16846  24662871.24246
 20  5 16  3 29 18.0000000  0  8G01G04G07G08G11G16G27G30             0.000336130
  22003593.250 6   -458711.910 6   -338057.55949  22003596.21149
  23946073.266 5     78182.555 5     52137.75846  23946075.79346
  22073867.063 6   -405009.832 6   -295081.76249  22073864.53549
  20985591.961 7    -27415.398 7    -20113.82049  20985592.07049
  20446199.531 6   -246459.910 6   -173177.86349  20446197.20749
  23323305.305 6    -13304.266 6     -9643.28547  23323303.47747
  22693411.813 6     90854.762 6     65977.81349  22693411.65249
  24661886.813 4   -470816.363 4   -302702.53547  24661886.42247
 20  5 16  3 29 19.0000000  0  8G01G04G07G08G11G16G27G30             0.000335020
  22002650.938 6   -463665.398 6   -341917.42249  22002653.79349
  23946241.742 5     79071.371 5     52830.35246  23946244.04346
  22073035.594 6   -409380.613 6   -298487.57049  22073032.99249
  20985536.414 7    -27706.840 7    -20340.91849  20985536.84449
  20445679.484 6   -249193.352 6   -175307.81349  20445677.04749
  23323277.133 6    -13453.336 6     -9759.44547  23323275.57447
  22693597.695 6     91832.664 6     66739.81649  22693597.69949
  24660902.344 4   -475989.578 4   -306733.60247  24660902.55547
 20  5 16  3 29 20.0000000  0  8G01G04G07G08G11G16G27G30             0.000333908
  22001708.539 6   -468618.238 6   -345776.77349  22001711.19149
  23946411.180 4     79960.504 4     53523.17246  23946413.48846
  22072203.953 6   -413750.695 6   -301892.83249  22072201.05149
  20985480.766 7    -27997.703 7    -20567.56649  20985481.24249
  20445159.742 6   -251925.887 6   -177437.06349  20445156.89549
  23323248.719 6    -13601.984 6     -9875.27747  23323247.02047
  22693783.664 6     92810.926 6     67502.10249  22693783.72349
  24659918.195 4   -481162.367 4   -310764.33247  24659917.72347
 20  5 16  3 29 21.0000000  0  8G01G04G07G08G11G16G27G30             0.000332798
  22000766.211 6   -473570.434 6   -349635.62549  22000768.86749
  23946580.320 4     80849.875 4     54216.18046  23946582.45746
  22071372.523 6   -418120.090 6   -305297.55949  22071369.69149
  20985425.875 7    -28288.047 7    -20793.80549  20985426.02349
  20444639.844 6   -254657.586 6   -179565.65648  20444637.32848
  23323220.742 6    -13750.273 6     -9990.82847  23323218.69947
  22693969.938 6     93789.508 6     68264.63349  22693970.39549
  24658933.359 5   -486334.754 5   -314794.76247  24658933.51247
 20  5 16  3 29 22.0000000  0  8G01G04G07G08G11G16G27G30             0.000331688
  21999824.063 6   -478521.941 6   -353493.94149  21999826.59049
  23946749.758 4     81739.516 4     54909.39846  23946751.96546
  22070540.922 6   -422488.816 6   -308701.76249  22070538.39849
  20985370.391 7    -28577.863 7    -21019.64149  20985371.05549
  20444120.023 6   -257388.434 6   -181693.59849  20444117.73049
  23323192.086 6    -13898.148 6    -10106.05547  23323190.58247
  22694156.531 6     94768.422 6     69027.41849  22694156.46549
  24657949.117 4   -491506.723 4   -318824.86747  24657949.30947
 20  5 16  3 29 23.0000000  0  8G01G04G07G08G11G16G27G30             0.000330578
  21998882.484 6   -483472.805 6   -357351.75849  21998884.27349
  23946918.641 5     82629.488 5     55602.89146  23946921.21546
  22069709.641 6   -426856.789 6   -312105.37549  22069707.26649
  20985315.188 7    -28867.059 7    -21244.98849  20985315.46549
  20443600.734 6   -260118.348 6   -183820.80549  20443597.97749
  23323164.156 6    -14045.578 6    -10220.94547  23323162.58647
  22694342.898 6     95747.742 6     69790.52049  22694342.84849
  24656965.219 4   -496678.238 4   -322854.61347  24656965.56647
 20  5 16  3 29 24.0000000  0  8G01G04G07G08G11G16G27G30             0.000329468
  21997940.109 6   -488423.027 6   -361209.07049  21997942.41449
  23947088.734 5     83519.688 5     56296.53546  23947090.63346
  22068878.820 6   -431224.133 6   -315508.49649  22068876.04749
  20985260.383 6    -29155.727 6    -21469.92249  20985261.24649
  20443080.844 6   -262847.445 6   -185947.37149  20443078.57449
  23323136.141 6    -14192.602 6    -10335.50847  23323134.55947
  22694529.148 6     96727.348 6     70553.85249  22694529.10249
  24655981.031 4   -501849.355 4   -326884.05547  24655981.29747
 20  5 16  3 29 25.0000000  0  8G01G04G07G08G11G16G27G30             0.000328358
  21996998.203 6   -493372.684 6   -365065.94949  21997000.27349
  23947258.055 4     84410.090 4     56990.34446  23947260.11346
  22068047.789 6   -435590.848 6   -318911.13349  22068045.18049
  20985205.938 7    -29443.969 7    -21694.52749  20985206.29349
  20442561.992 6   -265575.770 6   -188073.33649  20442559.07449
  23323108.242 6    -14339.352 6    -10449.85247  23323106.57447
  22694715.703 6     97707.223 6     71317.39149  22694715.39149
  24654997.453 4   -507020.160 4   -330913.26247  24654997.71947
 20  5 16  3 29 26.0000000  0  8G01G04G07G08G11G16G27G30             0.000327248
  21996056.188 6   -498321.789 6   -368922.39549  21996058.85249
  23947427.094 5     85300.688 5     57684.32046  23947429.21946
  22067217.031 6   -439956.953 6   -322313.29349  22067214.54349
  20985151.148 6    -29731.734 6    -21918.76249  20985151.28949
  20442043.008 6   -268303.293 6   -190198.67649  20442040.46149
  23323080.367 6    -14485.742 6    -10563.92247  23323078.39147
  22694901.766 6     98687.348 6     72081.12949  22694901.78149
  24654012.984 4   -512190.578 4   -334942.15247  24654013.02747
 20  5 16  3 29 27.0000000  0  8G01G04G07G08G11G16G27G30             0.000326138
  21995114.648 6   -503270.250 6   -372778.33249  21995117.15649
  23947596.953 4     86191.527 4     58378.48046  23947599.17646
  22066386.180 6   -444322.422 6   -325714.96549  22066383.52749
  20985096.359 6    -30018.988 6    -22142.59449  20985096.66449
  20441523.922 6   -271029.988 6   -192323.37549  20441521.24249
  23323052.859 6    -14631.781 6    -10677.71947  23323050.99647
  22695088.531 6     99667.766 6     72845.09049  22695088.66049
  24653029.000 4   -517360.656 4   -338970.78947  24653029.46147
 20  5 16  3 29 28.0000000  0  8G01G04G07G08G11G16G27G30             0.000325027
  21994173.273 6   -508218.109 6   -376633.80949  21994175.49649
  23947766.609 4     87082.578 4     59072.81346  23947768.77746
  22065556.070 6   -448687.262 6   -329116.14549  22065553.07849
  20985041.945 7    -30305.793 7    -22366.07049  20985042.39149
  20441005.133 6   -273755.875 6   -194447.44549  20441002.92649
  23323024.758 6    -14777.453 6    -10791.23047  23323023.09447
  22695275.164 6    100648.508 6     73609.30549  22695275.62149
  24652045.695 4   -522530.328 4   -342999.10547  24652046.00447
 20  5 16  3 29 29.0000000  0  8G01G04G07G08G11G16G27G30             0.000323919
  21993232.523 6   -513165.316 6   -380488.77049  21993234.33649
  23947936.336 4     87973.887 4     59767.32846  23947938.12546
  22064725.336 6   -453051.406 6   -332516.78549  22064722.74649
  20984987.289 6    -30592.039 6    -22589.12149  20984987.87549
  20440486.813 6   -276480.891 6   -196570.83249  20440484.40649
  23322997.922 6    -14922.719 6    -10904.43847  23322995.16047
  22695461.781 6    101629.566 6     74373.75449  22695461.91049
  24651061.758 4   -527699.563 4   -347027.09047  24651062.20747
 20  5 16  3 29 30.0000000  0  8G01G04G07G08G11G16G27G30             0.000322809
  21992291.102 6   -518111.824 6   -384343.18849  21992292.84449
  23948105.797 4     88865.543 4     60462.12146  23948107.85546
  22063894.930 6   -457414.809 6   -335916.83649  22063892.59049
  20984932.891 6    -30877.676 6    -22811.69949  20984933.27049
  20439968.250 6   -279204.992 6   -198693.51249  20439965.66049
  23322969.984 6    -15067.535 6    -11017.28547  23322967.54347
  22695648.734 6    102611.012 6     75138.51649  22695648.82849
  24650078.172 4   -532868.363 4   -351054.71147  24650079.10247
 20  5 16  3 29 31.0000000  0  8G01G04G07G08G11G16G27G30             0.000321701
  21991349.391 6   -523057.703 6   -388197.11749  21991351.67249
  23948275.820 5     89757.477 5     61157.12946  23948277.55146
  22063064.883 6   -461777.551 6   -339316.36749  22063062.29749
  20984878.758 7    -31162.797 7    -23033.87949  20984879.10949
  20439450.141 6   -281928.266 6   -200815.54349  20439447.51249
  23322942.406 6    -15211.969 6    -11129.82847  23322940.31647
  22695835.867 6    103592.820 6     75903.55949  22695835.44549
  24649094.734 4   -538036.738 4   -355082.01247  24649095.01247
 20  5 16  3 29 32.0000000  0  8G01G04G07G08G11G16G27G30             0.000320593
  21990408.594 6   -528002.977 6   -392050.58249  21990410.22749
  23948446.070 4     90649.551 4     61852.25046  23948447.84446
  22062234.750 6   -466139.676 6   -342715.42249  22062232.17649
  20984824.453 7    -31447.449 7    -23255.68449  20984824.80949
  20438931.930 6   -284650.723 6   -202936.93849  20438929.51649
  23322914.633 6    -15356.055 6    -11242.11347  23322912.54747
  22696022.656 6    104574.848 6     76668.77049  22696022.08249
  24648110.750 4   -543204.750 4   -359109.01647  24648111.20347
 20  5 16  3 29 33.0000000  0  8G01G04G07G08G11G16G27G30             0.000319483
  21989467.586 6   -532947.715 6   -395903.62549  21989469.60549
  23948615.336 5     91541.867 5     62547.54746  23948616.96546
  22061404.633 6   -470501.180 6   -346113.98449  22061402.07449
  20984770.281 7    -31731.613 7    -23477.10949  20984770.82049
  20438414.250 6   -287372.383 6   -205057.71949  20438411.41449
  23322887.586 6    -15499.813 6    -11354.12947  23322885.42647
  22696209.383 6    105557.160 6     77434.21149  22696209.46949
  24647127.578 5   -548372.465 5   -363135.78947  24647128.18447
 20  5 16  3 29 34.0000000  0  8G01G04G07G08G11G16G27G30             0.000318375
  21988526.547 6   -537891.770 6   -399756.13349  21988528.85549
  23948785.234 5     92434.426 5     63243.04746  23948786.78546
  22060574.797 6   -474861.992 6   -349512.02349  22060572.03949
  20984716.234 7    -32015.238 7    -23698.11749  20984717.05949
  20437896.313 6   -290093.203 6   -207177.83248  20437893.99248
  23322860.102 6    -15643.164 6    -11465.82447  23322857.87547
  22696396.352 6    106539.816 6     78199.92249  22696396.34449
  24646143.391 4   -553539.707 4   -367162.19947  24646144.41447
 20  5 16  3 29 35.0000000  0  8G01G04G07G08G11G16G27G30             0.000317266
  21987585.961 6   -542835.199 6   -403608.15249  21987588.19149
  23948954.453 5     93327.281 5     63938.78146  23948956.44546
  22059745.203 6   -479222.145 6   -352909.53949  22059742.64849
  20984662.383 7    -32298.316 7    -23918.69549  20984663.23449
  20437378.844 6   -292813.141 6   -209297.26649  20437376.09849
  23322832.602 6    -15786.125 6    -11577.21547  23322830.71147
  22696583.656 6    107522.789 6     78965.87149  22696583.44149
  24645160.695 4   -558706.555 4   -371188.30947  24645161.52347
 20  5 16  3 29 36.0000000  0  8G01G04G07G08G11G16G27G30             0.000316158
  21986645.352 6   -547778.031 6   -407459.71149  21986647.59449
  23949125.109 5     94220.332 5     64634.65646  23949126.81346
  22058915.492 6   -483581.633 6   -356306.54749  22058912.94549
  20984608.711 7    -32580.914 7    -24138.89849  20984609.80549
  20436861.602 6   -295532.293 6   -211416.08249  20436858.66049
  23322805.516 6    -15928.738 6    -11688.34447  23322803.38747
  22696770.539 6    108506.031 6     79732.03149  22696770.98049
  24644177.641 4   -563873.035 4   -375214.13747  24644178.19947
 20  5 16  3 29 37.0000000  0  8G01G04G07G08G11G16G27G30             0.000315050
  21985704.961 6   -552720.180 6   -411310.73449  21985706.81649
  23949294.781 5     95113.664 5     65330.75846  23949296.21546
  22058086.148 6   -487940.430 6   -359703.01249  22058083.78949
  20984555.117 6    -32862.941 6    -24358.66449  20984555.83249
  20436343.836 6   -298250.531 6   -213534.18848  20436341.43448
  23322778.609 6    -16070.934 6    -11799.15247  23322776.46147
  22696957.094 6    109489.656 6     80498.49649  22696957.78549
  24643194.273 4   -569039.113 4   -379239.66047  24643195.03147
 20  5 16  3 29 38.0000000  0  8G01G04G07G08G11G16G27G30             0.000313942
  21984764.516 6   -557661.719 6   -415161.27749  21984766.58249
  23949465.234 4     96007.289 4     66027.08246  23949466.60246
  22057256.383 6   -492298.570 6   -363098.96149  22057254.23449
  20984501.555 7    -33144.449 7    -24578.02349  20984502.38349
  20435826.852 6   -300967.941 6   -215651.65249  20435824.23049
  23322751.453 6    -16212.730 6    -11909.64847  23322749.74647
  22697144.875 6    110473.605 6     81265.20749  22697144.97349
  24642211.219 4   -574204.777 4   -383264.85247  24642212.14847
 20  5 16  3 29 39.0000000  0  8G01G04G07G08G11G16G27G30             0.000312836
  21983824.227 6   -562602.656 6   -419011.35549  21983826.05949
  23949634.688 4     96901.074 4     66723.52746  23949636.93446
  22056427.406 6   -496656.082 6   -366494.41849  22056424.85549
  20984448.109 7    -33425.488 7    -24797.01649  20984448.63749
  20435310.133 6   -303684.543 6   -217768.48049  20435307.35249
  23322725.094 6    -16354.203 6    -12019.89847  23322722.68447
  22697332.234 6    111457.797 6     82032.10249  22697332.62549
  24641228.547 4   -579370.047 4   -387289.73847  24641228.82847
 20  5 16  3 29 40.0000000  0  8G01G04G07G08G11G16G27G30             0.000311728
  21982884.219 6   -567543.000 6   -422860.97749  21982886.23049
  23949805.414 4     97795.102 4     67420.17246  23949806.91046
  22055598.594 6   -501012.961 6   -369889.38749  22055596.16849
  20984395.055 7    -33706.059 7    -25015.64549  20984395.37149
  20434792.914 6   -306400.363 6   -219884.70749  20434790.62949
  23322698.289 6    -16495.309 6    -12129.84847  23322695.32847
  22697519.414 6    112442.293 6     82799.23449  22697519.81649
  24640245.109 3   -584534.957 3   -391314.34447  24640246.25047
 20  5 16  3 29 41.0000000  0  8G01G04G07G08G11G16G27G30             0.000310621
  21981944.422 6   -572482.754 6   -426710.13749  21981946.06349
  23949975.313 4     98689.309 4     68116.94946  23949976.85246
  22054769.281 6   -505369.219 6   -373283.87549  22054766.73849
  20984341.398 7    -33986.141 7    -25233.89149  20984342.23449
  20434276.273 6   -309115.371 6   -222000.30149  20434273.82449
  23322671.133 6    -16636.078 6    -12239.53547  23322669.10947
  22697706.547 6    113427.035 6     83566.56349  22697707.41049
  24639262.344 4   -589699.559 4   -395338.69547  24639263.53547
 20  5 16  3 29 42.0000000  0  8G01G04G07G08G11G16G27G30             0.000309513
  21981004.438 6   -577421.871 6   -430558.80549  21981006.21949
  23950145.898 4     99583.785 4     68813.94146  23950147.18046
  22053940.695 6   -509724.809 6   -376677.84449  22053937.99249
  20984288.336 7    -34265.676 7    -25451.71149  20984289.14549
  20433759.953 6   -311829.535 6   -224115.23049  20433757.84449
  23322644.297 6    -16776.480 6    -12348.94547  23322642.16047
  22697894.203 6    114412.137 6     84334.17249  22697894.56349
  24638280.164 4   -594863.672 4   -399362.67647  24638280.83247
 20  5 16  3 29 43.0000000  0  8G01G04G07G08G11G16G27G30             0.000308407
  21980064.641 6   -582360.375 6   -434406.98449  21980066.41849
  23950315.414 4    100478.512 4     69511.12946  23950317.53146
  22053111.547 6   -514079.730 6   -380071.28949  22053109.55149
  20984235.133 7    -34544.695 7    -25669.12949  20984235.95349
  20433243.758 6   -314542.859 6   -226229.50849  20433241.66849
  23322617.469 6    -16916.504 6    -12458.05147  23322615.27747
  22698081.969 6    115397.527 6     85102.01249  22698082.24249
  24637297.500 4   -600027.441 4   -403386.38747  24637298.14147
 20  5 16  3 29 44.0000000  0  8G01G04G07G08G11G16G27G30             0.000307301
  21979125.133 6   -587298.242 6   -438254.67249  21979126.55149
  23950486.305 4    101373.473 4     70208.49646  23950487.40246
