     2.10           OBSERVATION DATA    GPS(GPS)            RINEX VERSION / TYPE
cnvtToRINEX 3.07.0  convertToRINEX OPR  19-May-20 12:31 UTC PGM / RUN BY / DATE 
----------------------------------------------------------- COMMENT             
98N0                                                        MARKER NAME         
98N0                                                        MARKER NUMBER       
GNSS Observer       Trimble                                 OBSERVER / AGENCY   
0220324777          TRIMBLE 5700        2.32                REC # / TYPE / VERS 
                    TRM39105.00                             ANT # / TYPE        
 -3051170.0073  4927716.1814  2653575.2675                  APPROX POSITION XYZ 
       -0.0460        0.0000        0.0000                  ANTENNA: DELTA H/E/N
     1     1     0                                          WAVELENGTH FACT L1/2
     4    C1    L1    L2    P2                              # / TYPES OF OBSERV 
  2020     5    16     5    15   39.0000000     GPS         TIME OF FIRST OBS   
  2020     5    16     6    21   28.0000000     GPS         TIME OF LAST OBS    
     0                                                      RCV CLOCK OFFS APPL 
    18                                                      LEAP SECONDS        
     9                                                      # OF SATELLITES     
   G01  3950  3950  3950  3950                              PRN / # OF OBS      
   G03  3919  3909  3915  3915                              PRN / # OF OBS      
   G07  3950  3950  3950  3950                              PRN / # OF OBS      
   G08  3950  3950  3950  3950                              PRN / # OF OBS      
   G11  3950  3950  3950  3950                              PRN / # OF OBS      
   G17  3950  3950  3950  3950                              PRN / # OF OBS      
   G22  3950  3950  3950  3950                              PRN / # OF OBS      
   G28  3921  3921  3921  3921                              PRN / # OF OBS      
   G30  3921  3921  3921  3921                              PRN / # OF OBS      
CARRIER PHASE MEASUREMENTS: PHASE SHIFTS REMOVED            COMMENT             
                                                            END OF HEADER       
 20  5 16  5 15 39.0000000  0  6G01G07G08G11G17G22                  -0.000429173
  20001772.80517     -2854.97317     -1570.51659  20001773.60559
  20796797.39116      4255.38316      1686.35259  20796795.00459
  22958272.50015     17222.01615       135.50057  22958272.53157
  21043069.63316     17555.16416      5251.42257  21043065.86357
  23919401.71915    -32245.25415     -1146.98058  23919400.41058
  22484786.33616    -41609.44916    -19789.10557  22484782.73457
 20  5 16  5 15 40.0000000  0  6G01G07G08G11G17G22                  -0.000429686
  20001739.086 7     -3033.363 7     -1709.52049  20001739.82849
  20796863.539 6      4601.727 6      1956.22349  20796860.87149
  22958473.484 5     18277.223 5       957.75447  22958473.32847
  21043297.727 6     18754.641 6      6186.08247  21043294.30947
  23918976.031 5    -34484.285 5     -2891.67648  23918974.50048
  22484350.859 6    -43899.477 6    -21573.54747  22484346.73047
 20  5 16  5 15 41.0000000  0  6G01G07G08G11G17G22                  -0.000430201
  20001704.758 7     -3213.813 7     -1850.13349  20001705.24649
  20796928.742 6      4945.973 6      2224.46549  20796926.10549
  22958673.117 5     19329.715 5      1777.88347  22958673.40647
  21043525.891 6     19951.688 6      7118.84447  21043522.16847
  23918549.266 4    -36725.930 4     -4638.40648  23918547.75448
  22483914.555 6    -46191.793 6    -23359.77347  22483910.68447
 20  5 16  5 15 42.0000000  0  6G01G07G08G11G17G22                  -0.000430717
  20001669.984 7     -3396.039 7     -1992.12149  20001671.08649
  20796994.422 6      5288.387 6      2491.28549  20796991.41049
  22958873.023 5     20379.742 5      2596.08247  22958873.34047
  21043753.109 6     21146.555 6      8049.90648  21043749.48448
  23918122.250 4    -38969.898 4     -6386.94548  23918120.74648
  22483478.195 6    -48486.195 6    -25147.60947  22483474.09847
 20  5 16  5 15 43.0000000  0  6G01G07G08G11G17G22                  -0.000431236
  20001635.133 7     -3580.059 7     -2135.51249  20001635.59849
  20797059.133 6      5628.957 6      2756.66849  20797056.49249
  22959072.875 5     21427.277 5      3412.33647  22959072.68447
  21043980.609 6     22339.258 6      8979.28547  21043976.57447
  23917694.180 5    -41216.160 5     -8137.27348  23917693.39848
  22483040.438 6    -50782.656 6    -26937.05547  22483037.25047
 20  5 16  5 15 44.0000000  0  6G01G07G08G11G17G22                  -0.000431755
  20001599.859 7     -3765.711 7     -2280.18049  20001600.13749
  20797123.227 6      5967.883 6      3020.76649  20797120.82449
  22959271.875 5     22472.488 5      4226.77747  22959271.51247
  21044206.711 6     23529.953 6      9907.09047  21044203.10247
  23917266.828 4    -43464.598 4     -9889.29748  23917265.75848
  22482602.836 6    -53080.953 6    -28727.93447  22482599.92247
 20  5 16  5 15 45.0000000  0  6G01G07G08G11G17G22                  -0.000432278
  20001564.258 7     -3952.816 7     -2425.97349  20001564.47749
  20797187.320 6      6305.305 6      3283.68049  20797185.26649
  22959470.211 5     23515.551 5      5039.54347  22959470.44547
  21044433.344 6     24718.789 6     10833.45747  21044429.41447
  23916838.961 4    -45714.996 4    -11642.85548  23916837.33648
  22482164.500 6    -55381.039 6    -30520.21147  22482162.43847
 20  5 16  5 15 46.0000000  0  6G01G07G08G11G17G22                  -0.000432800
  20001528.414 7     -4141.453 7     -2572.96549  20001528.64149
  20797251.398 6      6641.109 6      3545.34449  20797248.98449
  22959668.211 5     24556.406 5      5850.60247  22959668.48847
  21044658.758 6     25905.727 6     11758.34448  21044655.44148
  23916409.977 4    -47967.465 4    -13398.03148  23916408.65648
  22481727.195 6    -57682.914 6    -32313.88747  22481724.34447
 20  5 16  5 15 47.0000000  0  6G01G07G08G11G17G22                  -0.000433323
  20001492.359 7     -4331.539 7     -2721.08649  20001492.65249
  20797315.039 6      6975.461 6      3805.87549  20797312.72349
  22959865.203 5     25595.121 5      6659.99247  22959866.19547
  21044884.547 6     27090.844 6     12681.81348  21044880.82048
  23915981.133 4    -50221.898 4    -15154.73848  23915979.73048
  22481288.992 6    -59986.496 6    -34108.89147  22481285.76647
 20  5 16  5 15 48.0000000  0  6G01G07G08G11G17G22                  -0.000433849
  20001455.875 7     -4522.859 7     -2870.16849  20001456.35549
  20797378.484 6      7308.535 6      4065.41449  20797375.85949
  22960063.625 5     26631.875 5      7467.85247  22960063.44547
  21045109.586 6     28274.305 6     13603.98848  21045106.04348
  23915551.836 5    -52478.105 5    -16912.82448  23915550.23048
  22480850.352 6    -62291.590 6    -35905.06347  22480847.02047
 20  5 16  5 15 49.0000000  0  6G01G07G08G11G17G22                  -0.000434374
  20001418.953 7     -4715.281 7     -3020.10549  20001419.51249
  20797441.484 6      7640.422 6      4324.02349  20797439.25849
  22960259.930 5     27666.906 5      8274.37147  22960260.15647
  21045334.836 6     29456.285 6     14525.01248  21045330.46548
  23915122.641 5    -54735.926 5    -18672.16448  23915120.18448
  22480411.508 6    -64598.039 6    -37702.29747  22480408.18047
 20  5 16  5 15 50.0000000  0  6G01G07G08G11G17G22                  -0.000434902
  20001382.063 7     -4908.852 7     -3170.93849  20001382.87949
  20797504.672 6      7971.160 6      4581.74649  20797502.18849
  22960456.992 5     28700.043 5      9079.41847  22960457.43047
  21045559.328 6     30636.750 6     15444.85547  21045555.89547
  23914692.609 5    -56995.438 5    -20432.82448  23914690.91448
  22479972.359 6    -66905.891 6    -39500.61747  22479968.91047
 20  5 16  5 15 51.0000000  0  6G01G07G08G11G17G22                  -0.000435431
  20001345.055 7     -5103.359 7     -3322.50449  20001346.09049
  20797567.422 6      8300.922 6      4838.69949  20797564.70349
  22960653.469 5     29731.594 5      9883.21547  22960653.32447
  21045783.773 6     31815.871 6     16363.65248  21045780.09848
  23914262.219 5    -59256.391 5    -22194.60548  23914260.66448
  22479532.727 6    -69214.977 6    -41299.90247  22479529.80547
 20  5 16  5 15 52.0000000  0  6G01G07G08G11G17G22                  -0.000435959
  20001307.891 7     -5298.695 7     -3474.71549  20001308.52349
  20797630.023 6      8629.781 6      5094.95349  20797627.07049
  22960849.961 5     30761.605 5     10685.82447  22960849.48447
  21046007.594 6     32993.797 6     17281.52048  21046004.16448
  23913831.461 5    -61518.762 5    -23957.48448  23913829.44148
  22479093.102 6    -71525.188 6    -43100.06347  22479089.87947
 20  5 16  5 15 53.0000000  0  6G01G07G08G11G17G22                  -0.000436489
  20001270.891 7     -5494.828 7     -3627.54349  20001271.10249
  20797692.273 6      8957.805 6      5350.55149  20797689.81349
  22961044.984 5     31790.129 5     11487.27347  22961045.32447
  21046231.469 6     34170.527 6     18198.44547  21046228.25447
  23913400.953 5    -63782.414 5    -25721.37948  23913399.13748
  22478653.516 6    -73836.402 6    -44901.01247  22478650.16047
 20  5 16  5 15 54.0000000  0  6G01G07G08G11G17G22                  -0.000437021
  20001233.055 7     -5691.566 7     -3780.84849  20001233.84049
  20797754.625 6      9285.160 6      5605.63749  20797751.75449
  22961240.391 5     32817.320 5     12287.68447  22961240.49647
  21046455.289 6     35346.301 6     19114.63748  21046451.91048
  23912969.414 5    -66047.230 5    -27486.16848  23912968.43448
  22478213.836 6    -76148.527 6    -46702.66447  22478210.16447
 20  5 16  5 15 55.0000000  0  6G01G07G08G11G17G22                  -0.000437553
  20001195.680 7     -5888.926 7     -3934.62949  20001195.98449
  20797816.672 6      9611.883 6      5860.23049  20797814.38349
  22961435.391 5     33843.285 5     13087.12947  22961435.45747
  21046678.438 6     36521.051 6     20030.02748  21046674.97748
  23912538.555 5    -68313.152 5    -29251.81648  23912536.81648
  22477773.500 6    -78461.520 6    -48505.00847  22477769.55547
 20  5 16  5 15 56.0000000  0  6G01G07G08G11G17G22                  -0.000438086
  20001157.891 7     -6086.875 7     -4088.88349  20001158.27049
  20797879.164 6      9937.953 6      6114.30949  20797876.27349
  22961630.281 5     34867.902 5     13885.53547  22961631.20747
  21046902.320 6     37694.813 6     20944.64548  21046898.71148
  23912107.016 5    -70580.238 5    -31018.37948  23912105.48048
  22477332.969 6    -80775.387 6    -50308.01647  22477329.85247
 20  5 16  5 15 57.0000000  0  6G01G07G08G11G17G22                  -0.000438618
  20001120.383 7     -6285.309 7     -4243.50049  20001120.62149
  20797940.742 6     10263.520 6      6367.99249  20797938.35949
  22961825.531 5     35891.395 5     14683.07047  22961825.82847
  21047125.039 6     38867.730 6     21858.60248  21047122.25448
  23911675.828 5    -72848.309 5    -32785.70348  23911673.89848
  22476892.719 6    -83090.008 6    -52111.61347  22476889.00447
 20  5 16  5 15 58.0000000  0  6G01G07G08G11G17G22                  -0.000439152
  20001082.352 7     -6484.461 7     -4398.68449  20001082.84849
  20798002.930 6     10588.305 6      6621.07049  20798000.00849
  22962019.594 5     36913.457 5     15479.50047  22962020.27747
  21047348.039 6     40039.539 6     22771.70747  21047344.61347
  23911243.938 5    -75117.613 5    -34553.99248  23911241.99648
  22476451.734 6    -85405.605 6    -53915.96547  22476448.40647
 20  5 16  5 15 59.0000000  0  6G01G07G08G11G17G22                  -0.000439688
  20001044.305 7     -6683.980 7     -4554.15649  20001044.94149
  20798064.281 6     10912.664 6      6873.81649  20798061.84049
  22962214.008 5     37934.480 5     16275.09847  22962214.56347
  21047571.281 6     41210.586 6     23684.19948  21047568.03948
  23910811.383 5    -77387.859 5    -36323.01648  23910809.94548
  22476010.875 6    -87721.836 6    -55720.82847  22476007.53147
 20  5 16  5 16  0.0000000  0  6G01G07G08G11G17G22                  -0.000440224
  20001006.133 7     -6883.891 7     -4709.93049  20001006.65649
  20798125.828 6     11236.629 6      7126.25449  20798123.70349
  22962408.445 5     38954.418 5     17069.84847  22962408.95747
  21047793.711 6     42380.898 6     24596.12948  21047790.47748
  23910379.211 5    -79658.973 5    -38092.71148  23910377.55148
  22475570.180 6    -90038.715 6    -57526.18847  22475567.25847
 20  5 16  5 16  1.0000000  0  6G01G07G08G11G17G22                  -0.000440758
  20000968.094 7     -7083.957 7     -4865.82449  20000968.68049
  20798187.656 6     11560.371 6      7378.52349  20798185.02349
  22962602.242 6     39973.504 6     17863.93847  22962602.51647
  21048016.258 6     43550.645 6     25507.60948  21048013.05548
  23909947.547 5    -81930.789 5    -39862.95748  23909945.49248
  22475129.633 6    -92356.043 6    -59331.89847  22475126.00047
 20  5 16  5 16  2.0000000  0  6G01G07G08G11G17G22                  -0.000441296
  20000930.406 7     -7284.453 7     -5022.05949  20000930.64849
  20798248.859 6     11883.625 6      7630.41049  20798246.23849
  22962795.883 5     40991.445 5     18657.13347  22962796.89847
  21048238.914 6     44719.598 6     26418.48447  21048235.64847
  23909514.875 5    -84203.566 5    -41633.95348  23909513.17648
  22474688.234 6    -94674.059 6    -61138.14147  22474684.42247
 20  5 16  5 16  3.0000000  0  6G01G07G08G11G17G22                  -0.000441833
  20000892.094 7     -7485.160 7     -5178.45749  20000892.42649
  20798310.648 6     12206.645 6      7882.10549  20798308.05949
  22962989.227 5     42008.523 5     19449.64847  22962989.76247
  21048461.406 6     45887.973 6     27328.91048  21048457.78948
  23909082.109 5    -86477.027 5    -43405.48048  23909080.05148
  22474247.141 6    -96992.527 6    -62944.73447  22474243.98447
 20  5 16  5 16  4.0000000  0  6G01G07G08G11G17G22                  -0.000442371
  20000853.805 7     -7686.008 7     -5334.95749  20000854.41049
  20798371.734 6     12529.453 6      8133.64149  20798369.20749
  22963182.602 5     43024.758 5     20241.51647  22963183.50847
  21048683.359 6     47055.785 6     28238.89848  21048680.00448
  23908649.852 5    -88751.223 5    -45177.58248  23908647.32848
  22473805.516 6    -99311.438 6    -64751.68047  22473802.27347
 20  5 16  5 16  5.0000000  0  6G01G07G08G11G17G22                  -0.000442909
  20000815.445 7     -7887.020 7     -5491.59449  20000816.12149
  20798433.281 6     12852.102 6      8385.04749  20798430.52349
  22963376.500 5     44040.137 5     21032.71147  22963376.41847
  21048905.508 6     48223.086 6     29148.48848  21048902.14548
  23908216.453 5    -91026.074 5    -46950.18848  23908214.70748
  22473364.234 6   -101630.758 6    -66558.94147  22473360.93447
 20  5 16  5 16  6.0000000  0  6G01G07G08G11G17G22                  -0.000443447
  20000777.484 7     -8088.090 7     -5648.27749  20000777.34049
  20798495.023 6     13174.590 6      8636.33249  20798492.09049
  22963569.328 5     45054.773 5     21823.33647  22963570.08247
  21049127.953 6     49389.930 6     30057.71148  21049124.14548
  23907783.641 5    -93301.527 5    -48723.27048  23907781.91448
  22472923.102 6   -103950.406 6    -68366.46947  22472919.36747
 20  5 16  5 16  7.0000000  0  6G01G07G08G11G17G22                  -0.000443987
  20000739.094 7     -8289.160 7     -5804.94949  20000739.38749
  20798555.891 6     13497.047 6      8887.60249  20798553.33649
  22963761.641 5     46068.684 5     22613.39147  22963762.75047
  21049349.953 6     50556.352 6     30966.61348  21049346.15648
  23907350.445 5    -95577.527 5    -50496.77748  23907348.76248
  22472481.422 6   -106270.340 6    -70174.20347  22472478.25447
 20  5 16  5 16  8.0000000  0  9G01G03G07G08G11G17G22G28G30         -0.000444527
  20000700.828 7     -8490.320 7     -5961.69949  20000701.57849
  23175372.53915   -129762.74215    -64814.02758  23175374.88758
  20798617.781 6     13819.387 6      9138.77349  20798615.27749
  22963955.000 6     47081.836 6     23402.86747  22963955.47747
  21049571.516 6     51722.352 6     31875.17647  21049568.08647
  23906916.703 5    -97854.086 5    -52270.72348  23906915.18048
  22472040.000 6   -108590.598 6    -71982.19547  22472036.78547
  23519291.78115   -132970.62515    -61475.45356  23519288.23856
  21501572.44516    -63985.40616    -37577.36359  21501571.83659
 20  5 16  5 16  9.0000000  0  9G01G03G07G08G11G17G22G28G30         -0.000445066
  20000662.391 7     -8691.391 7     -6118.37949  20000663.21149
  23174693.648 5   -133329.563 5    -67593.35548  23174695.55948
  20798678.906 6     14141.738 6      9389.95349  20798676.28949
  22964147.711 5     48094.367 5     24191.85547  22964148.01647
  21049793.656 6     52888.047 6     32783.50448  21049789.85948
  23906483.953 5   -100131.141 5    -54045.04748  23906482.16848
  22471598.367 6   -110911.066 6    -73790.35547  22471595.34047
  23518648.227 5   -136350.031 5    -64108.76046  23518645.28946
  21501257.227 6    -65644.156 6    -38869.89549  21501256.88749
 20  5 16  5 16 10.0000000  0  9G01G03G07G08G11G17G22G28G30         -0.000445608
  20000624.148 7     -8892.430 7     -6275.03549  20000624.51249
  23174015.156 5   -136896.824 5    -70373.04748  23174017.38348
  20798740.039 6     14464.145 6      9641.16849  20798737.80549
  22964340.516 5     49106.285 5     24980.35947  22964340.82847
  21050015.211 6     54053.383 6     33691.55548  21050011.79748
  23906050.430 5   -102408.648 5    -55819.72748  23906048.58248
  22471157.148 6   -113231.730 6    -75598.66847  22471153.21147
  23518005.344 5   -139730.094 5    -66742.57046  23518002.46946
  21500940.766 6    -67302.871 6    -40162.39849  21500940.86749
 20  5 16  5 16 11.0000000  0  9G01G03G07G08G11G17G22G28G30         -0.000446148
  20000585.906 7     -9093.473 7     -6431.68849  20000586.53949
  23173336.031 5   -140464.688 5    -73153.20348  23173338.25448
  20798801.578 6     14786.430 6      9892.30549  20798798.85549
  22964532.914 5     50117.465 5     25768.29347  22964533.28147
  21050236.695 6     55218.324 6     34599.29747  21050233.51247
  23905617.273 5   -104686.734 5    -57594.85248  23905615.48448
  22470715.195 6   -115552.660 6    -77407.18447  22470711.66047
  23517362.188 5   -143110.902 5    -69376.96146  23517359.09046
  21500625.414 6    -68961.652 6    -41454.95749  21500625.12949
 20  5 16  5 16 12.0000000  0  9G01G03G07G08G11G17G22G28G30         -0.000446690
  20000547.469 7     -9294.473 7     -6588.31349  20000548.09049
  23172657.172 5   -144033.066 5    -75933.75448  23172658.88348
  20798862.852 6     15108.766 6     10143.46149  20798860.27749
  22964724.828 5     51128.074 5     26555.79347  22964725.32047
  21050458.422 6     56382.984 6     35506.82848  21050455.23848
  23905183.000 5   -106965.258 5    -59370.32448  23905181.55548
  22470273.398 6   -117873.785 6    -79215.85547  22470269.92247
  23516718.641 5   -146492.367 5    -72011.87146  23516715.45346
  21500309.633 6    -70620.387 6    -42747.48049  21500309.30949
 20  5 16  5 16 13.0000000  0  9G01G03G07G08G11G17G22G28G30         -0.000447231
  20000509.391 7     -9495.262 7     -6744.77749  20000509.76649
  23171978.219 5   -147601.797 5    -78714.58648  23171980.31648
  20798924.313 6     15431.270 6     10394.77049  20798921.65249
  22964917.109 5     52138.195 5     27342.90647  22964917.77747
  21050679.898 6     57547.434 6     36414.19548  21050676.96548
  23904749.328 5   -109244.078 5    -61146.03548  23904747.57048
  22469831.828 6   -120194.973 6    -81024.57447  22469828.07847
  23516074.703 5   -149874.348 5    -74647.17646  23516071.86746
  21499993.875 6    -72278.949 6    -44039.86749  21499993.82449
 20  5 16  5 16 14.0000000  0  9G01G03G07G08G11G17G22G28G30         -0.000447773
  20000471.383 7     -9695.785 7     -6901.03149  20000471.84849
  23171298.883 5   -151170.832 5    -81495.64848  23171300.78148
  20798985.781 6     15753.957 6     10646.21149  20798983.14149
  22965109.398 5     53147.875 5     28129.67247  22965110.33647
  21050901.609 6     58711.746 6     37321.45748  21050898.09448
  23904315.805 5   -111523.242 5    -62922.01248  23904314.05548
  22469390.570 6   -122516.180 6    -82833.30547  22469386.55547
  23515431.359 5   -153256.797 5    -77282.85246  23515428.32846
  21499678.539 6    -73937.316 6    -45332.10549  21499678.39149
 20  5 16  5 16 15.0000000  0  9G01G03G07G08G11G17G22G28G30         -0.000448315
  20000433.063 7     -9896.137 7     -7057.14549  20000433.54749
  23170619.375 5   -154740.250 5    -84277.01248  23170621.82048
  20799046.984 6     16076.781 6     10897.76249  20799044.28549
  22965301.273 5     54157.078 5     28916.05947  22965302.05147
  21051123.078 6     59875.895 6     38228.58248  21051119.69148
  23903882.211 5   -113802.688 5    -64698.20348  23903880.34048
  22468948.234 6   -124837.461 6    -84642.09447  22468944.79747
  23514787.984 5   -156639.785 5    -79918.95346  23514784.68446
  21499362.789 6    -75595.484 6    -46624.18049  21499362.67649
 20  5 16  5 16 16.0000000  0  9G01G03G07G08G11G17G22G28G30         -0.000448856
  20000395.063 7    -10096.266 7     -7213.09449  20000395.72349
  23169940.016 5   -158310.027 5    -87058.65248  23169941.82448
  20799108.594 6     16399.801 6     11149.46949  20799105.66449
  22965493.508 5     55165.781 5     29702.05547  22965494.57047
  21051344.664 6     61039.859 6     39135.56348  21051341.02348
  23903448.180 5   -116082.492 5    -66474.67248  23903446.64148
  22468506.539 6   -127158.840 6    -86450.95747  22468503.00447
  23514143.477 5   -160023.281 5    -82555.44146  23514140.68446
  21499047.086 6    -77253.484 6    -47916.12549  21499047.62149
 20  5 16  5 16 17.0000000  0  9G01G03G07G08G11G17G22G28G30         -0.000449398
  20000357.023 7    -10296.324 7     -7368.98449  20000357.41849
  23169261.016 5   -161880.289 5    -89840.67248  23169262.91848
  20799169.922 6     16722.797 6     11401.15649  20799167.35249
  22965685.422 6     56173.836 6     30487.53947  22965685.97347
  21051566.195 6     62203.457 6     40042.25848  21051562.73448
  23903014.352 5   -118362.730 5    -68251.47748  23903012.33648
  22468065.375 6   -129480.383 6    -88259.95347  22468061.34847
  23513499.445 5   -163407.469 5    -85192.46146  23513496.52046
  21498732.375 6    -78911.484 6    -49208.07849  21498731.54749
 20  5 16  5 16 18.0000000  0  9G01G03G07G08G11G17G22G28G30         -0.000449942
  20000318.891 7    -10496.172 7     -7524.70749  20000319.15649
  23168581.352 5   -165450.887 5    -92622.94948  23168583.05148
  20799231.523 6     17045.992 6     11653.00049  20799229.09049
  22965876.656 5     57181.457 5     31272.69947  22965878.12547
  21051787.023 6     63366.918 6     40948.85248  21051783.94548
  23902580.359 5   -120643.285 5    -70028.52348  23902578.51248
  22467622.859 6   -131801.969 6    -90068.97747  22467619.37947
  23512855.563 5   -166792.105 5    -87829.85246  23512852.58246
  21498416.719 6    -80569.258 6    -50499.85549  21498416.21149
 20  5 16  5 16 19.0000000  0  9G01G03G07G08G11G17G22G28G30         -0.000450485
  20000280.945 7    -10695.887 7     -7680.33249  20000281.53549
  23167901.430 5   -169021.895 5    -95405.55148  23167903.75048
  20799293.367 6     17369.258 6     11904.88749  20799290.54749
  22966068.055 5     58188.473 5     32057.37547  22966069.13747
  21052009.367 6     64530.094 6     41855.21947  21052005.85247
  23902146.695 5   -122924.270 5    -71805.91048  23902144.39148
  22467181.469 6   -134123.691 6    -91878.11347  22467177.31647
  23512212.063 5   -170177.359 5    -90467.70746  23512208.39546
  21498101.047 6    -82226.926 6    -51791.55149  21498100.93049
 20  5 16  5 16 20.0000000  0  9G01G03G07G08G11G17G22G28G30         -0.000451029
  20000243.023 7    -10895.520 7     -7835.89149  20000243.46949
  23167221.852 5   -172593.468 5    -98188.59948  23167223.83648
  20799354.672 6     17692.582 6     12156.82849  20799351.91049
  22966259.859 5     59194.863 5     32841.55946  22966261.05546
  21052230.422 6     65692.980 6     42761.35948  21052227.00848
  23901712.523 5   -125205.664 5    -73583.62548  23901709.99648
  22466739.594 6   -136445.613 6    -93687.39547  22466735.65247
  23511567.352 5   -173563.285 5    -93106.09046  23511563.98846
  21497785.664 6    -83884.570 6    -53083.22349  21497785.55949
 20  5 16  5 16 21.0000000  0  9G01G03G07G08G11G17G22G28G30         -0.000451572
  20000205.055 7    -11094.973 7     -7991.30549  20000205.23449
  23166541.859 5   -176165.352 5   -100971.87148  23166544.71148
  20799416.195 6     18015.992 6     12408.84449  20799413.56649
  22966451.344 5     60200.797 5     33625.40646  22966451.80546
  21052451.406 6     66855.648 6     43667.34047  21052448.43447
  23901278.359 5   -127487.453 5    -75361.64848  23901276.14848
  22466297.406 6   -138767.633 6    -95496.76247  22466294.10547
  23510922.938 5   -176949.734 5    -95744.89546  23510919.87546
  21497470.242 6    -85542.063 6    -54374.77349  21497470.02749
 20  5 16  5 16 22.0000000  0  9G01G03G07G08G11G17G22G28G30         -0.000452116
  20000167.180 7    -11294.180 7     -8146.53149  20000167.63749
  23165862.547 5   -179737.527 5   -103755.38348  23165864.45748
  20799477.969 6     18339.668 6     12661.05149  20799475.00849
  22966642.773 5     61206.270 5     34408.88747  22966643.66447
  21052672.656 6     68018.250 6     44573.27047  21052669.31647
  23900843.328 5   -129769.469 5    -77139.83648  23900841.81348
  22465855.531 6   -141089.629 6    -97306.10947  22465851.78147
  23510278.094 5   -180336.668 5    -98384.05146  23510275.01646
  21497155.195 6    -87199.309 6    -55666.13349  21497154.79349
 20  5 16  5 16 23.0000000  0  9G01G03G07G08G11G17G22G28G30         -0.000452660
  20000129.203 7    -11493.148 7     -8301.56649  20000129.25449
  23165182.758 5   -183310.094 5   -106539.19548  23165185.04748
  20799539.539 6     18663.496 6     12913.39149  20799536.28149
  22966834.188 5     62211.313 5     35192.04346  22966834.36746
  21052893.789 6     69180.641 6     45479.03547  21052890.38347
  23900409.938 4   -132051.797 4    -78918.28548  23900407.48448
  22465413.336 6   -143411.676 6    -99115.49247  22465410.00047
  23509633.250 5   -183724.086 5   -101023.59846  23509630.84046
  21496839.625 6    -88856.363 6    -56957.33649  21496839.25049
 20  5 16  5 16 24.0000000  0  9G01G03G07G08G11G17G22G28G30         -0.000453205
  20000091.461 7    -11692.105 7     -8456.59849  20000091.42249
  23164503.383 5   -186883.176 5   -109323.41848  23164504.75848
  20799600.859 6     18987.320 6     13165.71949  20799598.55549
  22967024.727 5     63215.656 5     35974.65246  22967025.21546
  21053115.086 6     70342.664 6     46384.51247  21053111.49647
  23899975.133 5   -134334.652 5    -80697.12948  23899973.39548
  22464971.672 6   -145733.965 6   -100925.05547  22464967.84047
  23508988.914 5   -187112.207 5   -103663.69546  23508985.85946
  21496523.953 6    -90513.449 6    -58248.56649  21496523.86749
 20  5 16  5 16 25.0000000  0  9G01G03G07G08G11G17G22G28G30         -0.000453751
  20000053.680 7    -11890.789 7     -8611.43049  20000053.57449
  23163822.781 5   -190456.543 5   -112107.87548  23163824.68848
  20799662.602 6     19311.367 6     13418.21949  20799660.27349
  22967216.164 5     64219.668 5     36757.00046  22967216.43846
  21053336.352 6     71504.633 6     47289.95747  21053332.18047
  23899540.734 5   -136617.773 5    -82476.18848  23899538.60548
  22464529.859 6   -148056.254 6   -102734.63347  22464526.20747
  23508344.031 5   -190500.758 5   -106304.12546  23508341.16846
  21496208.656 6    -92170.258 6    -59539.58249  21496208.20749
 20  5 16  5 16 26.0000000  0  9G01G03G07G08G11G17G22G28G30         -0.000454296
  20000015.977 7    -12089.070 7     -8765.94549  20000015.93849
  23163142.820 5   -194030.055 5   -114892.41448  23163144.69548
  20799724.320 6     19635.770 6     13670.98449  20799721.56649
  22967407.359 4     65223.336 4     37539.07846  22967407.34046
  21053557.789 5     72666.645 5     48195.42647  21053553.92247
  23899106.648 5   -138900.922 5    -84255.27048  23899104.49248
  22464087.977 6   -150378.422 6   -104544.11747  22464084.35547
  23507699.133 4   -193889.664 4   -108944.80546  23507696.20746
  21495894.016 6    -93826.727 6    -60830.34849  21495893.49249
 20  5 16  5 16 27.0000000  0  9G01G03G07G08G11G17G22G28G30         -0.000454842
  19999978.320 6    -12287.199 6     -8920.34049  19999978.24249
  23162461.875 5   -197603.996 5   -117677.27348  23162464.63348
  20799785.953 6     19960.258 6     13923.82049  20799783.58649
  22967598.281 4     66226.480 4     38320.74646  22967598.68446
  21053778.273 5     73828.383 5     49100.67647  21053774.85247
  23898671.219 5   -141184.535 5    -86034.69948  23898669.61748
  22463646.180 6   -152700.672 6   -106353.66047  22463642.52747
  23507054.555 4   -197279.105 4   -111585.91046  23507051.32046
  21495578.938 6    -95483.082 6    -62121.03549  21495578.27749
 20  5 16  5 16 28.0000000  0  9G01G03G07G08G11G17G22G28G30         -0.000455387
  19999940.500 6    -12485.109 6     -9074.55949  19999940.58249
  23161782.055 5   -201178.277 5   -120462.41048  23161784.57848
  20799847.797 6     20284.922 6     14176.79349  20799845.42649
  22967789.242 4     67229.105 4     39102.01246  22967789.58246
  21053999.219 5     74989.941 5     50005.78546  21053996.22346
  23898237.086 5   -143468.469 5    -87814.38348  23898235.25048
  22463204.469 6   -155023.000 6   -108163.25847  22463200.58247
  23506409.414 3   -200669.113 3   -114227.45346  23506406.15646
  21495263.227 6    -97139.230 6    -63411.55549  21495263.16049
 20  5 16  5 16 29.0000000  0  9G01G03G07G08G11G17G22G28G30         -0.000455933
  19999902.953 6    -12682.793 6     -9228.59449  19999903.01649
  23161102.711 5   -204752.898 5   -123247.81648  23161104.48848
  20799909.234 7     20609.785 7     14429.94149  20799906.95749
  22967980.609 4     68231.273 4     39882.90646  22967980.25846
  21054220.305 5     76151.352 5     50910.77746  21054216.83246
  23897802.000 6   -145752.648 6    -89594.25448  23897800.91048
  22462762.609 6   -157345.328 6   -109972.85547  22462758.75847
  23505763.813 3   -204059.531 3   -116869.34046  23505761.37546
  21494947.781 6    -98795.176 6    -64701.89849  21494947.82049
 20  5 16  5 16 30.0000000  0  9G01G03G07G08G11G17G22G28G30         -0.000456480
  19999865.516 6    -12880.156 6     -9382.38349  19999865.43049
  23160421.555 5   -208327.750 5   -126033.40248  23160424.04348
  20799971.203 6     20934.938 6     14683.30549  20799969.12149
  22968171.750 3     69233.133 3     40663.58646  22968171.02046
  21054441.641 5     77312.730 5     51815.73846  21054437.92646
  23897367.344 6   -148037.070 6    -91374.30948  23897365.96148
  22462319.867 6   -159667.594 6   -111782.40647  22462317.07447
  23505118.742 3   -207450.383 3   -119511.54346  23505116.03146
  21494633.484 6   -100450.816 6    -65992.00449  21494633.20349
 20  5 16  5 16 31.0000000  0  9G01G03G07G08G11G17G22G28G30         -0.000457026
  19999828.039 6    -13077.211 6     -9535.92649  19999827.72349
  23159741.094 5   -211902.816 5   -128819.16448  23159743.50448
  20800033.383 6     21260.332 6     14936.85949  20800030.80149
  22968362.156 3     70234.539 3     41443.89846  22968361.43446
  21054662.117 5     78474.016 5     52720.64146  21054658.83646
  23896932.555 6   -150321.676 6    -93154.51248  23896931.40648
  22461878.141 6   -161989.824 6   -113591.93047  22461874.96547
  23504472.969 3   -210841.652 3   -122154.06646  23504470.43046
  21494317.828 6   -102106.203 6    -67281.91049  21494317.76649
 20  5 16  5 16 32.0000000  0  9G01G03G07G08G11G17G22G28G30         -0.000457573
  19999790.398 7    -13273.887 7     -9689.17649  19999790.30149
  23159061.383 5   -215478.086 5   -131605.09048  23159064.78148
  20800095.320 6     21586.098 6     15190.71449  20800092.99249
  22968552.266 5     71235.547 5     42223.91046  22968552.02046
  21054883.398 6     79635.117 6     53625.39846  21054879.66446
  23896498.320 5   -152606.395 5    -94934.80948  23896496.97748
  22461437.125 6   -164311.977 6   -115401.40247  22461432.72747
  23503828.703 5   -214233.234 5   -124796.84846  23503825.37546
  21494003.438 6   -103761.219 6    -68571.53549  21494003.29749
 20  5 16  5 16 33.0000000  0  9G01G03G07G08G11G17G22G28G30         -0.000458120
  19999753.383 7    -13470.387 7     -9842.28949  19999753.37949
  23158380.211 5   -219053.722 5   -134391.35748  23158383.46548
  20800157.734 6     21911.945 6     15444.62949  20800154.91049
  22968741.508 5     72236.094 5     43003.56646  22968742.36346
  21055104.234 6     80796.207 6     54530.12147  21055100.61747
  23896063.867 5   -154891.559 5    -96715.47748  23896061.62548
  22460994.516 6   -166634.148 6   -117210.91447  22460990.92647
  23503182.609 5   -217625.367 5   -127440.12946  23503179.63746
  21493688.750 6   -105416.070 6    -69861.02349  21493688.28549
 20  5 16  5 16 34.0000000  0  9G01G03G07G08G11G17G22G28G30         -0.000458668
  19999715.758 7    -13666.578 7     -9995.15249  19999715.92649
  23157699.859 5   -222629.680 5   -137177.84048  23157702.37548
  20800219.297 6     22238.086 6     15698.75849  20800217.09849
  22968931.602 6     73236.320 6     43782.96147  22968932.64547
  21055325.250 6     81957.223 6     55434.78548  21055321.61348
  23895628.133 5   -157176.914 5    -98496.28148  23895627.25448
  22460552.523 6   -168956.305 6   -119020.40247  22460549.17647
  23502536.852 5   -221017.938 5   -130083.72746  23502534.12146
  21493373.305 6   -107070.684 6    -71150.32449  21493373.18849
 20  5 16  5 16 35.0000000  0  9G01G03G07G08G11G17G22G28G30         -0.000459213
  19999678.563 7    -13862.590 7    -10147.89149  19999678.52049
  23157019.602 5   -226205.969 5   -139964.56648  23157021.94948
  20800281.438 6     22564.375 6     15953.00849  20800278.85549
  22969122.602 6     74236.047 6     44561.96547  22969122.83247
  21055545.711 6     83118.008 6     56339.28547  21055542.80147
  23895193.477 5   -159462.566 5   -100277.30948  23895192.39848
  22460110.656 6   -171278.527 6   -120829.93447  22460107.18847
  23501891.609 5   -224411.035 5   -132727.72346  23501888.57446
  21493058.195 6   -108725.117 6    -72439.48849  21493058.52749
 20  5 16  5 16 36.0000000  0  9G01G03G07G08G11G17G22G28G30         -0.000459763
  19999641.281 7    -14058.145 7    -10300.27049  19999641.30149
  23156339.023 5   -229782.355 5   -142751.36348  23156341.17248
  20800343.758 6     22891.043 6     16207.55949  20800340.79349
  22969313.102 5     75235.563 5     45340.80146  22969313.44146
  21055767.250 6     84278.844 6     57243.82047  21055763.55947
  23894758.891 5   -161748.344 5   -102058.43448  23894757.30548
  22459669.313 6   -173600.621 6   -122639.35547  22459665.50847
  23501245.172 5   -227804.379 5   -135371.88346  23501242.78146
  21492743.914 6   -110379.141 6    -73728.33649  21492743.52749
 20  5 16  5 16 37.0000000  0  9G01G03G07G08G11G17G22G28G30         -0.000460310
  19999604.047 7    -14253.434 7    -10452.44949  19999604.29349
  23155658.969 5   -233359.008 5   -145538.35248  23155660.42648
  20800405.891 6     23217.945 6     16462.28549  20800403.33249
  22969502.695 6     76234.668 6     46119.31647  22969503.22347
  21055988.039 6     85439.625 6     58148.33248  21055984.60248
  23894323.500 5   -164034.336 5   -103839.73048  23894322.07048
  22459227.125 6   -175922.645 6   -124448.71147  22459223.21547
  23500599.766 5   -231198.207 5   -138016.43446  23500596.88746
  21492429.023 6   -112032.918 6    -75016.99249  21492428.55149
 20  5 16  5 16 38.0000000  0  9G01G03G07G08G11G17G22G28G30         -0.000460857
  19999567.055 7    -14448.430 7    -10604.39849  19999566.94949
  23154978.266 5   -236936.012 5   -148325.62548  23154979.96548
  20800468.164 6     23545.082 6     16717.19549  20800465.44149
  22969692.125 6     77233.285 6     46897.46147  22969692.93047
  21056209.016 6     86600.254 6     59052.72347  21056205.62547
  23893888.438 5   -166320.582 5   -105621.21548  23893887.10948
  22458785.086 6   -178244.676 6   -126258.08247  22458781.19947
  23499953.086 5   -234592.492 5   -140661.30946  23499950.66046
  21492114.672 6   -113686.445 6    -76305.44949  21492114.53149
 20  5 16  5 16 39.0000000  0  9G01G03G07G08G11G17G22G28G30         -0.000461407
  19999530.070 7    -14643.012 7    -10756.02349  19999530.34449
  23154297.172 4   -240513.109 4   -151112.94548  23154299.40648
  20800530.359 6     23872.594 6     16972.39149  20800527.75049
  22969882.375 6     78231.676 6     47675.43447  22969882.93447
  21056429.711 6     87760.934 6     59957.15247  21056426.42647
  23893453.234 5   -168606.938 5   -107402.79748  23893452.16048
  22458343.203 6   -180566.555 6   -128067.34047  22458339.40247
  23499307.805 5   -237987.020 5   -143306.36346  23499304.93446
  21491800.195 6   -115339.594 6    -77593.62949  21491800.28549
 20  5 16  5 16 40.0000000  0  9G01G03G07G08G11G17G22G28G30         -0.000461954
  19999493.258 7    -14837.301 7    -10907.41449  19999493.29749
  23153616.203 4   -244090.469 4   -153900.48848  23153618.52048
  20800593.109 6     24200.379 6     17227.81349  20800590.57449
  22970072.594 6     79229.723 6     48453.12947  22970073.37547
  21056650.352 6     88921.547 6     60861.52348  21056647.08248
  23893018.273 5   -170893.527 5   -109184.54748  23893016.67648
  22457902.180 6   -182888.371 6   -129876.55547  22457897.60947
  23498661.555 5   -241382.016 5   -145951.80946  23498658.68846
  21491485.492 6   -116992.434 6    -78881.55949  21491485.28149
 20  5 16  5 16 41.0000000  0  9G01G03G07G08G11G17G22G28G30         -0.000462503
  19999456.039 7    -15031.352 7    -11058.62549  19999456.20349
  23152935.570 5   -247668.117 5   -156688.26648  23152937.26648
  20800655.141 6     24528.328 6     17483.35549  20800652.59449
  22970262.531 6     80227.273 6     49230.45347  22970263.44947
  21056871.117 6     90082.000 6     61765.77348  21056868.00048
  23892582.930 5   -173180.430 5   -110966.55548  23892581.80948
  22457459.742 6   -185210.207 6   -131685.77047  22457456.27347
  23498015.398 5   -244777.453 5   -148597.60546  23498012.56346
  21491170.922 6   -118645.082 6    -80169.33649  21491170.71549
 20  5 16  5 16 42.0000000  0  9G01G03G07G08G11G17G22G28G30         -0.000463053
  19999419.555 7    -15225.039 7    -11209.55149  19999418.95349
  23152255.102 5   -251246.008 5   -159476.24648  23152256.78148
  20800717.641 6     24856.617 6     17739.16449  20800715.32849
  22970451.773 5     81224.551 5     50007.55547  22970452.85247
  21057091.609 6     91242.430 6     62670.00448  21057088.80948
  23892147.586 5   -175467.461 5   -112748.66848  23892146.42648
  22457017.539 6   -187531.941 6   -133494.91847  22457013.94547
  23497369.125 5   -248173.285 5   -151243.72346  23497366.33646
  21490856.555 6   -120297.387 6    -81456.85249  21490856.18849
 20  5 16  5 16 43.0000000  0  9G01G03G07G08G11G17G22G28G30         -0.000463602
  19999382.398 7    -15418.266 7    -11360.11349  19999382.76249
  23151573.625 5   -254823.993 5   -162264.28848  23151575.93048
  20800780.438 6     25185.297 6     17995.27349  20800777.42249
  22970641.594 5     82221.547 5     50784.43447  22970642.61347
  21057312.672 6     92402.922 6     63574.28548  21057309.49248
  23891712.070 5   -177754.582 5   -114530.83648  23891711.77048
  22456576.039 6   -189853.520 6   -135303.93847  22456572.07847
  23496723.008 5   -251569.375 5   -153890.02746  23496720.31346
  21490542.211 6   -121949.277 6    -82744.03549  21490541.55949
 20  5 16  5 16 44.0000000  0  9G01G03G07G08G11G17G22G28G30         -0.000464149
  19999345.914 7    -15611.047 7    -11510.34049  19999346.04749
  23150892.531 5   -258402.035 5   -165052.37148  23150894.87548
  20800843.109 6     25514.414 6     18251.73849  20800840.25049
  22970831.742 5     83218.332 5     51561.13347  22970832.57447
  21057533.766 6     93563.480 6     64478.61348  21057530.31348
  23891276.859 5   -180041.793 5   -116313.07048  23891276.41448
  22456134.398 6   -192174.891 6   -137112.80147  22456130.41447
  23496076.172 4   -254965.719 4   -156536.51246  23496073.87946
  21490228.047 6   -123600.746 6    -84030.89549  21490228.03149
 20  5 16  5 16 45.0000000  0  9G01G03G07G08G11G17G22G28G30         -0.000464701
  19999308.953 7    -15803.500 7    -11660.30949  19999309.32849
  23150211.500 3   -261980.293 3   -167840.60248  23150214.03948
  20800905.859 6     25843.813 6     18508.41049  20800903.27749
  22971021.156 5     84214.762 5     52337.56347  22971022.06347
  21057754.000 6     94724.027 6     65382.93448  21057751.07048
  23890841.703 5   -182329.137 5   -118095.40648  23890841.34048
  22455692.859 6   -194496.148 6   -138921.57847  22455688.61747
  23495429.773 5   -258362.469 5   -159183.32046  23495427.33246
  21489913.625 6   -125251.871 6    -85317.48849  21489913.91449
 20  5 16  5 16 46.0000000  0  9G01G03G07G08G11G17G22G28G30         -0.000465250
  19999272.586 7    -15995.625 7    -11810.02049  19999272.72349
  23149531.242 4   -265558.895 4   -170629.11748  23149533.30148
  20800968.273 6     26173.469 6     18765.28949  20800966.37549
  22971210.078 5     85210.793 5     53113.68447  22971211.57447
  21057975.289 6     95884.469 6     66287.17248  21057972.15648
  23890406.383 5   -184616.723 5   -119877.93448  23890405.57448
  22455250.289 5   -196817.320 5   -140730.27047  22455247.03947
  23494783.117 4   -261759.578 4   -161830.42646  23494780.87146
  21489599.680 6   -126902.773 6    -86603.89849  21489599.27349
 20  5 16  5 16 47.0000000  0  9G01G03G07G08G11G17G22G28G30         -0.000465799
  19999236.195 7    -16187.277 7    -11959.35949  19999236.50849
  23148850.734 4   -269137.496 4   -173417.62947  23148851.81647
  20801031.031 6     26503.559 6     19022.50449  20801028.79349
  22971400.602 5     86206.625 5     53889.65247  22971400.82447
  21058196.234 6     97045.027 6     67191.50048  21058193.08648
  23889971.195 5   -186904.406 5   -121660.53548  23889970.55948
  22454808.797 6   -199138.410 6   -142538.90647  22454805.28947
  23494137.203 5   -265156.961 5   -164477.74246  23494134.33246
  21489285.727 6   -128553.191 6    -87889.93849  21489285.38749
 20  5 16  5 16 48.0000000  0  9G01G03G07G08G11G17G22G28G30         -0.000466349
  19999199.969 7    -16378.688 7    -12108.50849  19999200.27049
  23148169.422 4   -272716.418 4   -176206.38748  23148170.82848
  20801093.773 6     26833.863 6     19279.87549  20801091.51649
  22971589.516 5     87202.051 5     54665.31347  22971590.09447
  21058416.875 6     98205.418 6     68095.70748  21058413.80948
  23889536.195 5   -189192.316 5   -123443.32848  23889535.07048
  22454367.367 6   -201459.426 6   -144347.48847  22454364.09447
  23493490.492 4   -268554.781 4   -167125.38346  23493487.64846
  21488971.445 6   -130203.402 6    -89175.81349  21488971.57849
 20  5 16  5 16 49.0000000  0  9G01G03G07G08G11G17G22G28G30         -0.000466900
  19999163.422 7    -16569.719 7    -12257.35549  19999163.20349
  23147487.844 4   -276295.531 4   -178995.30148  23147489.70348
  20801157.063 6     27164.480 6     19537.49249  20801154.48449
  22971779.359 5     88197.141 5     55440.70747  22971779.44547
  21058637.742 6     99365.813 6     68999.91048  21058634.45348
  23889100.727 5   -191480.367 5   -125226.23048  23889099.60548
  22453925.898 6   -203780.336 6   -146155.98847  22453921.81647
  23492843.844 5   -271952.996 5   -169773.34446  23492840.96146
  21488657.828 6   -131853.238 6    -90461.41449  21488657.39549
 20  5 16  5 16 50.0000000  0  9G01G03G07G08G11G17G22G28G30         -0.000467449
  19999127.086 7    -16760.500 7    -12406.01249  19999127.12949
  23146807.094 4   -279874.973 4   -181784.46948  23146808.52748
  20801219.750 6     27495.305 6     19795.27349  20801217.13349
  22971968.352 6     89191.793 6     56215.75447  22971968.78947
  21058858.719 6    100526.082 6     69904.01248  21058855.27048
  23888665.328 5   -193768.750 5   -127009.39548  23888664.20748
  22453484.094 6   -206101.277 6   -147964.50847  22453480.10247
  23492197.391 4   -275351.707 4   -172421.67646  23492193.95746
  21488343.734 6   -133502.906 6    -91746.86749  21488343.22749
 20  5 16  5 16 51.0000000  0  9G01G03G07G08G11G17G22G28G30         -0.000468000
  19999090.766 7    -16950.914 7    -12554.38349  19999090.74649
  23146125.391 4   -283454.570 4   -184573.77048  23146127.23448
  20801283.242 6     27826.465 6     20053.32049  20801280.52049
  22972157.602 6     90186.148 6     56990.57447  22972157.51647
  21059079.648 6    101686.344 6     70808.11748  21059076.03548
  23888229.461 5   -196057.250 5   -128792.64548  23888228.91848
  22453042.438 6   -208422.078 6   -149772.92647  22453038.41447
  23491550.898 5   -278750.699 5   -175070.23846  23491547.69546
  21488029.758 6   -135152.188 6    -93032.02349  21488029.43849
 20  5 16  5 16 52.0000000  0  9G01G03G07G08G11G17G22G28G30         -0.000468552
  19999054.477 7    -17140.867 7    -12702.39549  19999054.52349
  23145444.789 4   -287034.270 4   -187363.14148  23145446.39148
  20801345.742 6     28158.031 6     20311.68449  20801343.27049
  22972346.938 6     91180.270 6     57765.21947  22972347.24247
  21059300.688 6    102846.703 6     71712.28948  21059297.72348
  23887794.195 5   -198345.820 5   -130575.94948  23887792.77348
  22452601.250 6   -210742.695 6   -151581.20347  22452597.05947
  23490903.992 5   -282149.957 5   -177719.00046  23490900.70346
  21487715.820 6   -136801.059 6    -94316.85949  21487715.90649
 20  5 16  5 16 53.0000000  0  9G01G03G07G08G11G17G22G28G30         -0.000469101
  19999018.258 7    -17330.434 7    -12850.11349  19999018.52749
  23144763.484 4   -290614.137 4   -190152.64848  23144764.75848
  20801409.125 6     28489.945 6     20570.31349  20801406.71949
  22972535.703 6     92174.059 6     58539.59847  22972536.26647
  21059520.930 6    104007.039 6     72616.44548  21059517.99648
  23887358.492 5   -200634.539 5   -132359.36348  23887357.68848
  22452159.797 5   -213063.160 5   -153389.35947  22452155.34447
  23490256.828 5   -285549.547 5   -180368.05146  23490253.80146
  21487402.656 6   -138449.570 6    -95601.41449  21487402.14849
 20  5 16  5 16 54.0000000  0  9G01G03G07G08G11G17G22G28G30         -0.000469652
  19998982.523 7    -17519.547 7    -12997.48449  19998982.69949
  23144082.273 5   -294194.156 5   -192942.30148  23144083.80148
  20801472.352 6     28822.254 6     20829.25849  20801469.95749
  22972724.781 6     93167.629 6     59313.80147  22972725.30147
  21059741.734 6    105167.430 6     73520.63748  21059738.96148
  23886922.609 5   -202923.320 5   -134142.81648  23886921.94548
  22451718.188 5   -215383.504 5   -155197.41847  22451713.61347
  23489610.008 5   -288949.426 5   -183017.32846  23489606.56646
  21487088.633 6   -140097.633 6    -96885.61349  21487088.17249
 20  5 16  5 16 55.0000000  0  9G01G03G07G08G11G17G22G28G30         -0.000470203
  19998946.656 7    -17708.164 7    -13144.46549  19998946.77349
  23143400.867 5   -297774.191 5   -195731.95748  23143402.66848
  20801535.484 6     29155.023 6     21088.55949  20801533.12949
  22972913.984 6     94161.070 6     60087.90647  22972914.57047
  21059962.664 6    106327.953 6     74424.94148  21059959.66848
  23886487.828 5   -205212.145 5   -135926.30948  23886486.77048
  22451275.773 6   -217703.535 6   -157005.24247  22451272.03147
  23488962.617 5   -292349.531 5   -185666.75446  23488959.45746
  21486775.203 6   -141745.250 6    -98169.46149  21486774.66449
 20  5 16  5 16 56.0000000  0  9G01G03G07G08G11G17G22G28G30         -0.000470755
  19998910.883 7    -17896.234 7    -13291.00849  19998910.86349
  23142719.328 5   -301354.219 5   -198521.59048  23142721.58648
  20801598.914 6     29488.273 6     21348.23049  20801596.92249
  22973102.594 6     95154.309 6     60861.85547  22973103.28547
  21060183.383 6    107488.633 6     75329.37548  21060180.53148
  23886052.227 5   -207500.953 5   -137709.78948  23886050.98848
  22450834.961 6   -220023.336 6   -158812.87947  22450830.74647
  23488315.359 5   -295749.789 5   -188316.31346  23488312.52746
  21486461.656 6   -143392.352 6    -99452.91449  21486461.29349
 20  5 16  5 16 57.0000000  0  9G01G03G07G08G11G17G22G28G30         -0.000471306
  19998875.328 7    -18084.012 7    -13437.32449  19998875.50049
  23142038.305 5   -304934.551 5   -201311.45748  23142040.02348
  20801662.508 6     29821.766 6     21608.09849  20801660.16849
  22973292.305 6     96147.145 6     61635.48447  22973292.81347
  21060404.633 6    108649.230 6     76233.73048  21060401.50048
  23885616.961 5   -209789.996 5   -139493.46548  23885615.72748
  22450393.688 6   -222343.078 6   -160620.46947  22450389.27347
  23487668.156 5   -299150.480 5   -190966.21146  23487665.29746
  21486147.844 6   -145039.172 6   -100736.14849  21486147.66449
 20  5 16  5 16 58.0000000  0  9G01G03G07G08G11G17G22G28G30         -0.000471857
  19998839.484 7    -18271.375 7    -13583.32049  19998839.73049
  23141357.234 5   -308514.977 5   -204101.39548  23141358.39848
  20801726.109 6     30155.676 6     21868.28549  20801723.66449
  22973481.164 6     97139.750 6     62408.94547  22973481.29347
  21060625.195 6    109809.855 6     77138.11348  21060622.40248
  23885180.484 5   -212079.141 5   -141277.21148  23885179.77348
  22449952.445 6   -224662.617 6   -162427.89847  22449947.84447
  23487021.016 5   -302551.465 5   -193616.32846  23487018.06346
  21485835.008 6   -146685.590 6   -102019.07449  21485834.63749
 20  5 16  5 16 59.0000000  0  9G01G03G07G08G11G17G22G28G30         -0.000472408
  19998804.039 7    -18458.375 7    -13729.03949  19998804.00449
  23140675.633 5   -312095.609 5   -206891.48848  23140677.36348
  20801789.781 6     30489.898 6     22128.71949  20801787.53149
  22973669.781 6     98132.027 6     63182.14847  22973670.25447
  21060846.359 6    110970.508 6     78042.51248  21060843.28148
  23884745.758 5   -214368.410 5   -143061.05948  23884744.58648
  22449511.047 6   -226982.059 6   -164235.25847  22449506.40247
  23486373.531 5   -305952.781 5   -196266.69546  23486370.75046
  21485521.617 6   -148331.648 6   -103301.72349  21485521.36749
 20  5 16  5 17  0.0000000  0  9G01G03G07G08G11G17G22G28G30         -0.000472961
  19998768.539 7    -18645.125 7    -13874.55949  19998768.76649
  23139994.133 5   -315676.543 5   -209681.82448  23139995.82048
  20801853.570 6     30824.324 6     22389.30949  20801851.06649
  22973858.672 6     99123.852 6     63955.00047  22973859.14547
  21061066.836 6    112130.984 6     78946.78948  21061064.15648
  23884309.664 5   -216657.961 5   -144845.13348  23884308.74248
  22449069.633 5   -229301.535 5   -166042.62947  22449065.02047
  23485726.398 5   -309354.582 5   -198917.43446  23485723.62946
  21485208.109 6   -149977.543 6   -104584.24649  21485208.24249
 20  5 16  5 17  1.0000000  0  9G01G03G07G08G11G17G22G28G30         -0.000473513
  19998733.047 7    -18831.512 7    -14019.79349  19998733.05549
  23139312.367 4   -319257.668 4   -212472.30748  23139314.46548
  20801917.016 6     31159.023 6     22650.10949  20801914.62949
  22974046.828 6    100115.340 6     64727.58647  22974047.45747
  21061287.547 6    113291.418 6     79851.02048  21061284.97748
  23883873.602 5   -218947.738 5   -146629.38348  23883872.60248
  22448627.719 5   -231620.941 5   -167849.94947  22448623.75847
  23485079.539 5   -312756.719 5   -201568.44146  23485076.07046
  21484895.234 6   -151623.094 6   -105866.49249  21484895.06649
 20  5 16  5 17  2.0000000  0  8G01G07G08G11G17G22G28G30            -0.000474066
  19998697.484 6    -19017.402 6    -14164.64549  19998697.57849
  20801980.617 6     31494.145 6     22911.23449  20801978.47349
  22974235.766 5    101106.633 5     65500.01647  22974236.08647
  21061508.711 6    114451.918 6     80755.29747  21061505.61347
  23883437.758 5   -221237.454 5   -148413.57948  23883436.53148
  22448185.500 3   -233939.813 3   -169656.82446  22448182.72746
  23484431.891 5   -316159.102 5   -204219.68046  23484428.52346
  21484582.266 6   -153268.129 6   -107148.34449  21484582.34449
 20  5 16  5 17  3.0000000  0  8G01G07G08G11G17G22G28G30            -0.000474615
  19998662.484 6    -19202.758 6    -14309.07849  19998661.89549
  20802044.617 6     31829.836 6     23172.81649  20802042.34049
  22974423.930 4    102097.723 4     66272.30946  22974424.96946
  21061729.023 5    115612.621 5     81659.75847  21061726.55147
  23883002.008 5   -223527.281 5   -150197.86348  23883001.18048
  22447745.367 4   -236258.762 4   -171463.83646  22447740.94146
  23483784.258 6   -319561.754 6   -206871.12546  23483781.22346
  21484269.797 6   -154912.730 6   -108429.86349  21484269.15249
 20  5 16  5 17  4.0000000  0  9G01G03G07G08G11G17G22G28G30         -0.000475168
  19998627.492 7    -19387.586 7    -14453.10549  19998626.28149
  23137269.87512                                
  20802108.398 6     32165.973 6     23434.73849  20802106.48449
  22974613.102 4    103088.727 4     67044.53546  22974613.53946
  21061950.375 5    116773.449 5     82564.32846  21061947.42246
  23882566.047 5   -225817.070 5   -151982.12148  23882565.03148
  22447304.766 3   -238577.387 3   -173270.59846  22447299.81646
  23483136.578 6   -322964.535 6   -209522.64146  23483133.41446
  21483956.367 6   -156556.820 6   -109710.97749  21483956.16449
 20  5 16  5 17  5.0000000  0  9G01G03G07G08G11G17G22G28G30         -0.000475721
  19998591.906 7    -19571.938 7    -14596.76249  19998591.24649
  23136588.227 1                                
  20802172.656 6     32502.566 6     23697.01249  20802170.59049
  22974802.289 5    104079.547 5     67816.64546  22974801.89846
  21062171.398 5    117934.418 5     83469.02346  21062168.22746
  23882131.055 5   -228106.848 5   -153766.35948  23882129.57048
  22446863.000 3   -240895.750 3   -175077.12946  22446858.65246
  23482489.359 5   -326367.527 5   -212174.32846  23482486.17646
  21483643.867 6   -158200.430 6   -110991.70349  21483643.37149
 20  5 16  5 17  6.0000000  0  9G01G03G07G08G11G17G22G28G30         -0.000476274
  19998557.117 7    -19755.863 7    -14740.08249  19998556.57449
  23135906.273 1                                
  20802236.563 6     32839.508 6     23959.56349  20802234.29349
  22974989.625 5    105070.031 5     68588.45346  22974991.00446
  21062392.453 6    119095.410 6     84373.68046  21062388.80146
  23881694.258 5   -230396.785 5   -155550.71948  23881693.94948
  22446421.930 3   -243213.941 3   -176883.50046  22446417.46146
  23481841.922 6   -329770.816 6   -214826.24646  23481837.89846
  21483331.172 6   -159843.613 6   -112272.10249  21483330.55949
 20  5 16  5 17  7.0000000  0  9G01G03G07G08G11G17G22G28G30         -0.000476828
  19998522.117 7    -19939.430 7    -14883.12549  19998521.90649
  23135224.094 2   -340736.797 2                
  20802300.938 6     33176.766 6     24222.35949  20802299.11349
  22975177.922 4    106060.215 4     69360.02046  22975178.67646
  21062612.836 5    120256.344 5     85278.31346  21062609.78946
  23881259.445 5   -232686.883 5   -157335.19948  23881257.99248
  22445980.125 3   -245532.066 3   -178689.82846  22445976.36346
  23481194.242 6   -333174.504 6   -217478.47746  23481190.41846
  21483018.953 6   -161486.512 6   -113552.28149  21483017.90249
 20  5 16  5 17  8.0000000  0  9G01G03G07G08G11G17G22G28G30         -0.000477381
  19998487.406 7    -20122.535 7    -15025.79749  19998486.94949
  23134542.203 3   -344318.559 3   -218046.19557  23134543.85257
  20802365.445 6     33514.477 6     24485.51249  20802363.07049
  22975366.609 2    107050.242 2     70131.49646  22975367.66046
  21062834.211 5    121417.410 5     86183.02746  21062831.10546
  23880823.344 5   -234977.016 5   -159119.71148  23880822.10548
  22445539.359 3   -247849.945 3   -180495.97346  22445534.98846
  23480546.289 5   -336578.383 5   -220130.85246  23480542.63746
  21482706.094 6   -163128.945 6   -114832.09849  21482705.78149
 20  5 16  5 17  9.0000000  0  9G01G03G07G08G11G17G22G28G30         -0.000477932
  19998452.305 6    -20305.039 6    -15168.00849  19998452.16849
  23133860.594 2   -347900.188 2   -220837.10247  23133862.10947
  20802429.648 6     33852.730 6     24749.08249  20802427.23849
  22975555.453 2    108040.137 2     70902.90646  22975555.17646
  21063055.414 5    122578.691 5     87087.90646  21063051.74246
  23880388.094 5   -237267.113 5   -160904.21148  23880386.52748
  22445098.664 2   -250167.488 2   -182301.86346  22445094.32046
  23479898.414 6   -339982.441 6   -222783.37146  23479894.75046
  21482393.500 6   -164770.813 6   -116111.47749  21482393.16049
 20  5 16  5 17 10.0000000  0  9G01G03G07G08G11G17G22G28G30         -0.000478485
  19998417.805 6    -20487.223 6    -15309.96149  19998417.54349
  23133178.750 2   -351482.129 2   -223628.24247  23133180.44547
  20802494.438 6     34191.262 6     25012.87549  20802492.08649
  22975744.227 3    109029.633 3     71673.96546  22975743.84046
  21063275.648 5    123739.859 5     87992.70346  21063272.96946
  23879951.961 5   -239557.383 5   -162688.84048  23879950.55548
  22444657.313 2   -252484.949 2   -184107.67646  22444652.91846
  23479250.773 6   -343386.844 6   -225436.16046  23479246.94946
  21482081.063 6   -166412.375 6   -117390.61749  21482080.57049
 20  5 16  5 17 11.0000000  0  9G01G03G07G08G11G17G22G28G30         -0.000479040
  19998383.219 6    -20668.941 6    -15451.57049  19998383.01649
  23132496.750 1   -355064.043 1   -226419.31646  23132498.72746
  20802558.555 6     34530.223 6     25276.99649  20802556.24649
  22975932.188 4    110019.035 4     72444.89146  22975932.61746
  21063497.203 5    124901.156 5     88897.59846  21063493.71946
  23879516.031 5   -241847.699 5   -164473.49648  23879514.73448
  22444216.781 3   -254802.215 3   -185913.33246  22444211.99646
  23478602.789 6   -346791.492 6   -228089.13346  23478599.38746
  21481769.188 6   -168053.484 6   -118669.40649  21481768.46949
 20  5 16  5 17 12.0000000  0  9G01G03G07G08G11G17G22G28G30         -0.000479593
  19998348.664 6    -20850.074 6    -15592.72349  19998348.50049
  23131815.672 1   -358646.141 1   -229210.52046  23131817.16046
  20802622.992 6     34869.699 6     25541.52749  20802621.04749
  22976120.164 5    111008.230 5     73215.60946  22976120.70746
  21063718.250 5    126062.609 5     89802.61746  21063715.28946
  23879080.281 5   -244137.988 5   -166258.13348  23879078.97748
  22443776.055 3   -257119.125 3   -187718.69946  22443771.36746
  23477955.469 6   -350196.305 6   -230742.21946  23477951.39546
  21481456.867 6   -169694.090 6   -119947.80549  21481456.20749
 20  5 16  5 17 13.0000000  0  9G01G03G07G08G11G17G22G28G30         -0.000480146
  19998314.477 6    -21030.914 6    -15733.64149  19998313.96949
  23131133.766 1   -362228.281 1   -232001.76246  23131135.30146
  20802687.547 6     35209.422 6     25806.23849  20802685.89849
  22976307.805 5    111997.039 5     73986.03546  22976308.79346
  21063938.945 5    127224.012 5     90707.60946  21063936.01646
  23878644.328 5   -246428.523 5   -168042.95748  23878642.65248
  22443334.859 3   -259436.023 3   -189524.06346  22443330.02746
  23477306.836 5   -353601.547 5   -233395.65646  23477303.22346
  21481144.664 6   -171334.383 6   -121225.95349  21481144.08249
 20  5 16  5 17 14.0000000  0  9G01G03G07G08G11G17G22G28G30         -0.000480700
  19998280.109 7    -21211.301 7    -15874.20749  19998279.66849
  23130452.516 1   -365810.590 1   -234793.14846  23130453.96146
  20802752.617 6     35549.566 6     26071.28949  20802749.97749
