     2.10           OBSERVATION DATA    GPS(GPS)            RINEX VERSION / TYPE
cnvtToRINEX 3.07.0  convertToRINEX OPR  19-May-20 12:31 UTC PGM / RUN BY / DATE 
----------------------------------------------------------- COMMENT             
GBA0                                                        MARKER NAME         
GBA0                                                        MARKER NUMBER       
GNSS Observer       Trimble                                 OBSERVER / AGENCY   
0220324777          5700                2.32                REC # / TYPE / VERS 
                    TRM39105.00                             ANT # / TYPE        
 -3050493.4177  4927575.7474  2654612.7728                  APPROX POSITION XYZ 
       -0.0460        0.0000        0.0000                  ANTENNA: DELTA H/E/N
     1     1     0                                          WAVELENGTH FACT L1/2
     4    C1    L1    L2    P2                              # / TYPES OF OBSERV 
  2020     5    16     3    20   20.0000000     GPS         TIME OF FIRST OBS   
  2020     5    16     5     1    0.0000000     GPS         TIME OF LAST OBS    
     0                                                      RCV CLOCK OFFS APPL 
    18                                                      LEAP SECONDS        
    12                                                      # OF SATELLITES     
   G01  6041  6041  6041  6041                              PRN / # OF OBS      
   G03  1193  1182  1193  1193                              PRN / # OF OBS      
   G04  1628  1628  1623  1623                              PRN / # OF OBS      
   G07  6017  6017  6017  6017                              PRN / # OF OBS      
   G08  5981  5927  5956  5956                              PRN / # OF OBS      
   G09  2951  2951  2946  2946                              PRN / # OF OBS      
   G11  6041  6041  6041  6041                              PRN / # OF OBS      
   G17   233   233   233   233                              PRN / # OF OBS      
   G22  3791  3770  3728  3728                              PRN / # OF OBS      
   G27  1315  1295  1315  1315                              PRN / # OF OBS      
   G28  1038  1038   972   972                              PRN / # OF OBS      
   G30  5057  5014  5039  5039                              PRN / # OF OBS      
CARRIER PHASE MEASUREMENTS: PHASE SHIFTS REMOVED            COMMENT             
                                                            END OF HEADER       
 20  5 16  3 20 20.0000000  0  6G01G04G08G09G11G27                  -0.000132471
  22200211.39816    -65284.22316    -15079.50459  22200213.14859
  23535130.51614      4848.83214                
  20702819.63316      2875.28916      1036.18059  20702819.15659
  23320707.06315      1742.11315                
  20421838.18816    -25917.16816     -7913.52358  20421834.66458
  22275136.26616     20484.08216      5714.75459  22275135.75459
 20  5 16  3 20 21.0000000  0  6G01G04G08G09G11G27                  -0.000133125
  22199372.898 6    -69690.332 6    -18512.85249  22199375.36749
  23535436.992 4      6455.230 4                
  20702873.898 6      3159.813 6      1257.87549  20702873.43449
  23320828.625 5      2381.215 5                
  20421397.570 6    -28232.559 6     -9717.70348  20421394.10248
  22275452.758 6     22149.031 6      7012.10249  22275452.93849
 20  5 16  3 20 22.0000000  0  6G01G04G08G09G11G27                  -0.000133783
  22198533.859 6    -74100.125 6    -21949.06649  22198536.15249
  23535741.828 4      8057.707 4                
  20702927.297 6      3440.652 6      1476.70749  20702926.98449
  23320950.023 5      3016.625 5                
  20420956.414 6    -30551.340 6    -11524.53148  20420952.79748
  22275769.320 6     23810.074 6      8306.39849  22275769.21149
 20  5 16  3 20 23.0000000  0  6G01G04G08G09G11G27                  -0.000134439
  22197693.820 6    -78513.512 6    -25388.07449  22197696.55149
  23536046.391 4      9656.348 4                
  20702980.336 7      3717.887 7      1692.73449  20702979.46949
  23321070.047 5      3648.438 5                
  20420514.648 6    -32873.484 6    -13333.98848  20420510.99248
  22276084.531 6     25467.297 6      9597.74249  22276083.98849
 20  5 16  3 20 24.0000000  0  6G01G04G08G09G11G27                  -0.000135103
  22196853.250 6    -82930.414 6    -28829.81649  22196855.94949
  23536349.195 4     11251.281 4                
  20703032.258 7      3991.672 7      1906.07449  20703031.94149
  23321189.406 5      4276.821 5                
  20420071.961 6    -35198.828 6    -15145.94548  20420068.71148
  22276399.297 6     27120.887 6     10886.25049  22276398.61349
 20  5 16  3 20 25.0000000  0  6G01G04G08G09G11G27                  -0.000135767
  22196012.117 6    -87350.551 6    -32274.07049  22196014.85549
  23536652.336 4     12842.602 4       245.18056  23536652.31356
  20703083.961 6      4262.164 6      2116.84849  20703082.95749
  23321308.516 5      4901.871 5        12.85558  23321308.52358
  20419629.000 6    -37527.215 6    -16960.27748  20419625.78548
  22276713.016 6     28770.922 6     12171.99649  22276712.76649
 20  5 16  3 20 26.0000000  0  6G01G04G08G09G11G27                  -0.000136435
  22195170.344 6    -91773.965 6    -35720.88349  22195172.80949
  23536954.375 4     14430.465 4      1482.48046  23536954.45746
  20703134.422 6      4529.422 6      2325.09849  20703133.83649
  23321427.563 5      5523.699 5       497.38748  23321427.25848
  20419185.320 6    -39858.543 6    -18776.90248  20419182.05148
  22277026.367 6     30417.535 6     13455.07449  22277025.79749
 20  5 16  3 20 27.0000000  0  6G01G04G08G09G11G27                  -0.000137102
  22194328.086 6    -96200.457 6    -39170.09449  22194330.66849
  23537256.109 4     16014.945 4      2717.10246  23537255.73446
  20703184.641 7      4793.559 7      2530.91849  20703183.81649
  23321544.117 4      6142.461 4       979.53548  23321545.14848
  20418741.039 6    -42192.738 6    -20595.76648  20418737.79348
  22277339.359 6     32060.836 6     14735.56649  22277338.46549
 20  5 16  3 20 28.0000000  0  6G01G04G08G09G11G27                  -0.000137774
  22193484.578 6   -100629.791 6    -42621.52349  22193488.06349
  23537557.078 4     17596.383 4      3949.36346  23537557.09046
  20703234.367 6      5054.887 6      2734.55949  20703234.07449
  23321661.727 5      6758.414 5      1459.49248  23321662.03148
  20418296.234 6    -44529.453 6    -22416.57848  20418293.14548
  22277651.625 6     33701.109 6     16013.69949  22277650.95749
 20  5 16  3 20 29.0000000  0  6G01G04G08G09G11G27                  -0.000138445
  22192641.797 6   -105061.777 6    -46075.02349  22192644.73449
  23537857.539 4     19174.840 4      5179.33646  23537856.95346
  20703283.305 6      5313.500 6      2936.07049  20703283.21549
  23321778.414 5      7371.664 5      1937.34848  23321779.20748
  20417851.430 6    -46868.621 6    -24239.30948  20417847.96548
  22277962.852 6     35338.477 6     17289.57049  22277962.45749
 20  5 16  3 20 30.0000000  0  6G01G04G08G09G11G27                  -0.000139120
  22191797.648 6   -109496.461 6    -49530.61749  22191800.37549
  23538157.719 4     20750.395 4      6407.03946  23538156.88346
  20703332.180 6      5569.465 6      3135.53149  20703331.88349
  23321895.008 5      7982.250 5      2413.13348  23321895.53548
  20417405.664 6    -49210.191 6    -26063.91048  20417402.14148
  22278274.398 6     36972.973 6     18563.19949  22278273.84049
 20  5 16  3 20 31.0000000  0  6G01G04G08G09G11G27                  -0.000139795
  22190953.742 6   -113933.563 6    -52988.09849  22190955.75449
  23538456.602 4     22323.238 4      7632.64146  23538456.50846
  20703380.375 6      5823.004 6      3333.09449  20703379.99649
  23322010.836 5      8590.384 5      2887.00448  23322010.91448
  20416959.680 6    -51553.910 6    -27890.18848  20416956.10548
  22278584.656 6     38604.832 6     19834.77749  22278584.09849
 20  5 16  3 20 32.0000000  0  6G01G04G08G09G11G27                  -0.000140474
  22190109.141 6   -118373.035 6    -56447.42649  22190111.16449
  23538755.883 5     23893.473 5      8856.19946  23538755.27046
  20703428.313 6      6074.176 6      3528.81349  20703427.78549
  23322126.070 5      9196.238 5      3359.08248  23322126.60548
  20416513.164 6    -53899.750 6    -29718.10548  20416509.97348
  22278894.195 6     40234.102 6     21104.33649  22278893.87549
 20  5 16  3 20 33.0000000  0  6G01G04G08G09G11G27                  -0.000141153
  22189263.742 5   -122814.730 5    -59908.48849  22189265.97349
  23539053.852 4     25461.238 4     10077.82446  23539053.66046
  20703475.500 6      6323.121 6      3722.79749  20703475.14149
  23322240.984 5      9799.809 5      3829.39548  23322241.37948
  20416066.828 6    -56247.527 6    -31547.53948  20416062.80948
  22279204.023 6     41860.934 6     22371.99649  22279203.65649
 20  5 16  3 20 34.0000000  0  6G01G04G08G09G11G27                  -0.000141836
  22188418.352 5   -127258.457 5    -63371.13349  22188420.21149
  23539351.844 4     27026.676 4     11297.63746  23539351.47346
  20703522.656 6      6570.031 6      3915.19149  20703522.44949
  23322355.391 5     10401.375 5      4298.14548  23322354.98048
  20415619.297 6    -58597.074 6    -33378.35948  20415615.77048
  22279512.984 6     43485.559 6     23637.94149  22279512.65249
 20  5 16  3 20 35.0000000  0  6G01G04G08G09G11G27                  -0.000142517
  22187572.461 5   -131704.082 5    -66835.25449  22187574.54349
  23539649.039 4     28590.016 4     12515.82846  23539648.93446
  20703569.328 6      6815.051 6      4106.10949  20703568.66049
  23322469.523 5     11001.082 5      4765.44948  23322469.45348
  20415171.883 6    -60948.258 6    -35210.44548  20415168.54348
  22279821.602 6     45108.078 6     24902.24249  22279821.82849
 20  5 16  3 20 36.0000000  0  6G01G04G08G09G11G27                  -0.000143202
  22186725.969 5   -136151.402 5    -70300.70349  22186728.45349
  23539946.086 4     30151.383 4     13732.47746  23539945.99646
  20703615.820 6      7058.332 6      4295.68049  20703614.78149
  23322583.211 5     11599.059 5      5231.40648  23322583.27048
  20414724.117 6    -63300.914 6    -37043.68448  20414720.69548
  22280130.305 6     46728.641 6     26165.02049  22280129.97749
 20  5 16  3 20 37.0000000  0  6G01G04G08G09G11G27                  -0.000143887
  22185879.141 5   -140600.484 5    -73767.51649  22185881.37549
  23540243.094 4     31710.691 4     14947.53546  23540242.55946
  20703661.773 6      7299.879 6      4483.89549  20703661.22349
  23322697.172 5     12195.277 5      5695.99648  23322696.55548
  20414276.086 6    -65655.055 6    -38878.08648  20414272.64148
  22280438.281 6     48347.258 6     27426.27349  22280438.08649
 20  5 16  3 20 38.0000000  0  6G01G04G08G09G11G27                  -0.000144573
  22185032.164 6   -145051.223 6    -77235.62149  22185034.29749
  23540539.695 4     33268.105 4     16161.10246  23540539.06346
  20703707.352 6      7539.758 6      4670.81649  20703706.57049
  23322809.586 5     12789.844 5      6159.29348  23322809.74248
  20413827.969 6    -68010.566 6    -40713.54748  20413824.96148
  22280746.180 6     49964.004 6     28686.07449  22280745.94149
 20  5 16  3 20 39.0000000  0  6G01G04G08G09G11G27                  -0.000145260
  22184184.719 6   -149503.445 6    -80704.88349  22184187.02049
  23540835.375 5     34823.777 5     17373.32046  23540835.17246
  20703752.734 6      7778.145 6      4856.57049  20703752.30149
  23322922.445 5     13382.973 5      6621.46948  23322922.87948
  20413379.273 6    -70367.313 6    -42549.96948  20413376.08248
  22281053.531 6     51579.074 6     29944.56649  22281052.75849
 20  5 16  3 20 40.0000000  0  6G01G04G08G09G11G27                  -0.000145948
  22183337.531 5   -153956.969 5    -84175.16449  22183339.68849
  23541131.406 5     36377.887 5     18584.30546  23541130.69146
  20703797.867 7      8015.219 7      5041.30149  20703797.34849
  23323034.953 5     13974.738 5      7082.57848  23323035.66048
  20412931.148 6    -72725.121 6    -44387.22748  20412927.36348
  22281360.531 6     53192.590 6     31201.85549  22281360.08249
 20  5 16  3 20 41.0000000  0  6G01G04G08G09G11G27                  -0.000146637
  22182489.328 5   -158411.926 5    -87646.56649  22182491.98049
  23541427.109 5     37930.324 5     19793.98046  23541426.43846
  20703843.031 7      8250.922 7      5224.96949  20703842.08249
  23323147.664 5     14565.160 5      7542.64148  23323148.52048
  20412482.398 6    -75084.008 6    -46225.31648  20412478.82848
  22281667.070 6     54804.527 6     32457.91049  22281666.91449
 20  5 16  3 20 42.0000000  0  6G01G04G08G09G11G27                  -0.000147329
  22181641.430 5   -162868.145 5    -91118.95349  22181643.82049
  23541721.367 4     39481.215 4     21002.46546  23541721.81646
  20703887.563 7      8485.301 7      5407.60549  20703886.94549
  23323259.180 5     15154.254 5      8001.68048  23323260.41448
  20412032.977 6    -77443.965 6    -48064.24248  20412029.69948
  22281973.625 6     56414.953 6     33712.78949  22281973.48849
 20  5 16  3 20 43.0000000  0  6G01G04G08G09G11G27                  -0.000148020
  22180792.836 5   -167325.531 5    -94592.24249  22180795.17649
  23542016.383 4     41030.688 4     22209.85246  23542016.66446
  20703932.063 7      8718.512 7      5589.32449  20703931.55549
  23323371.523 5     15742.230 5      8459.84048  23323372.24648
  20411583.805 6    -79804.828 6    -49903.87148  20411580.53548
  22282279.578 6     58024.000 6     34966.59049  22282279.30149
 20  5 16  3 20 44.0000000  0  7G01G04G07G08G09G11G27               -0.000148712
  22179944.406 5   -171784.035 5    -98066.39849  22179946.76649
  23542311.297 5     42578.813 5     23416.18046  23542311.02346
  22193885.49216   -143825.94116    -88570.27758  22193882.21558
  20703975.984 7      8950.625 7      5770.19149  20703975.61349
  23323483.164 5     16329.090 5      8917.13348  23323483.83648
  20411134.172 6    -82166.516 6    -51744.15248  20411130.88348
  22282585.547 6     59631.715 6     36219.35249  22282585.40649
 20  5 16  3 20 45.0000000  0  7G01G04G07G08G09G11G27               -0.000149406
  22179096.648 5   -176243.496 5   -101541.30949  22179098.42249
  23542605.570 5     44125.688 5     24621.53546  23542605.49246
  22193144.203 6   -147723.313 6    -91607.18048  22193140.75448
  20704019.703 7      9181.742 7      5950.27749  20704019.48049
  23323595.180 5     16914.957 5      9373.64848  23323595.37948
  20410684.813 6    -84528.895 6    -53584.96948  20410681.25448
  22282891.266 6     61238.293 6     37471.22749  22282891.04349
 20  5 16  3 20 46.0000000  0  7G01G04G07G08G09G11G27               -0.000150099
  22178247.617 5   -180703.855 5   -105016.91049  22178249.60549
  23542899.609 5     45671.379 5     25825.96146  23542899.64146
  22192402.164 5   -151621.594 5    -94644.80148  22192399.27348
  20704063.641 7      9411.918 7      6129.63349  20704062.70349
  23323706.070 5     17499.918 5      9829.46148  23323706.65648
  20410235.117 6    -86891.961 6    -55426.31648  20410231.43848
  22283196.688 6     62843.711 6     38722.20749  22283196.22349
 20  5 16  3 20 47.0000000  0  7G01G04G07G08G09G11G27               -0.000150793
  22177398.883 5   -185165.211 5   -108493.29349  22177400.64149
  23543193.883 4     47215.863 4     27029.45746  23543193.45346
  22191660.078 6   -155520.762 6    -97683.11348  22191657.07448
  20704107.281 7      9641.156 7      6308.26249  20704106.98849
  23323817.172 5     18083.934 5     10284.53148  23323817.65248
  20409785.242 6    -89255.688 6    -57268.18448  20409781.53548
  22283502.039 6     64447.949 6     39972.25849  22283501.55949
 20  5 16  3 20 48.0000000  0  7G01G04G07G08G09G11G27               -0.000151489
  22176549.352 5   -189627.426 5   -111970.34849  22176551.41449
  23543487.063 4     48759.199 4     28232.03946  23543487.11746
  22190918.547 6   -159420.781 6   -100722.09448  22190915.07448
  20704150.820 6      9869.520 6      6486.20749  20704150.46149
  23323928.086 5     18667.074 5     10738.92648  23323928.59048
  20409335.453 6    -91620.051 6    -59110.54348  20409331.95748
  22283806.523 6     66051.105 6     41221.47349  22283806.97749
 20  5 16  3 20 49.0000000  0  7G01G04G07G08G09G11G27               -0.000152185
  22175700.375 5   -194090.539 5   -115448.09449  22175701.90249
  23543780.836 5     50301.383 5     29433.75046  23543780.64146
  22190175.828 6   -163321.641 6   -103761.73048  22190172.78548
  20704194.094 7     10097.008 7      6663.47349  20704193.27349
  23324039.484 5     19249.336 5     11192.63348  23324039.71148
  20408884.750 6    -93985.031 6    -60953.38748  20408881.90648
  22284112.234 6     67653.137 6     42469.80949  22284111.66449
 20  5 16  3 20 50.0000000  0  7G01G04G07G08G09G11G27               -0.000152882
  22174851.305 5   -198554.289 5   -118926.32449  22174852.67649
  23544074.578 4     51842.637 4     30634.72746  23544074.21146
  22189433.500 5   -167223.113 5   -106801.84048  22189430.30948
  20704237.359 7     10323.801 7      6840.19149  20704236.61749
  23324149.930 5     19830.922 5     11645.81348  23324150.48848
  20408434.961 6    -96350.430 6    -62796.55148  20408431.77748
  22284417.117 6     69254.316 6     43717.48449  22284416.48049
 20  5 16  3 20 51.0000000  0  7G01G04G07G08G09G11G27               -0.000153580
  22174001.531 5   -203018.727 5   -122405.10949  22174003.23849
  23544367.234 5     53382.938 5     31834.96546  23544367.14846
  22188690.992 5   -171125.203 5   -109842.43448  22188687.55548
  20704280.273 7     10549.945 7      7016.41049  20704279.56349
  23324260.484 5     20411.852 5     12098.48848  23324260.70348
  20407985.164 6    -98716.230 6    -64640.02748  20407981.56348
  22284721.188 6     70854.609 6     44964.46149  22284720.97349
 20  5 16  3 20 52.0000000  0  7G01G04G07G08G09G11G27               -0.000154278
  22173152.039 5   -207483.809 5   -125884.39149  22173153.39549
  23544660.016 5     54922.402 5     33034.53946  23544660.42646
  22187949.117 5   -175027.902 5   -112883.49648  22187945.03548
  20704323.148 7     10775.461 7      7192.13749  20704322.56349
  23324371.250 5     20992.148 5     12550.66048  23324371.48048
  20407534.492 6   -101082.387 6    -66483.78548  20407531.36348
  22285025.602 6     72454.063 6     46210.79349  22285025.09049
 20  5 16  3 20 53.0000000  0  7G01G04G07G08G09G11G27               -0.000154976
  22172302.359 5   -211949.602 5   -129364.23449  22172303.50849
  23544953.094 5     56460.863 5     34233.34846  23544952.93046
  22187205.688 5   -178931.250 5   -115925.06648  22187202.16448
  20704365.836 7     11000.234 7      7367.28549  20704365.31649
  23324480.961 5     21571.738 5     13002.28948  23324481.62548
  20407084.172 6   -103448.977 6    -68327.88748  20407080.93848
  22285329.992 6     74052.586 6     47456.39149  22285329.43849
 20  5 16  3 20 54.0000000  0  7G01G04G07G08G09G11G27               -0.000155676
  22171451.750 5   -216416.129 5   -132844.64849  22171453.41449
  23545245.578 5     57998.309 5     35431.33646  23545245.70346
  22186462.977 5   -182835.328 5   -118967.20348  22186459.31348
  20704408.602 6     11224.234 6      7541.82049  20704408.05949
  23324591.219 5     22150.570 5     13453.32448  23324591.74648
  20406633.828 6   -105816.074 6    -70172.38748  20406630.27048
  22285633.727 6     75650.129 6     48701.22349  22285633.28949
 20  5 16  3 20 55.0000000  0  7G01G04G07G08G09G11G27               -0.000156376
  22170601.766 5   -220883.371 5   -136325.61749  22170603.27749
  23545537.813 5     59534.801 5     36628.60546  23545537.97346
  22185719.695 5   -186740.004 5   -122009.80948  22185716.45748
  20704451.320 7     11447.543 7      7715.82849  20704450.57049
  23324701.125 5     22728.707 5     13903.81648  23324701.64848
  20406183.344 6   -108183.609 6    -72017.21948  20406179.71948
  22285937.773 6     77246.793 6     49945.37549  22285937.35249
 20  5 16  3 20 56.0000000  0  7G01G04G07G08G09G11G27               -0.000157076
  22169752.133 5   -225350.902 5   -139806.81648  22169753.12948
  23545829.617 5     61070.691 5     37825.41446  23545830.21546
  22184976.281 5   -190644.992 5   -125052.65648  22184973.46148
  20704493.586 7     11670.504 7      7889.55949  20704493.14549
  23324811.000 5     23306.531 5     14354.07048  23324811.93048
  20405732.875 6   -110551.219 6    -73862.10948  20405729.91848
  22286241.250 6     78842.883 6     51189.07849  22286241.16449
 20  5 16  3 20 57.0000000  0  7G01G04G07G08G09G11G27               -0.000157776
  22168901.555 5   -229818.992 5   -143288.43849  22168903.17649
  23546122.008 5     62605.816 5     39021.61346  23546122.61746
  22184233.594 5   -194550.473 5   -128095.88748  22184230.24648
  20704535.836 7     11892.957 7      8062.89549  20704535.19949
  23324921.000 5     23883.809 5     14803.89548  23324921.89148
  20405282.625 6   -112919.051 6    -75707.17248  20405278.84048
  22286544.836 6     80438.270 6     52432.23849  22286544.38349
 20  5 16  3 20 58.0000000  0  7G01G04G07G08G09G11G27               -0.000158478
  22168051.734 6   -234287.699 6   -146770.54749  22168052.64849
  23546414.039 5     64140.066 5     40217.13346  23546414.48446
  22183490.313 5   -198456.520 5   -131139.55948  22183487.25848
  20704578.141 7     12114.773 7      8235.73849  20704577.57849
  23325030.313 5     24460.469 5     15253.23448  23325031.69548
  20404831.469 6   -115287.266 6    -77552.53548  20404828.02748
  22286848.508 6     82032.781 6     53674.71549  22286847.78949
 20  5 16  3 20 59.0000000  0  7G01G04G07G08G09G11G27               -0.000159180
  22167200.961 6   -238756.906 6   -150253.04749  22167202.34449
  23546705.953 5     65673.492 5     41412.00046  23546706.29746
  22182746.719 5   -202363.027 5   -134183.59448  22182743.79748
  20704620.711 7     12336.082 7      8408.18849  20704619.89849
  23325140.000 5     25036.648 5     15702.20748  23325141.46548
  20404380.781 6   -117655.750 6    -79398.10548  20404377.30148
  22287151.703 6     83626.598 6     54916.65249  22287151.35549
 20  5 16  3 21  0.0000000  0  7G01G04G07G08G09G11G27               -0.000159882
  22166350.797 6   -243226.566 6   -153735.90249  22166351.59849
  23546997.078 4     67206.250 4     42606.34846  23546997.91446
  22182003.438 5   -206269.965 5   -137227.96548  22182000.38348
  20704662.180 7     12556.918 7      8580.26649  20704661.44949
  23325249.742 5     25612.371 5     16150.81648  23325250.94948
  20403930.258 6   -120024.371 6    -81243.78548  20403926.72748
  22287454.617 6     85219.754 6     56158.06649  22287453.82449
 20  5 16  3 21  1.0000000  0  7G01G04G07G08G09G11G27               -0.000160585
  22165499.758 6   -247696.613 6   -157219.05549  22165500.84449
  23547289.094 5     68738.328 5     43800.16046  23547289.52346
  22181259.883 5   -210177.223 5   -140272.58648  22181256.77748
  20704704.258 7     12777.363 7      8752.03949  20704703.45749
  23325359.789 5     26187.676 5     16599.11348  23325360.50448
  20403479.461 6   -122393.160 6    -83089.59848  20403475.80148
  22287758.547 6     86812.289 6     57399.00049  22287757.41449
 20  5 16  3 21  2.0000000  0  7G01G04G07G08G09G11G27               -0.000161287
  22164649.109 6   -252167.070 6   -160702.53549  22164650.56649
  23547580.063 5     70269.793 5     44993.50046  23547580.66846
  22180515.938 5   -214084.824 5   -143317.46548  22180513.13748
  20704746.047 7     12997.398 7      8923.49649  20704745.63749
  23325468.570 5     26762.613 5     17047.11348  23325470.13748
  20403028.680 6   -124762.059 6    -84935.49248  20403025.12148
  22288061.000 6     88404.215 6     58639.45749  22288060.27349
 20  5 16  3 21  3.0000000  0  7G01G04G07G08G09G11G27               -0.000161991
  22163798.094 6   -256637.898 6   -164186.29749  22163799.36349
  23547871.195 4     71800.574 4     46186.31346  23547872.61346
  22179772.906 5   -217992.785 5   -146362.62948  22179769.65648
  20704787.789 7     13217.039 7      9094.64849  20704787.05149
  23325577.688 5     27337.176 5     17494.82448  23325579.44948
  20402577.836 6   -127131.098 6    -86781.49648  20402574.49648
  22288364.297 6     89995.535 6     59879.44549  22288363.05949
 20  5 16  3 21  4.0000000  0  7G01G04G07G08G09G11G27               -0.000162695
  22162947.688 6   -261109.125 6   -167670.36749  22162948.74249
  23548162.883 5     73330.699 5     47378.62146  23548163.53546
  22179028.891 5   -221901.090 5   -149408.06648  22179026.27048
  20704829.734 7     13436.285 7      9265.49249  20704829.07849
  23325687.570 5     27911.324 5     17942.21148  23325688.75848
  20402126.789 6   -129500.266 6    -88627.60248  20402123.40648
  22288666.016 6     91586.258 6     61118.96949  22288665.84849
 20  5 16  3 21  5.0000000  0  7G01G04G07G08G09G11G27               -0.000163399
  22162096.828 6   -265580.688 6   -171154.69549  22162097.73049
  23548454.273 5     74860.250 5     48570.49246  23548454.62546
  22178285.492 5   -225809.645 5   -152453.69548  22178282.41448
  20704871.195 7     13655.184 7      9436.06349  20704870.59849
  23325796.203 5     28485.168 5     18389.35248  23325797.39148
  20401676.109 6   -131869.465 6    -90473.73048  20401672.71148
  22288969.328 6     93176.441 6     62358.08249  22288968.27349
 20  5 16  3 21  6.0000000  0  7G01G04G07G08G09G11G27               -0.000164104
  22161245.500 5   -270052.566 5   -174639.27349  22161246.56649
  23548745.781 5     76389.145 5     49761.84046  23548745.24246
  22177541.523 5   -229718.531 5   -155499.58248  22177538.76648
  20704912.469 7     13873.738 7      9606.36749  20704912.50849
  23325905.828 5     29058.645 5     18836.21148  23325906.91448
  20401225.219 6   -134238.758 6    -92319.92648  20401221.39548
  22289271.328 6     94766.055 6     63596.74249  22289271.19949
 20  5 16  3 21  7.0000000  0  7G01G04G07G08G09G11G27               -0.000164810
  22160394.594 5   -274524.789 5   -178124.12149  22160395.75449
  23549035.875 5     77917.496 5     50952.77046  23549036.50046
  22176797.430 5   -233627.703 5   -158545.69148  22176795.04348
  20704954.375 7     14091.969 7      9776.41849  20704953.89549
  23326014.922 5     29631.789 5     19282.81648  23326015.38348
  20400774.258 6   -136608.148 6    -94166.20348  20400770.93848
  22289573.789 6     96355.141 6     64834.98849  22289572.96949
 20  5 16  3 21  8.0000000  0  7G01G04G07G08G09G11G27               -0.000165516
  22159543.328 6   -278997.301 6   -181609.19549  22159544.67249
  23549326.250 4     79445.285 4     52143.24246  23549327.42646
  22176052.984 5   -237537.098 5   -161591.97748  22176050.97348
  20704995.836 7     14309.891 7      9946.23049  20704995.21149
  23326124.055 5     30204.641 5     19729.19548  23326125.02748
  20400323.148 6   -138977.539 6    -96012.48848  20400320.34448
  22289876.305 6     97943.707 6     66072.83249  22289875.31649
 20  5 16  3 21  9.0000000  0  7G01G04G07G08G09G11G27               -0.000166222
  22158692.453 6   -283470.039 6   -185094.44149  22158693.42249
  23549616.969 4     80972.555 4     53333.32046  23549617.65646
  22175309.719 5   -241446.695 5   -164638.41448  22175306.91048
  20705037.383 7     14527.527 7     10115.80949  20705036.60949
  23326232.445 5     30777.270 5     20175.41048  23326233.81648
  20399872.406 6   -141346.922 6    -97858.76248  20399869.34048
  22290178.047 6     99531.828 6     67310.33249  22290177.51249
 20  5 16  3 21 10.0000000  0  7G01G04G07G08G09G11G27               -0.000166927
  22157841.219 5   -287943.141 5   -188579.97749  22157842.18849
  23549907.023 4     82499.244 4     54522.94146  23549908.35546
  22174565.664 5   -245356.582 5   -167685.08648  22174563.02748
  20705078.664 7     14744.852 7     10285.15249  20705077.98449
  23326342.398 5     31349.543 5     20621.34048  23326342.89148
  20399421.602 6   -143716.395 6    -99705.10548  20399418.28148
  22290480.422 6    101119.371 6     68547.37549  22290479.50049
 20  5 16  3 21 11.0000000  0  7G01G04G07G08G09G11G27               -0.000167633
  22156990.016 5   -292416.672 5   -192065.84849  22156990.88749
  23550197.953 4     84025.191 4     55711.98446  23550198.58246
  22173821.422 5   -249266.852 5   -170732.05148  22173818.84848
  20705120.117 7     14961.727 7     10454.14549  20705119.46949
  23326450.625 5     31921.387 5     21066.93048  23326451.89548
  20398970.844 6   -146085.996 6   -101551.55548  20398967.26248
  22290782.211 6    102706.273 6     69783.92649  22290781.59849
 20  5 16  3 21 12.0000000  0  7G01G04G07G08G09G11G27               -0.000168341
  22156138.234 5   -296890.457 5   -195551.91449  22156139.38349
  23550487.656 4     85550.598 4     56900.60546  23550488.98446
  22173077.688 5   -253177.359 5   -173779.19948  22173074.78148
  20705161.078 7     15178.344 7     10622.93849  20705160.66849
  23326559.047 5     32492.941 5     21512.29348  23326560.57048
  20398520.063 6   -148455.617 6   -103398.01248  20398516.39548
  22291084.266 6    104292.688 6     71020.09049  22291083.85549
 20  5 16  3 21 13.0000000  0  7G01G04G07G08G09G11G27               -0.000169048
  22155287.203 5   -301364.469 5   -199038.14849  22155288.11349
  23550777.961 4     87075.570 4     58088.90646  23550778.69146
  22172333.016 5   -257088.012 5   -176826.46548  22172330.67648
  20705202.516 7     15394.762 7     10791.57849  20705201.84449
  23326668.016 5     33064.328 5     21957.52748  23326669.46148
  20398069.141 6   -150825.164 6   -105244.40648  20398065.39148
  22291385.914 6    105878.715 6     72255.95349  22291385.28149
 20  5 16  3 21 14.0000000  0  7G01G04G07G08G09G11G27               -0.000169758
  22154435.719 5   -305838.742 5   -202524.59449  22154436.89549
  23551068.023 4     88599.980 4     59276.75446  23551069.59046
  22171588.711 5   -260998.902 5   -179873.91048  22171586.44148
  20705243.508 7     15610.832 7     10959.94549  20705242.85949
  23326776.844 5     33635.406 5     22402.51648  23326777.58248
  20397617.992 6   -153194.770 6   -107090.84848  20397614.60248
  22291687.938 6    107464.203 6     73491.39849  22291687.06649
 20  5 16  3 21 15.0000000  0  7G01G04G07G08G09G11G27               -0.000170465
  22153584.188 6   -310313.289 6   -206011.25449  22153585.32049
  23551358.469 4     90123.898 4     60464.21146  23551359.52046
  22170844.406 5   -264910.000 5   -182921.51648  22170842.30148
  20705284.719 7     15826.660 7     11128.12149  20705283.61749
  23326885.109 5     34206.234 5     22847.30948  23326886.14848
  20397166.750 6   -155564.316 6   -108937.25448  20397163.74248
  22291989.055 5    109049.227 5     74726.48449  22291988.56349
 20  5 16  3 21 16.0000000  0  7G01G04G07G08G09G11G27               -0.000171173
  22152732.859 5   -314788.156 5   -209498.16849  22152733.89849
  23551647.820 4     91647.152 4     61651.15246  23551649.12946
  22170100.672 5   -268821.410 5   -185969.37548  22170097.97348
  20705325.445 7     16042.129 7     11296.01649  20705325.15249
  23326994.305 5     34776.699 5     23291.82448  23326994.71948
  20396715.875 6   -157933.969 6   -110783.73448  20396712.57448
  22292290.570 6    110633.680 6     75961.11749  22292290.07849
 20  5 16  3 21 17.0000000  0  7G01G04G07G08G09G11G27               -0.000171883
  22151880.820 5   -319263.297 5   -212985.28549  22151882.20349
  23551937.508 4     93169.953 4     62837.75446  23551938.62146
  22169356.547 5   -272733.023 5   -189017.38348  22169353.64148
  20705366.852 7     16257.359 7     11463.72749  20705365.43849
  23327102.234 5     35346.945 5     23736.17248  23327103.31348
  20396265.359 6   -160303.613 6   -112630.21148  20396261.77048
  22292591.797 5    112217.672 5     77195.39549  22292591.30149
 20  5 16  3 21 18.0000000  0  7G01G04G07G08G09G11G27               -0.000172592
  22151029.070 5   -323738.664 5   -216472.58249  22151030.71549
  23552227.617 4     94692.219 4     64023.93046  23552228.35946
  22168612.195 5   -276644.813 5   -192065.53948  22168609.35948
  20705407.500 7     16472.328 7     11631.23849  20705406.62549
  23327211.359 5     35916.926 5     24180.30948  23327211.63748
  20395814.086 6   -162673.242 6   -114476.67648  20395810.86748
  22292893.375 5    113801.211 5     78429.32449  22292892.73049
 20  5 16  3 21 19.0000000  0  7G01G04G07G08G09G11G27               -0.000173302
  22150177.063 5   -328214.215 5   -219960.02749  22150178.83649
  23552517.047 4     96214.023 4     65209.72746  23552518.03546
  22167867.883 5   -280556.770 5   -195113.81648  22167864.94548
  20705448.352 7     16687.090 7     11798.58249  20705447.54749
  23327318.891 5     36486.688 5     24624.27748  23327320.34448
  20395363.539 6   -165042.805 6   -116323.08648  20395360.10548
  22293194.633 5    115384.348 5     79662.93849  22293194.32049
 20  5 16  3 21 20.0000000  0  7G01G04G07G08G09G11G27               -0.000174011
  22149326.094 6   -332690.004 6   -223447.65649  22149327.04349
  23552806.422 3     97735.281 3     66395.10246  23552807.82446
  22167123.188 6   -284468.898 6   -198162.22748  22167120.76648
  20705489.320 7     16901.590 7     11965.72349  20705487.96549
  23327427.898 5     37056.238 5     25068.07848  23327428.90648
  20394912.789 6   -167412.320 6   -118169.46148  20394909.41048
  22293496.266 6    116967.004 6     80896.17649  22293495.21949
 20  5 16  3 21 21.0000000  0  7G01G04G07G08G09G11G27               -0.000174723
  22148474.391 6   -337166.008 6   -226935.44949  22148475.62949
  23553096.211 4     99256.090 4     67580.13746  23553096.64846
  22166378.672 5   -288381.184 5   -201210.76648  22166376.66848
  20705530.203 7     17115.875 7     12132.69549  20705528.98449
  23327535.461 5     37625.594 5     25511.73048  23327536.80948
  20394461.625 6   -169781.801 6   -120015.80548  20394458.54348
  22293797.039 6    118549.258 6     82129.10249  22293796.41449
 20  5 16  3 21 22.0000000  0  7G01G04G07G08G09G11G27               -0.000175432
  22147621.969 6   -341642.156 6   -230423.35949  22147623.77349
  23553386.063 4    100776.504 4     68764.87946  23553386.30546
  22165634.297 5   -292293.551 5   -204259.37148  22165631.61748
  20705571.039 7     17330.031 7     12299.57049  20705569.80949
  23327644.461 5     38194.762 5     25955.23448  23327645.40648
  20394010.531 6   -172151.168 6   -121862.07048  20394007.48048
  22294097.844 6    120131.152 6     83361.74649  22294097.44549
 20  5 16  3 21 23.0000000  0  7G01G04G07G08G09G11G27               -0.000176144
  22146770.586 5   -346118.402 5   -233911.34449  22146771.31349
  23553675.469 4    102296.547 4     69949.32846  23553675.56646
  22164889.438 5   -296206.023 5   -207308.04348  22164887.41048
  20705611.570 7     17544.035 7     12466.32049  20705610.27349
  23327752.617 5     38763.828 5     26398.66448  23327753.37548
  20393560.180 6   -174520.383 6   -123708.21148  20393556.98448
  22294398.734 6    121712.699 6     84594.11749  22294398.52749
 20  5 16  3 21 24.0000000  0  7G01G04G07G08G09G11G27               -0.000176853
  22145918.383 5   -350594.758 5   -237399.40649  22145919.73449
  23553964.078 4    103816.199 4     71133.47746  23553964.61346
  22164145.039 5   -300118.539 5   -210356.75448  22164143.26648
  20705651.977 7     17757.895 7     12632.96949  20705651.10249
  23327860.883 5     39332.770 5     26841.99648  23327861.83648
  20393108.742 6   -176889.461 6   -125554.24248  20393105.95348
  22294700.570 6    123293.914 6     85826.23449  22294699.21549
 20  5 16  3 21 25.0000000  0  7G01G04G07G08G09G11G27               -0.000177565
  22145066.945 6   -355071.305 6   -240887.62549  22145067.62949
  23554252.781 4    105335.395 4     72317.25846  23554254.14146
  22163400.297 5   -304031.191 5   -213405.57048  22163398.46148
  20705692.492 7     17971.582 7     12799.47349  20705691.58649
  23327968.766 5     39901.539 5     27285.19148  23327969.68048
  20392657.852 6   -179258.441 6   -127400.20348  20392654.72748
  22295000.836 6    124874.754 6     87058.05149  22295000.21149
 20  5 16  3 21 26.0000000  0  7G01G04G07G08G09G11G27               -0.000178278
  22144215.617 6   -359547.988 6   -244375.94549  22144216.20349
  23554542.188 4    106854.180 4     73500.71146  23554542.82846
  22162655.969 5   -307943.965 5   -216454.48048  22162653.89148
  20705733.320 7     18185.105 7     12965.85549  20705732.19949
  23328077.031 5     40470.188 5     27728.29748  23328077.86748
  20392207.430 6   -181627.309 6   -129246.07848  20392203.99248
  22295301.273 6    126455.223 6     88289.59049  22295300.86349
 20  5 16  3 21 27.0000000  0  7G01G04G07G08G09G11G27               -0.000178989
  22143363.508 6   -364024.777 6   -247864.34849  22143363.77349
  23554830.758 4    108372.582 4     74683.87546  23554832.02746
  22161911.211 5   -311856.750 5   -219503.41048  22161909.45348
  20705774.141 7     18398.535 7     13132.16849  20705772.89549
  23328184.898 5     41038.695 5     28171.28948  23328186.35248
  20391756.617 6   -183996.016 6   -131091.81648  20391753.15648
  22295602.203 6    128035.352 6     89520.85949  22295601.59849
 20  5 16  3 21 28.0000000  0  7G01G04G07G08G09G11G27               -0.000179701
  22142511.484 6   -368501.898 6   -251353.01649  22142512.03949
  23555118.844 4    109890.445 4     75866.62146  23555120.48446
  22161166.672 5   -315769.836 5   -222552.57448  22161164.71548
  20705814.219 7     18611.641 7     13298.22349  20705813.55149
  23328293.359 5     41606.863 5     28614.00848  23328294.05948
  20391305.852 6   -186364.766 6   -132937.59848  20391302.52048
  22295903.008 6    129614.945 6     90751.70349  22295901.87149
 20  5 16  3 21 29.0000000  0  7G01G04G07G08G09G11G27               -0.000180414
  22141659.758 6   -372979.094 6   -254841.74249  22141660.31349
  23555407.695 3    111407.840 3     77049.01246  23555409.69546
  22160422.180 5   -319683.004 5   -225601.79348  22160420.25848
  20705854.781 7     18824.598 7     13464.16849  20705854.04349
  23328401.523 5     42174.965 5     29056.68448  23328402.23048
  20390855.828 6   -188733.395 6   -134783.28548  20390851.91448
  22296203.594 6    131194.219 6     91982.31349  22296202.72749
 20  5 16  3 21 30.0000000  0  7G01G04G07G08G09G11G27               -0.000181126
  22140808.117 6   -377456.445 6   -258330.59049  22140807.97749
  23555697.422 4    112924.898 4     78231.13346  23555698.24246
  22159677.086 5   -323596.223 5   -228651.05948  22159675.52348
  20705895.328 7     19037.438 7     13630.01649  20705894.32849
  23328509.883 5     42742.918 5     29499.24248  23328510.22748
  20390404.133 6   -191101.867 6   -136628.84848  20390400.87948
  22296503.883 6    132773.141 6     93212.63749  22296502.99649
 20  5 16  3 21 31.0000000  0  7G01G04G07G08G09G11G27               -0.000181839
  22139955.172 6   -381933.816 6   -261819.44949  22139955.82049
  23555985.984 4    114441.648 4     79413.01246  23555986.74646
  22158932.922 6   -327509.496 6   -231700.36348  22158930.75448
  20705935.820 7     19250.203 7     13795.80549  20705934.44549
  23328617.406 5     43310.797 5     29941.74248  23328617.97748
  20389953.789 6   -193470.105 6   -138474.23048  20389950.41848
  22296804.172 6    134351.813 6     94442.77049  22296803.58249
 20  5 16  3 21 32.0000000  0  7G01G04G07G08G09G11G27               -0.000182552
  22139103.234 6   -386411.336 6   -265308.42649  22139103.81649
  23556274.953 4    115957.988 4     80594.58246  23556275.67646
  22158188.680 6   -331422.820 6   -234749.70348  22158186.30548
  20705976.031 7     19462.840 7     13961.49249  20705975.67249
  23328725.672 5     43878.574 5     30384.16448  23328726.40648
  20389502.875 6   -195838.242 6   -140319.53148  20389499.77748
  22297104.336 6    135930.105 6     95672.60949  22297104.30549
 20  5 16  3 21 33.0000000  0  7G01G04G07G08G09G11G27               -0.000183266
  22138251.727 6   -390889.004 6   -268797.51649  22138251.69549
  23556562.758 4    117473.914 4     81775.82046  23556563.47746
  22157443.016 6   -335336.242 6   -237799.12548  22157441.71148
  20706017.117 7     19675.301 7     14127.04749  20706015.89849
  23328834.055 5     44446.172 5     30826.45748  23328834.19548
  20389052.141 6   -198206.266 6   -142164.74648  20389049.54348
  22297404.859 6    137508.043 6     96902.17249  22297404.25049
 20  5 16  3 21 34.0000000  0  7G01G04G07G08G09G11G27               -0.000183979
  22137399.531 6   -395366.785 6   -272286.69949  22137399.94949
  23556851.867 4    118989.398 4     82956.70346  23556852.52046
  22156698.117 6   -339249.758 6   -240848.62948  22156697.00048
  20706057.320 7     19887.633 7     14292.50049  20706056.45749
  23328941.625 5     45013.605 5     31268.61748  23328942.03948
  20388602.102 6   -200574.180 6   -144009.86748  20388598.87148
  22297705.148 6    139085.645 6     98131.46549  22297704.60549
 20  5 16  3 21 35.0000000  0  7G01G04G07G08G09G11G27               -0.000184694
  22136547.305 6   -399844.637 6   -275775.93449  22136547.36749
  23557139.984 4    120504.586 4     84137.37146  23557140.70746
  22155953.859 6   -343163.309 6   -243898.14848  22155952.19548
  20706097.930 7     20099.910 7     14457.91849  20706096.63349
  23329049.500 5     45581.020 5     31710.75048  23329049.69548
  20388151.406 6   -202941.871 6   -145854.82848  20388148.40248
  22298005.031 6    140662.957 6     99360.53549  22298004.67249
 20  5 16  3 21 36.0000000  0  7G01G04G07G08G09G11G27               -0.000185408
  22135695.445 6   -404322.695 6   -279265.33249  22135695.67649
  23557427.945 3    122019.297 3     85317.66046  23557429.25846
  22155209.586 6   -347077.008 6   -246947.78148  22155207.30548
  20706138.125 7     20311.961 7     14623.14849  20706137.04749
  23329157.492 5     46148.215 5     32152.71548  23329158.18048
  20387700.523 6   -205309.504 6   -147699.73448  20387697.24648
  22298305.266 6    142239.824 6    100589.26649  22298304.92249
 20  5 16  3 21 37.0000000  0  7G01G04G07G08G09G11G27               -0.000186123
  22134842.609 6   -408800.840 6   -282754.79349  22134843.03949
  23557716.227 4    123533.645 4     86497.66846  23557717.10546
  22154464.219 6   -350990.754 6   -249997.45348  22154462.80148
  20706178.539 7     20523.906 7     14788.30549  20706177.31349
  23329265.289 5     46715.277 5     32594.58248  23329265.89548
  20387250.633 6   -207676.984 6   -149544.52748  20387247.18848
  22298605.859 6    143816.422 6    101817.78149  22298605.00049
 20  5 16  3 21 38.0000000  0  7G01G04G07G08G09G11G27               -0.000186838
  22133991.234 6   -413279.027 6   -286244.28549  22133991.82049
  23558003.875 4    125047.684 4     87677.43046  23558005.18846
  22153719.844 5   -354904.488 5   -253047.12149  22153717.93449
  20706218.602 7     20735.797 7     14953.41449  20706217.75049
  23329373.453 5     47282.313 5     33036.42248  23329373.97348
  20386799.953 6   -210044.238 6   -151389.14548  20386796.60948
  22298905.711 6    145392.703 6    103046.05149  22298904.73449
 20  5 16  3 21 39.0000000  0  7G01G04G07G08G09G11G27               -0.000187553
  22133138.500 6   -417757.238 6   -289733.79749  22133139.16049
  23558292.305 3    126561.402 3     88856.94146  23558293.26646
  22152974.672 5   -358818.195 5   -256096.76248  22152973.29348
  20706259.086 7     20947.668 7     15118.51249  20706257.86749
  23329481.039 5     47849.332 5     33478.25448  23329481.22348
  20386349.422 6   -212411.246 6   -153233.56648  20386346.21148
  22299205.563 6    146968.770 6    104274.15649  22299204.77349
 20  5 16  3 21 40.0000000  0  7G01G04G07G08G09G11G27               -0.000188269
  22132286.344 6   -422235.574 6   -293223.40649  22132286.78149
  23558580.078 3    128074.719 3     90036.15246  23558581.42646
  22152230.523 5   -362732.004 5   -259146.47749  22152228.55949
  20706299.344 7     21159.344 7     15283.44949  20706298.58249
  23329588.383 5     48416.215 5     33919.97748  23329589.65248
  20385899.164 6   -214778.133 6   -155077.89148  20385895.57848
  22299504.867 6    148544.473 6    105501.96949  22299504.42249
 20  5 16  3 21 41.0000000  0  7G01G04G07G08G09G11G27               -0.000188984
  22131434.148 6   -426714.164 6   -296713.21949  22131434.40249
  23558868.758 4    129587.516 4     91214.94546  23558869.41446
  22151485.797 6   -366646.016 6   -262196.36349  22151483.74249
  20706339.875 7     21370.785 7     15448.21149  20706338.43449
  23329696.664 5     48982.781 5     34361.45748  23329697.44948
  20385448.820 6   -217145.051 6   -156922.24648  20385445.51248
  22299804.930 6    150119.680 6    106729.40649  22299804.17249
 20  5 16  3 21 42.0000000  0  7G01G04G07G08G09G11G27               -0.000189699
  22130581.188 6   -431192.938 6   -300203.17649  22130582.15649
  23559155.930 4    131099.867 4     92393.39846  23559157.21146
  22150741.125 6   -370560.180 6   -265246.36348  22150738.61348
  20706379.703 7     21582.027 7     15612.81649  20706379.02049
  23329804.297 5     49549.191 5     34802.81648  23329805.14148
  20384997.992 6   -219511.848 6   -158766.50448  20384994.73048
  22300104.594 6    151694.527 6    107956.55949  22300103.87149
 20  5 16  3 21 43.0000000  0  7G01G04G07G08G09G11G27               -0.000190416
  22129729.438 6   -435671.848 6   -303693.23049  22129729.84049
  23559443.750 3    132611.797 3     93571.52046  23559444.68046
  22149996.000 6   -374474.430 6   -268296.43048  22149994.26248
  20706419.984 7     21793.117 7     15777.30149  20706418.88749
  23329913.031 5     50115.484 5     35244.08248  23329913.00448
  20384547.500 6   -221878.527 6   -160610.66848  20384544.53548
  22300403.813 6    153269.004 6    109183.42649  22300403.45349
 20  5 16  3 21 44.0000000  0  7G01G04G07G08G09G11G27               -0.000191132
  22128877.172 6   -440150.848 6   -307183.35949  22128877.53149
  23559731.781 3    134123.363 3     94749.37146  23559732.54346
  22149251.156 6   -378388.734 6   -271346.54349  22149249.07849
  20706460.039 7     22004.078 7     15941.68849  20706459.28549
  23330020.242 4     50681.641 4     35685.23848  23330020.53948
  20384097.828 6   -224245.070 6   -162454.72748  20384094.33248
  22300703.617 6    154843.113 6    110410.00449  22300703.08249
 20  5 16  3 21 45.0000000  0  7G01G04G07G08G09G11G27               -0.000191849
  22128024.586 6   -444630.125 6   -310673.70749  22128025.21149
  23560019.633 3    135634.379 3     95926.78146  23560019.76246
  22148506.117 6   -382303.246 6   -274396.80949  22148504.24249
  20706499.961 7     22214.793 7     16105.88349  20706499.73449
  23330128.117 5     51247.551 5     36126.19948  23330128.18448
  20383646.922 6   -226611.586 6   -164298.77048  20383643.77348
  22301003.297 6    156416.813 6    111636.27049  22301002.15649
 20  5 16  3 21 46.0000000  0  7G01G04G07G08G09G11G27               -0.000192566
  22127172.414 6   -449109.344 6   -314164.00449  22127172.73049
  23560306.742 3    137145.172 3     97104.02746  23560307.25446
  22147760.953 6   -386217.676 6   -277447.01249  22147759.52349
  20706540.016 7     22425.516 7     16270.07849  20706539.43049
  23330235.836 5     51813.465 5     36567.16848  23330235.86348
  20383197.031 6   -228977.832 6   -166142.59448  20383193.74648
  22301302.359 6    157990.316 6    112862.36749  22301301.72349
 20  5 16  3 21 47.0000000  0  7G01G04G07G08G09G11G27               -0.000193283
  22126319.930 6   -453588.809 6   -317654.49649  22126320.25449
  23560594.047 3    138655.516 3     98280.92246  23560595.08646
  22147016.609 6   -390132.297 6   -280497.36349  22147014.73449
  20706580.430 7     22635.992 7     16434.09449  20706579.62949
  23330343.641 5     52379.172 5     37007.97748  23330343.89848
  20382746.984 6   -231344.012 6   -167986.36748  20382743.41048
  22301601.305 5    159563.293 5    114088.06349  22301600.93049
 20  5 16  3 21 48.0000000  0  7G01G04G07G08G09G11G27               -0.000194000
  22125467.188 6   -458068.320 6   -321145.01249  22125468.06649
  23560881.445 4    140165.465 4     99457.50446  23560882.21146
  22146271.727 6   -394046.914 6   -283547.72348  22146269.55148
  20706620.258 7     22846.395 7     16598.03949  20706619.58649
  23330451.664 5     52944.746 5     37448.68848  23330451.15248
  20382296.234 6   -233710.020 6   -169830.00848  20382293.07848
  22301900.320 5    161136.082 5    115313.60549  22301900.37549
 20  5 16  3 21 49.0000000  0  7G01G04G07G08G09G11G27               -0.000194717
  22124615.266 6   -462547.789 6   -324635.51249  22124616.04749
  23561168.867 4    141675.180 4    100633.90246  23561169.51646
  22145526.211 6   -397961.500 6   -286598.04749  22145524.64149
  20706660.656 7     23056.813 7     16762.00449  20706659.62149
  23330559.008 5     53510.387 5     37889.44548  23330558.81348
  20381846.336 6   -236075.742 6   -171673.43448  20381843.11348
  22302200.445 5    162708.613 5    116538.95349  22302199.80949
 20  5 16  3 21 50.0000000  0  7G01G04G07G08G09G11G27               -0.000195436
  22123762.859 6   -467027.297 6   -328126.03949  22123763.53549
  23561455.914 4    143184.574 4    101810.04746  23561457.14546
  22144781.625 6   -401876.020 6   -289648.32848  22144779.02048
  20706700.672 7     23267.188 7     16925.93049  20706699.74249
  23330666.750 5     54075.996 5     38330.18448  23330666.40248
  20381395.938 6   -238441.207 6   -173516.65648  20381392.78148
  22302499.828 6    164280.918 6    117764.11749  22302498.91449
 20  5 16  3 21 51.0000000  0  7G01G04G07G08G09G11G27               -0.000196154
  22122910.508 6   -471506.957 6   -331616.69149  22122911.42249
  23561742.820 4    144693.570 4    102985.88746  23561744.11746
  22144036.953 6   -405790.676 6   -292698.71949  22144034.77749
  20706740.547 7     23477.410 7     17089.74649  20706739.95349
  23330773.672 5     54641.438 5     38770.78148  23330773.68448
  20380945.875 6   -240806.590 6   -175359.80948  20380942.74648
  22302798.484 5    165852.848 5    118989.00049  22302797.93449
 20  5 16  3 21 52.0000000  0  7G01G04G07G08G09G11G27               -0.000196873
  22122057.625 6   -475986.613 6   -335107.32449  22122058.92649
  23562029.813 4    146202.277 4    104161.48446  23562031.14846
  22143291.805 6   -409705.301 6   -295749.08249  22143289.66849
  20706780.344 7     23687.613 7     17253.53149  20706779.93049
  23330881.852 5     55206.848 5     39211.35548  23330881.57848
  20380496.195 6   -243171.703 6   -177202.75048  20380492.70748
  22303097.648 5    167424.555 5    120213.70349  22303096.81349
 20  5 16  3 21 53.0000000  0  7G01G04G07G08G09G11G27               -0.000197592
  22121205.320 6   -480466.281 6   -338597.97749  22121206.37949
  23562317.070 4    147710.738 4    105336.91046  23562318.36746
  22142546.828 6   -413619.875 6   -298799.39849  22142544.50049
  20706820.492 7     23897.785 7     17417.30149  20706820.02349
  23330989.211 5     55772.270 5     39651.94148  23330989.14548
  20380046.375 6   -245536.563 6   -179045.49648  20380042.35548
  22303396.844 5    168996.012 5    121438.21549  22303395.84449
 20  5 16  3 21 54.0000000  0  7G01G04G07G08G09G11G27               -0.000198311
  22120352.727 6   -484946.016 6   -342088.68049  22120353.84849
  23562604.563 4    149218.820 4    106512.03146  23562605.54746
  22141801.773 6   -417534.449 6   -301849.71949  22141800.07449
  20706860.352 7     24107.879 7     17581.01649  20706860.09849
  23331096.766 5     56337.602 5     40092.45348  23331096.16448
  20379595.742 6   -247901.246 6   -180888.10948  20379592.29348
  22303696.102 5    170567.180 5    122662.50049  22303694.80549
 20  5 16  3 21 55.0000000  0  7G01G04G07G08G09G11G27               -0.000199028
  22119500.445 6   -489425.680 6   -345579.32449  22119501.55549
  23562891.086 4    150726.676 4    107686.99246  23562892.43446
  22141057.234 6   -421448.941 6   -304899.97349  22141055.01249
  20706900.055 7     24318.051 7     17744.78549  20706899.64549
  23331205.039 5     56902.973 5     40533.00848  23331204.16848
  20379146.125 6   -250265.605 6   -182730.46548  20379142.62948
  22303994.656 5    172138.199 5    123886.67249  22303993.94949
 20  5 16  3 21 56.0000000  0  7G01G04G07G08G09G11G27               -0.000199747
  22118647.602 6   -493905.359 6   -349069.98449  22118648.74649
  23563177.227 4    152234.313 4    108861.77746  23563179.42646
  22140311.883 6   -425363.426 6   -307950.21949  22140310.17649
  20706940.148 7     24528.148 7     17908.48849  20706939.62949
  23331311.781 5     57468.316 5     40973.52748  23331311.66848
  20378696.172 6   -252629.707 6   -184572.62548  20378692.85248
  22304293.883 5    173708.973 5    125110.65249  22304292.67649
 20  5 16  3 21 57.0000000  0  7G01G04G07G08G09G11G27               -0.000200468
  22117795.367 6   -498384.953 6   -352560.57049  22117796.86749
  23563464.508 4    153741.699 4    110036.35946  23563466.19146
  22139567.117 6   -429277.727 6   -311000.31649  22139565.18849
  20706980.617 7     24738.320 7     18072.25849  20706979.94149
  23331419.148 5     58033.777 5     41414.15248  23331418.86348
  20378246.328 6   -254993.449 6   -186414.49648  20378242.98048
  22304592.727 5    175279.637 5    126334.54749  22304592.19149
 20  5 16  3 21 58.0000000  0  7G01G04G07G08G09G11G27               -0.000201187
  22116943.359 6   -502864.645 6   -356051.23049  22116944.29349
  23563751.516 4    155248.746 4    111210.68046  23563753.23046
  22138822.664 6   -433192.133 6   -314050.51249  22138820.32449
  20707019.984 7     24948.375 7     18235.93849  20707019.46149
  23331527.188 5     58599.063 5     41854.63748  23331526.67248
  20377796.797 6   -257357.066 6   -188256.27748  20377793.37548
  22304891.523 6    176849.914 6    127558.13749  22304890.46549
 20  5 16  3 21 59.0000000  0  7G01G04G07G08G09G11G27               -0.000201906
  22116090.609 6   -507344.289 6   -359541.85949  22116091.67649
  23564038.250 4    156755.516 4    112384.78946  23564039.79746
  22138077.859 6   -437106.438 6   -317100.61749  22138075.22349
  20707059.820 7     25158.449 7     18399.63349  20707059.64549
  23331635.117 5     59164.414 5     42295.17248  23331634.17248
  20377346.891 6   -259720.391 6   -190097.82848  20377343.30548
  22305189.711 5    178420.055 5    128781.62149  22305189.38349
 20  5 16  3 22  0.0000000  0  7G01G04G07G08G09G11G27               -0.000202627
  22115237.969 6   -511823.930 6   -363032.48849  22115238.86749
  23564324.953 4    158262.004 4    113558.67646  23564326.05946
  22137332.844 6   -441020.684 6   -320150.68049  22137330.44149
  20707100.203 7     25368.500 7     18563.31649  20707099.91449
  23331742.477 5     59729.773 5     42735.70748  23331742.02748
  20376897.117 6   -262083.434 6   -191939.16848  20376893.88748
  22305488.758 5    179989.938 5    130004.91049  22305488.08649
 20  5 16  3 22  1.0000000  0  7G01G04G07G08G09G11G27               -0.000203346
  22114385.484 6   -516303.664 6   -366523.18849  22114386.72749
  23564611.555 4    159768.156 4    114732.29546  23564613.00046
  22136588.406 6   -444934.969 6   -323200.77349  22136585.60949
  20707139.906 7     25578.484 7     18726.93449  20707139.59449
  23331849.852 5     60295.023 5     43176.15648  23331849.00848
  20376447.602 6   -264446.313 6   -193780.37148  20376444.08248
  22305787.398 5    181559.578 5    131228.00049  22305786.82849
 20  5 16  3 22  2.0000000  0  7G01G04G07G08G09G11G27               -0.000204067
  22113533.258 6   -520783.332 6   -370013.84049  22113533.91449
  23564897.883 4    161274.082 4    115905.74246  23564899.28146
  22135843.070 6   -448849.176 6   -326250.80149  22135840.93049
  20707180.055 7     25788.484 7     18890.57049  20707179.90249
  23331957.203 5     60860.285 5     43616.62148  23331956.97748
  20375997.945 6   -266808.895 6   -195621.35248  20375994.49648
  22306086.070 6    183128.953 6    132450.88749  22306085.18049
 20  5 16  3 22  3.0000000  0  7G01G04G07G08G09G11G27               -0.000204786
  22112680.453 6   -525262.992 6   -373504.48049  22112681.18849
  23565184.625 4    162779.773 4    117079.00446  23565185.78946
  22135098.391 6   -452763.324 6   -329300.79349  22135096.20349
  20707219.633 7     25998.434 7     19054.16049  20707219.46149
  23332065.250 5     61425.523 5     44057.06648  23332064.21148
  20375548.289 6   -269171.199 6   -197462.10948  20375544.94148
  22306385.094 5    184698.160 5    133673.64149  22306383.80949
 20  5 16  3 22  4.0000000  0  7G01G04G07G08G09G11G27               -0.000205507
  22111827.984 6   -529742.750 6   -376995.19949  22111829.30549
  23565471.094 4    164285.063 4    118251.94146  23565472.26246
  22134353.578 6   -456677.500 6   -332350.79748  22134351.19948
  20707259.672 7     26208.344 7     19217.73049  20707259.48049
  23332172.180 5     61990.785 5     44497.53548  23332171.63748
  20375098.578 6   -271533.316 6   -199302.71548  20375095.28148
  22306683.938 6    186267.051 6    134896.15249  22306682.57849
 20  5 16  3 22  5.0000000  0  7G01G04G07G08G09G11G27               -0.000206228
  22110975.781 6   -534222.414 6   -380485.84049  22110976.88349
  23565757.445 4    165790.180 4    119424.75446  23565758.58246
  22133608.953 6   -460591.543 6   -335400.70749  22133606.55149
  20707299.828 7     26418.285 7     19381.31349  20707299.93849
  23332280.320 5     62556.000 5     44937.95348  23332279.32048
  20374649.328 6   -273895.070 6   -201143.04748  20374645.98848
  22306982.039 5    187835.820 5    136118.57449  22306981.26249
 20  5 16  3 22  6.0000000  0  7G01G04G07G08G09G11G27               -0.000206949
  22110123.023 5   -538702.055 5   -383976.47349  22110123.93049
  23566043.758 4    167295.043 4    120597.37546  23566044.74646
  22132864.266 6   -464505.543 6   -338450.57449  22132861.21549
  20707339.969 7     26628.242 7     19544.91849  20707339.39849
  23332387.594 5     63121.273 5     45378.43048  23332386.63748
  20374200.055 6   -276256.594 6   -202983.19148  20374196.98048
  22307280.148 6    189404.367 6    137340.82049  22307279.13349
 20  5 16  3 22  7.0000000  0  7G01G04G07G08G09G11G27               -0.000207670
  22109270.773 6   -543181.660 6   -387467.06349  22109271.98449
  23566330.180 4    168799.660 4    121769.79746  23566331.62546
  22132119.188 6   -468419.426 6   -341500.35248  22132116.61348
  20707379.516 7     26838.242 7     19708.55549  20707379.55549
  23332495.086 5     63686.555 5     45818.90648  23332494.28948
  20373750.750 6   -278617.797 6   -204823.09448  20373747.25448
  22307579.188 6    190972.738 6    138562.93049  22307578.29749
 20  5 16  3 22  8.0000000  0  7G01G04G07G08G09G11G27               -0.000208391
  22108418.031 6   -547661.137 6   -390957.56649  22108419.66449
  23566616.141 4    170304.105 4    122942.10946  23566617.52346
  22131374.609 6   -472333.172 6   -344550.02748  22131371.79748
  20707419.695 7     27048.277 7     19872.22349  20707419.66049
  23332602.727 5     64251.965 5     46259.48048  23332601.87548
  20373301.313 6   -280978.617 6   -206662.69548  20373297.63748
  22307877.445 5    192540.957 5    139784.91849  22307876.53149
 20  5 16  3 22  9.0000000  0  7G01G04G07G08G09G11G27               -0.000209114
  22107566.367 6   -552140.672 6   -394448.10949  22107567.30149
  23566902.359 4    171808.227 4    124114.14146  23566903.78946
  22130630.063 6   -476246.922 6   -347599.70748  22130627.13348
  20707459.508 7     27258.273 7     20035.85549  20707459.39549
  23332711.094 5     64817.262 5     46699.96548  23332709.73848
  20372852.359 6   -283339.254 6   -208502.14148  20372848.72748
  22308175.547 6    194108.938 6    141006.71949  22308174.62549
 20  5 16  3 22 10.0000000  0  7G01G04G07G08G09G11G27               -0.000209835
  22106713.508 5   -556620.066 5   -397938.54749  22106714.64149
  23567188.227 3    173312.180 3    125286.04746  23567189.83646
