     2.10           OBSERVATION DATA    GPS(GPS)            RINEX VERSION / TYPE
cnvtToRINEX 3.07.0  convertToRINEX OPR  19-May-20 12:30 UTC PGM / RUN BY / DATE 
----------------------------------------------------------- COMMENT             
GG06                                                        MARKER NAME         
GG06                                                        MARKER NUMBER       
GNSS Observer       Trimble                                 OBSERVER / AGENCY   
0440101800          TRIMBLE 5700        2.32                REC # / TYPE / VERS 
                    TRM39105.00                             ANT # / TYPE        
 -3050163.2140  4928364.3026  2653596.8825                  APPROX POSITION XYZ 
        0.1030        0.0000        0.0000                  ANTENNA: DELTA H/E/N
     1     1     0                                          WAVELENGTH FACT L1/2
     4    C1    L1    L2    P2                              # / TYPES OF OBSERV 
  2020     5    16     0    25   45.0000000     GPS         TIME OF FIRST OBS   
  2020     5    16     1    33   52.0000000     GPS         TIME OF LAST OBS    
     0                                                      RCV CLOCK OFFS APPL 
    18                                                      LEAP SECONDS        
    11                                                      # OF SATELLITES     
   G03   188   188   188   188                              PRN / # OF OBS      
   G04  4053  4053  4053  4053                              PRN / # OF OBS      
   G08  4088  4088  4088  4088                              PRN / # OF OBS      
   G09  3459  3459  3459  3459                              PRN / # OF OBS      
   G11  2289  2289  2289  2289                              PRN / # OF OBS      
   G14  2627  2627  2627  2627                              PRN / # OF OBS      
   G16  4088  4088  4088  4088                              PRN / # OF OBS      
   G21  3603  3603  3603  3603                              PRN / # OF OBS      
   G26  4088  4088  4088  4088                              PRN / # OF OBS      
   G27  4088  4088  4088  4088                              PRN / # OF OBS      
   G31  4088  4088  4088  4088                              PRN / # OF OBS      
CARRIER PHASE MEASUREMENTS: PHASE SHIFTS REMOVED            COMMENT             
                                                            END OF HEADER       
 20  5 16  0 25 45.0000000  0  6G03G08G16G26G27G31                   0.000345095
  24854798.93014    -25863.54314    -11368.88358  24854801.40658
  23024929.66415   -262328.09415   -113131.08658  23024930.19958
  20803349.25816    -76885.09416    -44064.02758  20803346.47358
  21560315.29716    -33097.50816    -16901.68459  21560317.07859
  20927030.38317   -181648.55117   -108490.22359  20927030.05559
  22089876.67216    -54074.66016    -32537.95757  22089874.90257
 20  5 16  0 25 46.0000000  0  6G03G08G16G26G27G31                   0.000343605
  24854684.141 4    -26464.848 4    -11837.43648  24854686.75448
  23023821.070 5   -268154.398 5   -117671.06648  23023820.91848
  20802991.031 6    -78767.941 6    -45531.17248  20802988.12148
  21560175.586 6    -33833.980 6    -17475.56349  21560177.08249
  20926155.922 7   -186244.258 7   -112071.29349  20926155.47349
  22089651.008 6    -55258.656 6    -33460.55948  22089649.47348
 20  5 16  0 25 47.0000000  0  6G03G08G16G26G27G31                   0.000342113
  24854569.766 4    -27067.484 4    -12307.02048  24854571.94948
  23022711.672 5   -273981.906 5   -122211.98048  23022712.14848
  20802632.234 6    -80651.992 6    -46999.26648  20802629.53948
  21560034.992 6    -34571.848 6    -18050.52349  21560036.30949
  20925281.023 7   -190840.945 7   -115653.12949  20925280.75449
  22089425.602 6    -56443.883 6    -34384.11748  22089424.16048
 20  5 16  0 25 48.0000000  0  6G03G08G16G26G27G31                   0.000340622
  24854454.883 4    -27671.578 4    -12777.75048  24854457.25848
  23021602.375 5   -279810.734 5   -126753.92648  23021603.00448
  20802273.391 6    -82537.238 6    -48468.30148  20802270.71548
  21559894.438 6    -35311.137 6    -18626.59449  21559895.82049
  20924406.656 7   -195438.512 7   -119235.65249  20924406.13349
  22089200.234 6    -57630.336 6    -35308.62548  22089198.23848
 20  5 16  0 25 49.0000000  0  6G03G08G16G26G27G31                   0.000339128
  24854339.891 4    -28276.910 4    -13249.43848  24854342.12548
  23020493.328 5   -285640.613 5   -131296.68848  23020493.73848
  20801914.453 6    -84423.531 6    -49938.13748  20801911.93448
  21559753.594 6    -36051.680 6    -19203.64149  21559754.74249
  20923531.094 7   -200036.887 7   -122818.80149  20923531.25049
  22088974.188 6    -58817.895 6    -36233.99248  22088972.16848
 20  5 16  0 25 50.0000000  0  6G03G08G16G26G27G31                   0.000337633
  24854224.234 4    -28883.559 4    -13722.14848  24854226.67248
  23019383.586 5   -291471.699 5   -135840.39148  23019384.40648
  20801555.617 6    -86310.973 6    -51408.87548  20801552.76248
  21559612.211 6    -36793.590 6    -19781.75049  21559613.85249
  20922656.391 7   -204636.160 7   -126402.65249  20922655.79749
  22088748.055 6    -60006.680 6    -37160.32048  22088746.00048
 20  5 16  0 25 51.0000000  0  6G03G08G16G26G27G31                   0.000336140
  24854108.547 4    -29491.559 4    -14195.91448  24854111.05148
  23018274.141 5   -297303.969 5   -140385.02048  23018274.15648
  20801195.789 6    -88199.586 6    -52880.52048  20801193.30148
  21559470.141 6    -37536.879 6    -20360.94149  21559472.18049
  20921780.914 7   -209236.328 7   -129987.20349  20921780.59049
  22088521.305 6    -61196.645 6    -38087.56348  22088519.19548
 20  5 16  0 25 52.0000000  0  6G03G08G16G26G27G31                   0.000334644
  24853992.438 4    -30100.973 4    -14670.77348  24853995.10948
  23017164.242 5   -303137.512 5   -144930.63348  23017164.15648
  20800836.484 6    -90089.391 6    -54353.09448  20800833.67248
  21559328.758 6    -38281.570 6    -20941.22349  21559330.57449
  20920905.375 7   -213837.414 7   -133572.46949  20920905.42649
  22088294.734 6    -62387.855 6    -39015.77748  22088292.75048
 20  5 16  0 25 53.0000000  0  6G03G08G16G26G27G31                   0.000333147
  24853876.727 4    -30711.664 4    -15146.63748  24853878.78148
  23016053.859 5   -308972.188 5   -149477.12948  23016054.15248
  20800477.336 6    -91980.316 6    -55826.55148  20800474.17248
  21559186.586 6    -39027.570 6    -21522.52749  21559188.42249
  20920029.625 7   -218439.383 7   -137158.41849  20920029.27749
  22088067.727 6    -63580.207 6    -39944.87548  22088066.07448
 20  5 16  0 25 54.0000000  0  6G03G08G16G26G27G31                   0.000331650
  24853760.000 4    -31323.734 4    -15623.58248  24853762.28948
  23014942.977 5   -314808.078 5   -154024.58248  23014943.66048
  20800116.680 6    -93872.402 6    -57300.90248  20800113.87148
  21559044.398 6    -39774.984 6    -22104.92649  21559046.45349
  20919153.680 7   -223042.219 7   -140745.04749  20919153.24649
  22087840.945 6    -64773.793 6    -40874.93847  22087838.72347
 20  5 16  0 25 55.0000000  0  6G03G08G16G26G27G31                   0.000330151
  24853643.898 4    -31937.078 4    -16101.50848  24853645.56348
  23013832.141 5   -320645.063 5   -158572.89148  23013833.12148
  20799756.836 6    -95765.574 6    -58776.09848  20799753.79748
  21558902.688 6    -40523.660 6    -22688.31349  21558904.08249
  20918277.555 7   -227645.875 7   -144332.30949  20918277.34449
  22087613.563 6    -65968.477 6    -41805.86347  22087611.59847
 20  5 16  0 25 56.0000000  0  6G03G08G16G26G27G31                   0.000328651
  24853526.422 4    -32551.668 4    -16580.41448  24853528.98048
  23012720.695 5   -326483.164 5   -163122.06648  23012722.23848
  20799396.305 6    -97659.801 6    -60252.12548  20799393.29348
  21558759.508 6    -41273.617 6    -23272.69549  21558761.19949
  20917401.250 7   -232250.344 7   -147920.20349  20917400.96149
  22087385.594 6    -67164.266 6    -42737.64847  22087383.66847
 20  5 16  0 25 57.0000000  0  6G03G08G16G26G27G31                   0.000327152
  24853409.313 4    -33167.574 4    -17060.34448  24853412.10548
  23011609.578 5   -332322.406 5   -167672.12948  23011611.43848
  20799035.336 6    -99555.188 6    -61729.03948  20799032.33648
  21558616.531 6    -42024.934 6    -23858.14149  21558618.06649
  20916525.172 7   -236855.676 7   -151508.77749  20916524.78549
  22087157.727 6    -68361.250 6    -43670.37147  22087156.13347
 20  5 16  0 25 58.0000000  0  6G03G08G16G26G27G31                   0.000325651
  24853291.719 4    -33784.797 4    -17541.29748  24853294.37948
  23010498.273 5   -338162.760 5   -172223.04149  23010500.21949
  20798674.813 6   -101451.629 6    -63206.79748  20798671.70748
  21558473.477 6    -42777.496 6    -24444.55549  21558475.15649
  20915648.172 7   -241461.848 7   -155097.99649  20915648.89149
  22086930.023 7    -69559.293 7    -44603.93448  22086927.98048
 20  5 16  0 25 59.0000000  0  6G03G08G16G26G27G31                   0.000324148
  24853173.820 3    -34403.273 3    -18023.23848  24853177.03148
  23009387.000 5   -344004.262 5   -176774.83649  23009388.28949
  20798312.977 6   -103349.168 6    -64685.41048  20798310.62148
  21558329.961 6    -43531.371 6    -25031.99249  21558331.54749
  20914771.641 7   -246068.781 7   -158687.80149  20914771.27049
  22086701.984 6    -70758.531 6    -45538.43848  22086699.74648
 20  5 16  0 26  0.0000000  0  6G03G08G16G26G27G31                   0.000322645
  24853055.938 4    -35023.000 4    -18506.15648  24853058.86748
  23008274.969 5   -349846.828 5   -181327.47349  23008276.37149
  20797952.070 6   -105247.734 6    -66164.81348  20797949.15648
  21558186.453 6    -44286.535 6    -25620.43049  21558188.03949
  20913895.313 7   -250676.512 7   -162278.23449  20913895.03549
  22086473.633 7    -71958.836 7    -46473.75448  22086471.49648
 20  5 16  0 26  1.0000000  0  6G03G08G16G26G27G31                   0.000321142
  24852937.758 4    -35644.070 4    -18990.10948  24852941.05948
  23007163.016 5   -355690.590 5   -185881.05149  23007164.16849
  20797590.344 6   -107147.469 6    -67645.13348  20797588.12548
  21558042.523 6    -45043.059 6    -26209.91849  21558043.39849
  20913017.953 7   -255285.137 7   -165869.37949  20913017.91449
  22086244.555 6    -73160.344 6    -47409.99248  22086242.91448
 20  5 16  0 26  2.0000000  0  6G03G08G16G26G27G31                   0.000319637
  24852819.234 4    -36266.422 4    -19475.05948  24852822.71548
  23006050.945 5   -361535.488 5   -190435.51249  23006052.14849
  20797228.516 6   -109048.305 6    -69126.30148  20797226.14148
  21557898.531 6    -45800.840 6    -26800.39549  21557899.52349
  20912140.891 7   -259894.566 7   -169461.14149  20912141.03549
  22086015.688 6    -74362.969 6    -48347.09848  22086014.00448
 20  5 16  0 26  3.0000000  0  6G03G08G16G26G27G31                   0.000318132
  24852700.570 4    -36890.012 4    -19960.96948  24852704.39848
  23004938.414 5   -367381.523 5   -194990.86749  23004939.83249
  20796866.570 7   -110950.203 7    -70608.29748  20796864.18848
  21557753.883 6    -46559.984 6    -27391.94149  21557755.10549
  20911263.445 7   -264504.832 7   -173053.55949  20911263.37949
  22085786.656 6    -75566.742 6    -49285.09448  22085784.70748
 20  5 16  0 26  4.0000000  0  6G03G08G16G26G27G31                   0.000316626
  24852582.156 3    -37514.824 3    -20447.83648  24852585.64848
  23003825.688 5   -373228.617 5   -199547.04349  23003827.11749
  20796504.352 6   -112853.156 6    -72091.12148  20796502.18848
  21557609.039 6    -47320.332 6    -27984.42649  21557610.51249
  20910386.063 7   -269115.840 7   -176646.55149  20910386.02749
  22085557.602 6    -76771.570 6    -50223.92248  22085555.40248
 20  5 16  0 26  5.0000000  0  6G03G08G16G26G27G31                   0.000315119
  24852462.555 4    -38140.980 4    -20935.74648  24852465.91048
  23002712.492 5   -379076.793 5   -204104.06349  23002714.04749
  20796142.320 6   -114757.141 6    -73574.74248  20796139.83248
  21557464.266 6    -48081.957 6    -28577.89849  21557465.26249
  20909508.453 7   -273727.676 7   -180240.19549  20909508.66449
  22085327.859 6    -77977.504 6    -51163.60948  22085326.18048
 20  5 16  0 26  6.0000000  0  6G03G08G16G26G27G31                   0.000313610
  24852344.023 3    -38768.355 3    -21424.61348  24852346.48048
  23001599.609 5   -384926.094 5   -208661.96949  23001601.09049
  20795779.844 6   -116662.230 6    -75059.23448  20795777.25048
  21557318.531 6    -48844.902 6    -29172.40249  21557320.16849
  20908630.227 7   -278340.324 7   -183834.46949  20908630.52749
  22085098.484 6    -79184.590 6    -52104.20348  22085096.79348
 20  5 16  0 26  7.0000000  0  6G03G08G16G26G27G31                   0.000312101
  24852224.742 4    -39397.070 4    -21914.52748  24852226.85948
  23000486.438 5   -390776.582 5   -213220.79749  23000488.02349
  20795417.047 6   -118568.500 6    -76544.63748  20795414.20348
  21557173.867 6    -49609.191 6    -29767.95349  21557174.85549
  20907752.648 7   -282953.836 7   -187429.40649  20907752.62949
  22084868.680 6    -80392.848 6    -53045.69548  22084866.46948
 20  5 16  0 26  8.0000000  0  6G03G08G16G26G27G31                   0.000310591
  24852104.266 4    -40027.059 4    -22405.43448  24852107.04748
  22999372.883 5   -396628.172 5   -217780.48849  22999374.11349
  20795054.133 6   -120475.820 6    -78030.86348  20795051.71148
  21557027.805 6    -50374.766 6    -30364.50849  21557029.18049
  20906874.617 7   -287568.176 7   -191025.00049  20906874.75449
  22084638.055 6    -81602.234 6    -53988.07848  22084636.49248
 20  5 16  0 26  9.0000000  0  6G03G08G16G26G27G31                   0.000309080
  24851983.414 4    -40658.395 4    -22897.39148  24851987.02348
  22998259.430 5   -402480.910 5   -222341.05949  22998260.66049
  20794691.094 6   -122384.250 6    -79517.94948  20794688.18848
  21556881.852 6    -51141.652 6    -30962.07849  21556883.30549
  20905996.422 7   -292183.328 7   -194621.22349  20905996.26649
  22084407.383 6    -82812.750 6    -54931.33648  22084405.94148
 20  5 16  0 26 10.0000000  0  6G03G08G16G26G27G31                   0.000307570
  24851863.305 4    -41290.840 4    -23390.20348  24851866.60248
  22997145.078 5   -408334.684 5   -226902.44149  22997146.80149
  20794327.820 6   -124293.656 6    -81005.79348  20794325.10248
  21556735.945 6    -51909.727 6    -31560.58249  21556736.99249
  20905118.148 7   -296799.211 7   -198218.01649  20905118.07849
  22084177.273 6    -84024.297 6    -55875.39548  22084175.50848
 20  5 16  0 26 11.0000000  0  6G03G08G16G26G27G31                   0.000306057
  24851743.063 4    -41924.531 4    -23883.99248  24851745.88348
  22996031.000 5   -414189.578 5   -231464.69149  22996032.72749
  20793964.398 7   -126204.129 7    -82494.48048  20793961.46548
  21556589.250 6    -52679.070 6    -32160.07049  21556590.72749
  20904239.477 7   -301415.891 7   -201815.42249  20904239.55949
  22083946.797 6    -85236.926 6    -56820.30548  22083944.53548
 20  5 16  0 26 12.0000000  0  6G03G08G16G26G27G31                   0.000304544
  24851621.305 3    -42559.348 3    -24378.65248  24851624.97348
  22994917.320 5   -420045.359 5   -236027.63749  22994918.30549
  20793600.242 6   -128115.473 6    -83983.83648  20793597.75048
  21556442.844 6    -53449.535 6    -32760.43049  21556444.34449
  20903360.711 7   -306033.148 7   -205413.28949  20903361.14149
  22083715.680 6    -86450.496 6    -57765.94948  22083713.78148
 20  5 16  0 26 13.0000000  0  6G03G08G16G26G27G31                   0.000303030
  24851500.766 4    -43195.418 4    -24874.28548  24851504.02048
  22993802.164 5   -425902.266 5   -240591.45349  22993803.71949
  20793236.047 6   -130027.914 6    -85474.04348  20793233.62548
  21556296.156 6    -54221.277 6    -33361.79349  21556297.25449
  20902482.016 7   -310651.250 7   -209011.80949  20902482.05549
  22083484.492 6    -87665.195 6    -58712.46948  22083482.50848
 20  5 16  0 26 14.0000000  0  6G03G08G16G26G27G31                   0.000301514
  24851379.000 4    -43832.738 4    -25370.89848  24851382.93848
  22992687.352 5   -431760.270 5   -245156.13749  22992688.80949
  20792872.328 6   -131941.410 6    -86965.08648  20792870.10248
  21556149.133 6    -54994.289 6    -33964.14149  21556150.10549
  20901603.328 7   -315270.141 7   -212610.93849  20901603.27349
  22083253.273 6    -88880.988 6    -59659.84048  22083250.89548
 20  5 16  0 26 15.0000000  0  6G03G08G16G26G27G31                   0.000299999
  24851258.414 4    -44471.352 4    -25868.52048  24851261.12148
  22991572.703 5   -437619.414 5   -249721.70349  22991574.05149
  20792508.031 6   -133856.000 6    -88456.97748  20792505.15248
  21556001.211 6    -55768.613 6    -34567.50449  21556003.14149
  20900723.875 7   -319889.824 7   -216210.69549  20900724.00449
  22083021.984 6    -90097.895 6    -60608.08248  22083019.78548
 20  5 16  0 26 16.0000000  0  6G03G08G16G26G27G31                   0.000298483
  24851136.859 4    -45111.168 4    -26367.09048  24851139.37548
  22990457.461 5   -443479.574 5   -254288.05949  22990459.00449
  20792143.367 6   -135771.598 6    -89949.64848  20792140.84048
  21555853.602 6    -56544.172 6    -35171.84049  21555854.85549
  20899845.109 7   -324510.289 7   -219811.05549  20899844.78949
  22082790.141 6    -91315.875 6    -61557.16448  22082788.07048
 20  5 16  0 26 17.0000000  0  6G03G08G16G26G27G31                   0.000296965
  24851013.859 4    -45752.258 4    -26866.64848  24851017.47348
  22989341.977 5   -449340.887 5   -258855.31349  22989343.59849
  20791778.547 6   -137688.285 6    -91443.17248  20791776.15648
  21555705.805 6    -57321.004 6    -35777.16049  21555707.18049
  20898965.102 7   -329131.551 7   -223412.03949  20898965.29749
  22082557.859 6    -92534.969 6    -62507.10548  22082555.52048
 20  5 16  0 26 18.0000000  0  6G03G08G16G26G27G31                   0.000295446
  24850892.117 4    -46394.563 4    -27367.14848  24850894.73848
  22988226.320 5   -455203.230 5   -263423.36749  22988228.27749
  20791413.727 6   -139605.977 6    -92937.47748  20791410.89848
  21555557.797 6    -58099.035 6    -36383.42249  21555559.62149
  20898085.734 7   -333753.578 7   -227013.62149  20898086.13349
  22082325.938 6    -93755.113 6    -63457.86748  22082323.80948
 20  5 16  0 26 19.0000000  0  7G03G08G14G16G26G27G31                0.000293928
  24850769.914 4    -47038.152 4    -27868.64548  24850772.82848
  22987110.891 5   -461066.684 5   -267992.29349  22987112.15649
  22734161.03915     31070.21515     19808.02757  22734159.79757
  20791049.023 6   -141524.754 6    -94432.62948  20791045.78948
  21555409.883 6    -58878.395 6    -36990.71949  21555411.13749
  20897206.313 7   -338376.402 7   -230615.82449  20897206.32049
  22082093.398 7    -94976.387 7    -64409.51248  22082091.59448
 20  5 16  0 26 20.0000000  0  8G03G04G08G14G16G26G27G31             0.000292408
  24850647.117 4    -47682.996 4    -28371.12548  24850649.87548
  22229224.76616   -160977.70316   -111374.90258  22229224.05958
  22985995.148 5   -466931.184 5   -272562.03549  22985996.28149
  22734332.359 5     31968.977 5     20508.36347  22734330.78547
  20790683.445 6   -143444.594 6    -95928.60248  20790680.52048
  21555260.758 6    -59658.984 6    -37598.97349  21555262.44549
  20896326.617 7   -342999.988 7   -234218.61349  20896326.28949
  22081860.797 7    -96198.742 7    -65361.99248  22081858.71148
 20  5 16  0 26 21.0000000  0  8G03G04G08G14G16G26G27G31             0.000290886
  24850524.156 4    -48328.966 4    -28874.47648  24850527.50848
  22228361.117 6   -165514.723 6   -114910.24648  22228360.66448
  22984878.477 5   -472796.777 5   -277132.62949  22984880.06649
  22734502.969 5     32866.656 5     21207.84847  22734501.05947
  20790317.773 6   -145365.422 6    -97425.35248  20790315.43448
  21555112.305 6    -60440.832 6    -38208.20749  21555113.50849
  20895446.289 7   -347624.344 7   -237822.01249  20895446.74249
  22081628.055 6    -97422.152 6    -66315.29348  22081625.90648
 20  5 16  0 26 22.0000000  0  8G03G04G08G14G16G26G27G31             0.000289364
  24850401.164 4    -48976.375 4    -29378.95348  24850404.24248
  22227497.508 6   -170052.660 6   -118446.30148  22227497.16048
  22983761.633 5   -478663.555 5   -281704.14549  22983763.54749
  22734673.820 5     33763.227 5     21906.46947  22734672.21147
  20789952.063 6   -147287.395 6    -98923.00048  20789949.57048
  21554963.445 6    -61224.004 6    -38818.46949  21554964.59049
  20894566.070 7   -352249.551 7   -241426.07449  20894566.29349
  22081394.969 6    -98646.727 6    -67269.50848  22081392.89148
 20  5 16  0 26 23.0000000  0  8G03G04G08G14G16G26G27G31             0.000287842
  24850277.695 4    -49624.867 4    -29884.26648  24850280.68448
  22226634.070 6   -174591.355 6   -121982.94948  22226633.53148
  22982645.289 5   -484531.285 5   -286276.40249  22982646.64849
  22734843.508 5     34658.824 5     22604.33647  22734842.15247
  20789586.273 7   -149210.340 7   -100421.39548  20789583.36348
  21554814.563 6    -62008.355 6    -39429.65249  21554815.25049
  20893685.672 7   -356875.441 7   -245030.66049  20893686.14849
  22081161.734 6    -99872.332 6    -68224.52348  22081159.87548
 20  5 16  0 26 24.0000000  0  8G03G04G08G14G16G26G27G31             0.000286318
  24850154.055 4    -50274.535 4    -30390.50048  24850156.71948
  22225769.852 6   -179130.867 6   -125520.23048  22225769.23448
  22981528.531 5   -490400.066 5   -290849.47749  22981530.03149
  22735014.094 6     35553.371 6     23301.37947  22735012.62947
  20789219.984 6   -151134.289 6   -101920.58248  20789217.40248
  21554664.547 6    -62793.918 6    -40041.78149  21554665.78949
  20892805.555 7   -361502.102 7   -248635.85549  20892805.25449
  22080928.102 6   -101098.969 6    -69180.34848  22080926.01248
 20  5 16  0 26 25.0000000  0  8G03G04G08G14G16G26G27G31             0.000284794
  24850030.430 4    -50925.559 4    -30897.80148  24850033.24648
  22224905.797 6   -183671.246 6   -129058.19148  22224905.51648
  22980411.352 5   -496269.953 5   -295423.41049  22980413.06649
  22735184.219 5     36446.832 5     23997.58647  22735182.65247
  20788853.516 6   -153059.305 6   -103420.59448  20788850.66848
  21554514.922 6    -63580.781 6    -40654.92249  21554516.13349
  20891924.797 7   -366129.527 7   -252241.63749  20891924.85949
  22080694.547 7   -102326.715 7    -70137.03548  22080692.53148
 20  5 16  0 26 26.0000000  0  8G03G04G08G14G16G26G27G31             0.000283268
  24849906.539 4    -51577.758 4    -31406.00848  24849909.18848
  22224041.633 6   -188212.434 6   -132596.78148  22224041.22348
  22979294.695 5   -502140.934 5   -299998.19949  22979295.77049
  22735353.602 5     37339.246 5     24692.98047  22735352.53947
  20788487.320 6   -154985.328 6   -104921.38748  20788484.59448
  21554364.859 6    -64368.871 6    -41269.01649  21554366.53549
  20891043.898 7   -370757.723 7   -255848.02749  20891044.10949
  22080460.477 6   -103555.531 6    -71094.55548  22080458.52348
 20  5 16  0 26 27.0000000  0  8G03G04G08G14G16G26G27G31             0.000281742
  24849781.852 4    -52231.234 4    -31915.20748  24849784.33248
  22223177.445 6   -192754.527 6   -136136.07848  22223176.92248
  22978176.648 5   -508012.987 5   -304573.82049  22978178.24649
  22735523.289 5     38230.598 5     25387.54347  22735521.80147
  20788120.789 6   -156912.496 6   -106423.07448  20788117.58248
  21554214.875 6    -65158.266 6    -41884.13349  21554216.47749
  20890163.164 7   -375386.719 7   -259455.03149  20890163.56349
  22080226.719 6   -104785.484 6    -72052.96148  22080224.77748
 20  5 16  0 26 28.0000000  0  8G03G04G08G14G16G26G27G31             0.000280216
  24849656.852 4    -52885.973 4    -32425.39548  24849659.69148
  22222313.297 6   -197297.465 6   -139676.02048  22222312.70748
  22977059.320 5   -513886.145 5   -309150.31649  22977060.56349
  22735692.883 5     39120.789 5     26081.19147  22735691.50447
  20787753.711 6   -158840.691 6   -107925.56648  20787750.74248
  21554064.547 6    -65948.926 6    -42500.23849  21554065.37149
  20889282.648 7   -380016.531 7   -263062.68049  20889282.29749
  22079992.328 6   -106016.531 6    -73012.22348  22079990.77748
 20  5 16  0 26 29.0000000  0  8G03G04G08G14G16G26G27G31             0.000278688
  24849532.695 4    -53541.926 4    -32936.52048  24849535.21548
  22221448.625 6   -201841.184 6   -143216.57048  22221447.98048
  22975941.672 5   -519760.348 5   -313727.62149  22975943.04349
  22735861.805 5     40010.039 5     26774.11747  22735860.72747
  20787386.469 6   -160769.863 6   -109428.82848  20787383.89848
  21553913.641 6    -66740.766 6    -43117.25449  21553914.91449
  20888400.891 7   -384647.023 7   -266670.85549  20888401.08649
  22079758.242 6   -107248.609 6    -73972.28148  22079755.95348
 20  5 16  0 26 30.0000000  0  8G03G04G08G14G16G26G27G31             0.000277159
  24849407.742 4    -54199.169 4    -33448.65448  24849410.10548
  22220583.953 6   -206385.836 6   -146757.86748  22220583.11748
  22974823.734 5   -525635.633 5   -318305.76649  22974824.66849
  22736030.961 5     40898.117 5     27466.12147  22736029.96547
  20787018.875 6   -162700.184 6   -110932.97348  20787016.10548
  21553762.117 6    -67533.941 6    -43735.31649  21553764.03949
  20887519.891 7   -389278.398 7   -270279.71549  20887519.99249
  22079523.289 6   -108481.836 6    -74933.23848  22079521.68048
 20  5 16  0 26 31.0000000  0  8G03G04G08G14G16G26G27G31             0.000275631
  24849281.695 4    -54857.516 4    -33961.64148  24849284.42648
  22219718.859 6   -210931.215 6   -150299.72348  22219718.25048
  22973705.563 5   -531511.969 5   -322884.73049  22973706.50049
  22736199.922 5     41785.234 5     28157.37947  22736198.78147
  20786651.820 6   -164631.445 6   -112437.85248  20786649.19148
  21553611.438 6    -68328.332 6    -44354.32449  21553613.09449
  20886638.430 7   -393910.469 7   -273889.12949  20886638.52049
  22079288.477 7   -109716.078 7    -75894.98848  22079286.64548
 20  5 16  0 26 32.0000000  0  8G03G04G08G14G16G26G27G31             0.000274101
  24849156.102 4    -55517.164 4    -34475.66048  24849159.17248
  22218853.703 6   -215477.477 6   -153842.27348  22218853.12948
  22972586.648 5   -537389.410 5   -327464.55149  22972587.86749
  22736367.797 5     42671.305 5     28847.82847  22736367.25047
  20786283.992 6   -166563.762 6   -113943.54748  20786281.28948
  21553460.156 6    -69123.918 6    -44974.26649  21553461.19149
  20885756.898 7   -398543.293 7   -277499.12149  20885757.10949
  22079053.445 6   -110951.383 6    -76857.56348  22079051.75848
 20  5 16  0 26 33.0000000  0  8G03G04G08G14G16G26G27G31             0.000272570
  24849031.234 4    -56177.984 4    -34990.59048  24849033.38748
  22217988.383 6   -220024.523 6   -157385.42248  22217987.75448
  22971467.891 5   -543267.828 5   -332045.14149  22971469.44949
  22736536.352 5     43556.309 5     29537.43847  22736535.71547
  20785916.227 6   -168497.063 6   -115450.02048  20785913.12548
  21553308.516 6    -69920.758 6    -45595.17649  21553309.61349
  20884875.102 7   -403176.863 7   -281109.68849  20884875.08249
  22078817.992 6   -112187.754 6    -77820.96948  22078816.10548
 20  5 16  0 26 34.0000000  0  8G03G04G08G14G16G26G27G31             0.000271038
  24848904.398 4    -56840.098 4    -35506.52048  24848907.50048
  22217122.750 6   -224572.414 6   -160929.23048  22217122.28948
  22970349.172 5   -549147.387 5   -336626.61349  22970350.50049
  22736704.570 5     44440.242 5     30226.21147  22736703.54347
  20785548.023 6   -170431.465 6   -116957.34848  20785545.09448
  21553156.328 6    -70718.867 6    -46217.07849  21553157.94949
  20883993.141 7   -407811.230 7   -284720.89149  20883993.10949
  22078582.992 6   -113425.219 6    -78785.23048  22078580.69948
 20  5 16  0 26 35.0000000  0  8G03G04G08G14G16G26G27G31             0.000269505
  24848778.336 4    -57503.355 4    -36023.34848  24848780.93848
  22216257.086 6   -229121.141 6   -164473.68848  22216256.57048
  22969230.789 5   -555027.977 5   -341208.88749  22969231.51249
  22736872.797 5     45323.152 5     30914.19147  22736871.83647
  20785179.508 6   -172366.852 6   -118465.44148  20785176.82448
  21553004.617 6    -71518.223 6    -46839.96149  21553006.04749
  20883111.281 7   -412446.332 7   -288332.65649  20883111.48449
  22078346.969 6   -114663.750 6    -79750.31348  22078345.28548
 20  5 16  0 26 36.0000000  0  8G03G04G08G14G16G26G27G31             0.000267971
  24848651.672 4    -58167.961 4    -36541.22748  24848654.21148
  22215391.281 6   -233670.738 6   -168018.83248  22215390.71548
  22968110.859 5   -560909.672 5   -345792.02349  22968112.03549
  22737040.531 5     46204.957 5     31601.30947  22737039.50047
  20784811.289 7   -174303.324 7   -119974.37948  20784808.71548
  21552852.242 6    -72318.852 6    -47463.82449  21552853.53549
  20882229.047 7   -417082.219 7   -291945.04349  20882228.82049
  22078110.922 6   -115903.391 6    -80716.27048  22078109.07448
 20  5 16  0 26 37.0000000  0  8G03G04G08G14G16G26G27G31             0.000266436
  24848525.125 4    -58833.703 4    -37059.98848  24848527.55148
  22214525.734 6   -238221.113 6   -171564.57048  22214525.11348
  22966992.047 5   -566792.402 5   -350375.97349  22966992.60249
  22737208.484 5     47085.750 5     32287.63347  22737206.95347
  20784442.688 6   -176240.797 6   -121484.09848  20784439.75448
  21552699.406 6    -73120.660 6    -48088.61349  21552700.72349
  20881346.461 7   -421718.867 7   -295558.00849  20881346.78149
  22077874.945 6   -117144.043 6    -81683.01248  22077873.20348
 20  5 16  0 26 38.0000000  0  8G03G04G08G14G16G26G27G31             0.000264902
  24848398.031 4    -59500.648 4    -37579.68848  24848400.80148
  22213659.250 6   -242772.273 6   -175110.93448  22213659.10248
  22965872.109 5   -572676.156 5   -354960.71549  22965873.15249
  22737375.805 5     47965.531 5     32973.18447  22737374.57447
  20784073.914 6   -178179.270 6   -122994.59448  20784071.14148
  21552546.727 6    -73923.730 6    -48714.38349  21552547.80949
  20880463.977 7   -426356.223 7   -299171.53549  20880464.50849
  22077638.375 6   -118385.750 6    -82650.58248  22077636.40648
 20  5 16  0 26 39.0000000  0  8G03G04G08G14G16G26G27G31             0.000263365
  24848271.180 4    -60168.848 4    -38100.36748  24848273.41848
  22212793.484 6   -247324.262 6   -178657.93848  22212793.01248
  22964752.273 5   -578560.965 5   -359546.27749  22964753.32049
  22737543.016 5     48844.266 5     33657.91447  22737541.67247
  20783704.555 6   -180118.762 6   -124505.88748  20783702.02748
  21552393.352 6    -74728.000 6    -49341.08649  21552394.82849
  20879581.453 7   -430994.328 7   -302785.64149  20879581.96149
  22077402.148 6   -119628.527 6    -83618.98448  22077399.88748
 20  5 16  0 26 40.0000000  0  8G03G04G08G14G16G26G27G31             0.000261829
  24848144.016 4    -60838.203 4    -38621.93848  24848146.08648
  22211927.094 6   -251877.066 6   -182205.58248  22211926.53948
  22963632.547 5   -584446.809 5   -364132.65249  22963633.28149
  22737710.258 5     49722.000 5     34341.86347  22737708.88747
  20783335.016 6   -182059.258 6   -126017.96148  20783332.47748
  21552240.477 6    -75533.477 6    -49968.73049  21552241.68449
  20878698.805 7   -435633.172 7   -306400.32849  20878698.79749
  22077165.445 7   -120872.324 7    -84588.17648  22077163.47348
 20  5 16  0 26 41.0000000  0  8G03G04G08G14G16G26G27G31             0.000260290
  24848015.977 4    -61508.805 4    -39144.48448  24848018.53148
  22211060.258 6   -256430.652 6   -185753.82448  22211060.16448
  22962512.094 5   -590333.707 5   -368719.85249  22962512.81649
  22737877.188 5     50598.676 5     35024.98047  22737875.91847
  20782966.055 6   -184000.762 6   -127530.82448  20782963.09848
  21552087.078 6    -76340.191 6    -50597.34049  21552088.40249
  20877815.625 7   -440272.746 7   -310015.58249  20877815.82049
  22076928.539 6   -122117.188 6    -85558.20348  22076926.99648
 20  5 16  0 26 42.0000000  0  8G03G04G08G14G16G26G27G31             0.000258753
  24847888.727 4    -62180.551 4    -39667.91848  24847890.75848
  22210193.656 6   -260985.004 6   -189302.67248  22210193.05948
  22961391.672 5   -596221.617 5   -373307.83249  22961392.47349
  22738043.273 5     51474.395 5     35707.35947  22738042.28947
  20782595.633 6   -185943.227 6   -129044.43448  20782593.29348
  21551933.344 6    -77148.078 6    -51226.85949  21551934.59049
  20876932.992 7   -444913.031 7   -313631.38749  20876932.99649
  22076691.398 6   -123363.035 6    -86528.99248  22076689.42648
 20  5 16  0 26 43.0000000  0  8G03G04G08G14G16G26G27G31             0.000257214
  24847760.672 4    -62853.457 4    -40192.25048  24847762.75448
  22209327.133 6   -265540.164 6   -192852.14848  22209326.49248
  22960270.969 5   -602110.563 5   -377896.61749  22960271.68049
  22738209.414 5     52349.051 5     36388.91447  22738208.55147
  20782226.094 6   -187886.707 6   -130558.83248  20782223.51648
  21551779.258 6    -77957.180 6    -51857.32849  21551780.34849
  20876049.781 7   -449554.020 7   -317247.74249  20876049.91849
  22076454.109 6   -124609.961 6    -87500.61748  22076452.55948
 20  5 16  0 26 44.0000000  0  8G03G04G08G14G16G26G27G31             0.000255672
  24847631.898 4    -63527.609 4    -40717.57048  24847633.84848
  22208459.828 6   -270096.148 6   -196402.26648  22208459.09048
  22959150.133 5   -608000.547 5   -382486.21549  22959151.10249
  22738376.352 5     53222.691 5     37069.66847  22738374.70747
  20781856.156 6   -189831.191 6   -132074.01248  20781853.55548
  21551625.141 6    -78767.523 6    -52488.77049  21551626.52049
  20875166.586 7   -454195.770 7   -320864.68849  20875166.59449
  22076217.195 6   -125857.930 6    -88473.06348  22076214.89848
 20  5 16  0 26 45.0000000  0  8G03G04G08G14G16G26G27G31             0.000254131
  24847502.961 4    -64203.039 4    -41243.87548  24847505.23848
  22207593.039 6   -274652.996 6   -199953.06348  22207592.48048
  22958028.750 5   -613891.621 5   -387076.66449  22958029.89549
  22738542.320 5     54095.211 5     37749.54747  22738540.48847
  20781485.953 6   -191776.797 6   -133590.07448  20781483.00848
  21551470.406 6    -79579.145 6    -53121.19949  21551471.68049
  20874283.047 7   -458838.316 7   -324482.25849  20874283.09449
  22075979.117 7   -127107.023 7    -89446.38348  22075977.09048
 20  5 16  0 26 46.0000000  0  8G03G04G08G14G16G26G27G31             0.000252590
  24847373.984 4    -64879.707 4    -41771.14848  24847376.52748
  22206726.102 6   -279210.668 6   -203504.50048  22206724.96148
  22956908.023 5   -619783.813 5   -391667.98049  22956909.00049
  22738707.867 5     54966.684 5     38428.61747  22738706.77347
  20781115.953 6   -193723.406 6   -135106.91848  20781113.00448
  21551315.758 6    -80392.031 6    -53754.61349  21551317.19949
  20873399.461 7   -463481.648 7   -328100.44149  20873399.29749
  22075741.125 6   -128357.188 6    -90420.53548  22075738.89848
 20  5 16  0 26 47.0000000  0  8G03G04G08G14G16G26G27G31             0.000251047
  24847245.492 4    -65557.590 4    -42299.37948  24847248.04348
  22205858.406 6   -283769.172 6   -207056.57848  22205857.69548
  22955786.344 5   -625677.023 5   -396260.09449  22955787.27349
  22738873.375 6     55837.152 6     39106.91047  22738872.31647
  20780744.688 6   -195671.047 6   -136624.55548  20780742.53948
  21551160.523 6    -81206.145 6    -54388.99249  21551162.18049
  20872515.828 7   -468125.715 7   -331719.19549  20872515.94149
  22075503.188 6   -129608.398 6    -91395.50448  22075501.20348
 20  5 16  0 26 48.0000000  0  8G03G04G08G14G16G26G27G31             0.000249504
  24847116.563 4    -66236.711 4    -42828.57448  24847118.81648
  22204990.641 6   -288328.508 6   -210609.30548  22204989.79348
  22954664.648 5   -631571.297 5   -400853.03549  22954665.99249
  22739038.797 5     56706.500 5     39784.32847  22739037.53147
  20780374.180 6   -197619.750 6   -138143.02348  20780371.54748
  21551005.531 6    -82021.492 6    -55024.32449  21551007.31649
  20871631.797 7   -472770.578 7   -335338.57049  20871631.46149
  22075264.625 6   -130860.707 6    -92371.32448  22075262.97348
 20  5 16  0 26 49.0000000  0  8G03G04G08G14G16G26G27G31             0.000247959
  24846987.172 4    -66916.969 4    -43358.64848  24846988.96548
  22204122.617 6   -292888.578 6   -214162.60248  22204122.07048
  22953542.648 5   -637466.574 5   -405446.75449  22953544.05149
  22739204.344 5     57574.898 5     40460.99647  22739203.25047
  20780003.266 6   -199569.402 6   -139662.23448  20780000.53948
  21550850.172 6    -82838.016 6    -55660.57849  21550851.66849
  20870747.789 7   -477416.086 7   -338958.44549  20870747.44149
  22075026.250 6   -132113.992 6    -93347.91448  22075024.49248
 20  5 16  0 26 50.0000000  0  8G03G04G08G14G16G26G27G31             0.000246414
  24846857.242 4    -67598.496 4    -43889.70748  24846859.27748
  22203254.453 6   -297449.504 6   -217716.57448  22203254.17648
  22952420.422 5   -643362.930 5   -410041.32049  22952422.18449
  22739369.641 5     58442.230 5     41136.83247  22739368.00047
  20779631.961 6   -201520.094 6   -141182.25848  20779629.26248
  21550694.531 6    -83655.805 6    -56297.82049  21550696.19549
  20869863.328 7   -482062.387 7   -342578.94149  20869863.46549
  22074787.672 7   -133368.371 7    -94325.35548  22074785.32048
 20  5 16  0 26 51.0000000  0  8G03G04G08G14G16G26G27G31             0.000244867
  24846727.688 4    -68281.156 4    -44421.64848  24846729.21548
  22202386.797 6   -302011.188 6   -221271.12948  22202386.16848
  22951298.602 5   -649260.262 5   -414636.64149  22951299.41049
  22739533.992 5     59308.613 5     41811.93447  22739532.45747
  20779260.484 6   -203471.723 6   -142703.00448  20779257.60948
  21550538.367 6    -84474.742 6    -56935.95749  21550540.25449
  20868979.469 7   -486709.375 7   -346199.97349  20868979.76649
  22074548.398 6   -134623.738 6    -95303.56348  22074546.59848
 20  5 16  0 26 52.0000000  0  8G03G04G08G14G16G26G27G31             0.000243320
  24846597.789 4    -68965.023 4    -44954.53148  24846599.68848
  22201518.727 6   -306573.637 6   -224826.28548  22201517.60948
  22950175.883 5   -655158.602 5   -419232.75449  22950177.09849
  22739698.570 5     60173.969 5     42486.24647  22739697.37947
  20778888.906 6   -205424.387 6   -144224.56348  20778886.25048
  21550382.781 6    -85294.910 6    -57575.04749  21550384.37549
  20868094.805 7   -491357.078 7   -349821.55949  20868094.75049
  22074309.383 6   -135880.137 6    -96282.58248  22074307.52048
 20  5 16  0 26 53.0000000  0  8G03G04G08G14G16G26G27G31             0.000241774
  24846467.047 4    -69650.031 4    -45488.30948  24846469.20748
  22200649.828 6   -311136.871 6   -228382.05548  22200649.34448
  22949053.141 5   -661057.957 5   -423829.65249  22949054.80549
  22739863.367 5     61038.328 5     43159.76247  22739861.83247
  20778517.438 6   -207377.996 6   -145746.85248  20778514.54348
  21550226.727 6    -86116.270 6    -58215.06649  21550227.86349
  20867210.320 7   -496005.477 7   -353443.68049  20867210.62549
  22074070.359 6   -137137.547 6    -97262.37548  22074068.57048
 20  5 16  0 26 54.0000000  0  8G03G04G08G14G16G26G27G31             0.000240225
  24846336.344 4    -70336.277 4    -46023.03948  24846338.35548
  22199781.656 6   -315700.883 6   -231938.42648  22199780.97748
  22947930.727 5   -666958.352 5   -428427.36749  22947932.05549
  22740027.734 5     61901.680 5     43832.51247  22740026.38347
  20778145.242 6   -209332.621 6   -147269.93848  20778143.14848
  21550069.930 6    -86938.805 6    -58856.00849  21550071.29349
  20866325.602 7   -500654.602 7   -357066.37949  20866325.58249
  22073830.727 6   -138396.004 6    -98242.99648  22073828.78548
 20  5 16  0 26 55.0000000  0  8G03G04G08G14G16G26G27G31             0.000238676
  24846205.531 4    -71023.660 4    -46558.66848  24846207.91848
  22198912.586 6   -320265.695 6   -235495.43048  22198912.18048
  22946807.508 5   -672859.809 5   -433025.90649  22946808.83649
  22740192.094 5     62763.949 5     44504.40247  22740190.47747
  20777773.531 6   -211288.250 6   -148793.80948  20777770.66048
  21549913.219 6    -87762.578 6    -59497.90649  21549914.78549
  20865440.547 7   -505304.465 7   -360689.64849  20865440.70349
  22073591.398 6   -139655.508 6    -99224.43048  22073589.52748
 20  5 16  0 26 56.0000000  0  8G03G04G08G14G16G26G27G31             0.000237125
  24846074.273 4    -71712.266 4    -47095.24248  24846077.14148
  22198043.766 6   -324831.273 6   -239053.02348  22198043.33648
  22945684.453 5   -678762.242 5   -437625.20349  22945685.67249
  22740356.172 6     63625.305 6     45175.59847  22740354.11747
  20777400.719 6   -213244.828 6   -150318.41448  20777398.03548
  21549756.133 6    -88587.496 6    -60140.70349  21549757.64149
  20864555.797 7   -509955.008 7   -364313.44949  20864555.90649
  22073351.305 6   -140915.984 6   -100206.62148  22073349.31348
 20  5 16  0 26 57.0000000  0  8G03G04G08G14G16G26G27G31             0.000235575
  24845943.516 4    -72402.090 4    -47632.76648  24845945.68848
  22197175.180 6   -329397.703 6   -242611.27748  22197174.87548
  22944561.500 5   -684665.766 5   -442225.34849  22944562.43449
  22740519.281 6     64485.531 6     45845.90247  22740518.05147
  20777028.016 6   -215202.500 6   -151843.87548  20777025.53948
  21549598.961 6    -89413.711 6    -60784.50849  21549600.64849
  20863670.531 7   -514606.340 7   -367937.86749  20863670.79349
  22073111.219 6   -142177.590 6   -101189.68848  22073109.00848
 20  5 16  0 26 58.0000000  0  8G03G04G08G14G16G26G27G31             0.000234022
  24845812.102 4    -73093.234 4    -48171.32048  24845814.27048
  22196306.039 6   -333965.027 6   -246170.23048  22196305.65248
  22943437.609 5   -690570.379 5   -446826.34849  22943438.74649
  22740682.672 5     65344.645 5     46515.33647  22740681.36747
  20776655.555 6   -217161.242 6   -153370.16848  20776652.35948
  21549441.656 6    -90241.238 6    -61429.34049  21549443.05149
  20862785.242 7   -519258.492 7   -371562.91849  20862785.18849
  22072870.859 6   -143440.309 6   -102173.62148  22072869.02748
 20  5 16  0 26 59.0000000  0  8G03G04G08G14G16G26G27G31             0.000232470
  24845680.820 4    -73785.473 4    -48710.73448  24845682.54748
  22195436.219 6   -338533.098 6   -249729.76248  22195435.96148
  22942314.094 5   -696475.969 5   -451428.10549  22942315.23849
  22740845.523 6     66202.820 6     47184.04347  22740844.62947
  20776283.000 7   -219120.941 7   -154897.21148  20776280.00048
  21549283.828 6    -91069.926 6    -62075.07049  21549285.07449
  20861899.914 7   -523911.328 7   -375188.50449  20861900.19949
  22072630.555 6   -144704.023 6   -103158.33248  22072628.75048
 20  5 16  0 27  0.0000000  0  8G03G04G08G14G16G26G27G31             0.000230917
  24845548.211 4    -74478.980 4    -49251.12948  24845550.38348
  22194566.766 6   -343101.996 6   -253289.94148  22194566.60248
  22941189.547 5   -702382.691 5   -456030.75049  22941190.93049
  22741008.328 5     67059.895 5     47851.89547  22741007.51647
  20775909.969 6   -221081.691 6   -156425.06348  20775907.22348
  21549125.781 6    -91899.859 6    -62721.77349  21549127.37549
  20861014.398 7   -528564.938 7   -378814.68849  20861014.71549
  22072389.742 6   -145968.809 6   -104143.87948  22072387.93848
 20  5 16  0 27  1.0000000  0  8G03G04G08G14G16G26G27G31             0.000229362
  24845415.914 4    -75173.781 4    -49792.53548  24845418.35548
  22193698.141 6   -347671.711 6   -256850.76248  22193697.26648
  22940065.305 5   -708290.438 5   -460634.19549  22940066.78949
  22741172.063 5     67915.949 5     48518.94947  22741170.88747
  20775536.258 6   -223043.465 6   -157953.72348  20775533.75848
  21548967.547 6    -92731.051 6    -63369.45749  21548969.07049
  20860128.945 7   -533219.289 7   -382441.45349  20860128.86749
  22072149.000 6   -147234.680 6   -105130.27348  22072146.90648
 20  5 16  0 27  2.0000000  0  8G03G04G08G14G16G26G27G31             0.000227806
  24845283.578 4    -75869.711 4    -50334.81648  24845285.04748
  22192828.148 6   -352242.238 6   -260412.20348  22192827.22348
  22938940.922 5   -714199.211 5   -465238.43449  22938942.63349
  22741334.828 5     68770.961 5     49185.19147  22741333.57447
  20775162.867 6   -225006.258 6   -159483.16448  20775160.13748
  21548809.578 6    -93563.430 6    -64018.06649  21548810.73849
  20859242.836 7   -537874.383 7   -386068.80149  20859242.95349
  22071907.664 6   -148501.582 6   -106117.47348  22071906.10548
 20  5 16  0 27  3.0000000  0  8G03G04G08G14G16G26G27G31             0.000226252
  24845151.242 4    -76566.781 4    -50877.98448  24845153.05948
  22191958.297 6   -356813.496 6   -263974.22748  22191957.15648
  22937816.461 6   -720108.984 6   -469843.45349  22937817.64149
  22741496.828 5     69625.008 5     49850.67247  22741495.58647
  20774789.383 6   -226969.977 6   -161013.33648  20774786.67248
  21548650.875 6    -94396.984 6    -64667.58649  21548652.30949
  20858356.992 7   -542530.148 7   -389696.66849  20858357.10249
  22071666.516 6   -149769.480 6   -107105.44948  22071664.44548
 20  5 16  0 27  4.0000000  0  8G03G04G08G14G16G26G27G31             0.000224695
  24845017.922 5    -77265.063 5    -51422.09848  24845019.62548
  22191088.258 6   -361385.512 6   -267536.83248  22191087.31648
  22936692.008 6   -726019.738 6   -474449.23049  22936693.12949
  22741659.453 5     70478.082 5     50515.40247  22741658.12147
  20774415.164 6   -228934.668 6   -162544.27048  20774412.24248
  21548492.328 6    -95231.703 6    -65318.02049  21548493.27749
  20857470.914 7   -547186.566 7   -393325.05149  20857471.21949
  22071425.000 6   -151038.359 6   -108094.18448  22071423.13748
 20  5 16  0 27  5.0000000  0  8G03G04G08G14G16G26G27G31             0.000223137
  24844885.039 4    -77964.473 4    -51967.09448  24844887.22748
  22190218.055 6   -365958.297 6   -271100.05148  22190217.23048
  22935567.422 5   -731931.504 5   -479055.80549  22935568.36349
  22741821.234 5     71330.145 5     51179.34847  22741820.06647
  20774041.000 6   -230900.332 6   -164075.96148  20774038.60948
  21548333.023 6    -96067.613 6    -65969.37949  21548334.43849
  20856585.023 7   -551843.711 7   -396953.99649  20856584.85249
  22071183.594 6   -152308.258 6   -109083.71948  22071181.30948
 20  5 16  0 27  6.0000000  0  8G03G04G08G14G16G26G27G31             0.000221579
  24844751.672 4    -78665.055 4    -52512.99648  24844753.39148
  22189347.914 6   -370531.836 6   -274663.84848  22189347.04348
  22934441.617 5   -737844.258 5   -483663.14549  22934442.66449
  22741983.375 5     72181.203 5     51842.51647  22741982.15647
  20773666.828 6   -232866.961 6   -165608.39548  20773663.69148
  21548173.531 6    -96904.703 6    -66621.66049  21548174.77349
  20855698.453 7   -556501.563 7   -400583.48849  20855698.59849
  22070941.914 6   -153579.188 6   -110074.05948  22070939.52048
 20  5 16  0 27  7.0000000  0  8G03G04G08G14G16G26G27G31             0.000220018
  24844618.055 5    -79366.809 5    -53059.82448  24844619.71948
  22188477.547 6   -375106.164 6   -278228.26248  22188476.60948
  22933316.578 5   -743758.016 5   -488271.27049  22933317.64149
  22742145.094 5     73031.281 5     52504.91447  22742143.90647
  20773292.625 6   -234834.609 6   -167141.62948  20773289.76248
  21548013.633 6    -97743.012 6    -67274.89149  21548015.30949
  20854811.867 7   -561160.129 7   -404213.54749  20854812.09049
  22070699.695 6   -154851.113 6   -111065.16848  22070697.39848
 20  5 16  0 27  8.0000000  0  8G03G04G08G14G16G26G27G31             0.000218460
  24844484.383 4    -80069.801 4    -53607.60948  24844486.34448
  22187606.977 6   -379681.266 6   -281793.27348  22187606.02048
  22932190.984 5   -749672.789 5   -492880.18849  22932191.80549
  22742306.508 5     73880.352 5     53166.52347  22742305.23047
  20772918.078 6   -236803.246 6   -168675.63348  20772915.06348
  21547854.453 6    -98582.512 6    -67929.04349  21547855.76649
  20853925.031 7   -565819.387 7   -407844.13749  20853925.14549
  22070457.445 6   -156124.074 6   -112057.08648  22070455.27048
 20  5 16  0 27  9.0000000  0  8G03G04G08G14G16G26G27G31             0.000216898
  24844350.336 4    -80773.980 4    -54156.31648  24844352.56348
  22186735.820 6   -384257.199 6   -285358.94148  22186735.33248
  22931065.273 5   -755588.629 5   -497489.93849  22931066.46949
  22742468.313 5     74728.367 5     53827.31347  22742467.21547
  20772542.992 6   -238772.898 6   -170210.43048  20772540.30148
  21547694.125 6    -99423.242 6    -68584.15649  21547695.46149
  20853038.219 7   -570479.406 7   -411475.31649  20853038.73449
  22070214.836 6   -157398.090 6   -113049.82848  22070212.88748
 20  5 16  0 27 10.0000000  0  8G03G04G08G14G16G26G27G31             0.000215338
  24844216.008 4    -81479.242 4    -54705.87548  24844218.14848
  22185865.148 6   -388833.793 6   -288925.12148  22185863.93048
  22929939.344 5   -761505.359 5   -502100.37549  22929940.35949
  22742629.758 5     75575.469 5     54487.38347  22742627.71947
  20772167.664 6   -240743.438 6   -171745.91448  20772164.84048
  21547533.938 6   -100265.098 6    -69240.14849  21547535.29349
  20852151.609 7   -575140.047 7   -415106.98449  20852151.86349
  22069972.570 6   -158673.047 6   -114043.30148  22069970.48448
 20  5 16  0 27 11.0000000  0  8G03G04G08G14G16G26G27G31             0.000213774
  24844081.930 4    -82185.711 4    -55256.36748  24844083.82448
  22184993.969 6   -393411.199 6   -292491.93048  22184993.03548
  22928813.406 5   -767423.160 5   -506711.64849  22928813.94949
  22742790.383 5     76421.555 5     55146.67247  22742789.34847
  20771793.039 6   -242714.980 6   -173282.18048  20771790.15248
  21547373.484 6   -101108.129 6    -69897.05949  21547375.00449
  20851264.406 7   -579801.398 7   -418739.21149  20851264.76649
  22069729.563 6   -159949.016 6   -115037.56348  22069727.45348
 20  5 16  0 27 12.0000000  0  8G03G04G08G14G16G26G27G31             0.000212212
  24843947.156 5    -82893.355 5    -55807.78148  24843949.68048
  22184122.609 6   -397989.348 6   -296059.32048  22184121.82848
  22927686.578 5   -773341.922 5   -511323.67249  22927687.92649
  22742951.273 5     77266.641 5     55805.18047  22742950.11347
  20771417.656 6   -244687.492 6   -174819.20748  20771414.73048
  21547213.195 6   -101952.344 6    -70554.89149  21547214.29749
  20850377.266 7   -584463.449 7   -422371.98049  20850377.80149
  22069486.227 6   -161226.012 6   -116032.62548  22069484.48448
 20  5 16  0 27 13.0000000  0  8G03G04G08G14G16G26G27G31             0.000210648
  24843811.914 4    -83602.148 4    -56360.09048  24843814.74648
  22183251.156 6   -402568.270 6   -299627.31648  22183250.66448
  22926559.992 5   -779261.688 5   -515936.47349  22926561.38349
  22743111.938 5     78110.770 5     56462.92647  22743111.10547
  20771041.781 6   -246660.969 6   -176356.97748  20771039.02748
  21547051.984 6   -102797.754 6    -71213.64849  21547053.39849
  20849489.992 7   -589126.176 7   -426005.26649  20849490.24649
  22069243.156 6   -162503.984 6   -117028.45348  22069241.36348
 20  5 16  0 27 14.0000000  0  8G03G04G08G14G16G26G27G31             0.000209082
  24843677.188 4    -84312.102 4    -56913.30148  24843679.61748
  22182379.820 6   -407147.918 6   -303195.87148  22182379.23048
  22925433.672 5   -785182.434 5   -520550.04349  22925434.37149
  22743272.195 5     78953.891 5     57119.89847  22743270.88747
  20770666.016 6   -248635.410 6   -177895.50048  20770663.39148
  21546891.148 6   -103644.316 6    -71873.31349  21546892.65649
  20848602.461 7   -593789.586 7   -429639.09449  20848603.05149
  22068999.781 6   -163782.969 6   -118025.05948  22068998.03948
 20  5 16  0 27 15.0000000  0  8G03G04G08G14G16G26G27G31             0.000207518
  24843541.734 4    -85023.238 4    -57467.43848  24843544.70348
  22181507.883 6   -411728.371 6   -306765.05548  22181507.51648
  22924306.422 5   -791104.199 5   -525164.40249  22924307.82849
  22743432.688 5     79796.012 5     57776.09047  22743431.52347
  20770290.227 6   -250610.852 6   -179434.80948  20770287.07848
  21546729.219 6   -104492.086 6    -72533.91049  21546731.08249
  20847715.227 7   -598453.746 7   -433273.51249  20847715.27049
  22068756.117 6   -165062.992 6   -119022.48448  22068754.40248
 20  5 16  0 27 16.0000000  0  8G03G04G08G14G16G26G27G31             0.000205950
  24843406.641 4    -85735.566 4    -58022.49648  24843408.96548
  22180636.148 6   -416309.566 6   -310334.82048  22180635.83248
  22923179.570 5   -797026.945 5   -529779.52349  22923180.80549
  22743592.906 5     80637.141 5     58431.52347  22743591.37147
  20769914.008 6   -252587.254 6   -180974.86748  20769911.66848
  21546567.953 6   -105341.031 6    -73195.43049  21546569.56349
  20846827.406 7   -603118.539 7   -436908.41449  20846827.30549
  22068512.664 6   -166344.004 6   -120020.67248  22068510.51248
 20  5 16  0 27 17.0000000  0  8G03G04G08G14G16G26G27G31             0.000204384
  24843270.469 4    -86448.926 4    -58578.36348  24843273.07848
  22179764.734 6   -420891.449 6   -313905.11348  22179764.25448
  22922052.828 5   -802950.609 5   -534395.36749  22922053.50049
  22743752.719 5     81477.391 5     59086.27047  22743751.53947
  20769538.109 6   -254564.512 6   -182515.59048  20769535.16848
  21546406.070 6   -106191.063 6    -73857.78549  21546407.46549
  20845939.547 7   -607783.969 7   -440543.81349  20845939.74649
  22068268.273 6   -167625.918 6   -121019.56348  22068266.68848
 20  5 16  0 27 18.0000000  0  8G03G04G08G14G16G26G27G31             0.000202816
  24843135.430 5    -87163.523 5    -59135.18848  24843137.26248
  22178892.641 6   -425474.148 6   -317476.04748  22178891.77048
  22920924.695 5   -808875.344 5   -539012.04349  22920925.91849
  22743912.414 5     82316.547 5     59740.16047  22743910.91447
  20769161.867 6   -256542.852 6   -184057.15248  20769158.85948
  21546244.281 6   -107042.363 6    -74521.14149  21546245.84849
  20845051.344 7   -612450.156 7   -444179.80949  20845051.66049
  22068024.484 6   -168908.906 6   -122019.29748  22068022.68848
 20  5 16  0 27 19.0000000  0  8G03G04G08G14G16G26G27G31             0.000201246
  24842998.234 4    -87879.363 4    -59692.98448  24843000.60948
  22178020.133 6   -430057.672 6   -321047.61748  22178019.76648
  22919797.055 5   -814801.137 5   -543629.55149  22919798.36749
  22744071.961 5     83154.648 5     60393.21947  22744070.88347
  20768784.641 6   -258522.219 6   -185599.51248  20768782.01648
  21546081.781 6   -107894.863 6    -75185.42649  21546083.63349
  20844163.750 7   -617117.098 7   -447816.37949  20844163.86749
  22067779.734 6   -170192.980 6   -123019.87548  22067778.14548
 20  5 16  0 27 20.0000000  0  8G03G04G08G14G16G26G27G31             0.000199677
  24842861.953 5    -88596.355 5    -60251.68048  24842864.68448
  22177147.703 6   -434641.934 6   -324619.77348  22177147.41848
  22918669.367 5   -820727.887 5   -548247.79749  22918670.34849
  22744231.125 5     83991.809 5     61045.55147  22744229.86347
  20768407.898 6   -260502.520 6   -187142.60548  20768405.41848
  21545919.680 6   -108748.563 6    -75850.64849  21545920.98849
  20843275.359 7   -621784.711 7   -451453.47749  20843275.64149
  22067535.875 7   -171478.035 7   -124021.21948  22067533.65648
 20  5 16  0 27 21.0000000  0  8G03G04G08G14G16G26G27G31             0.000198107
  24842725.680 5    -89314.500 5    -60811.27348  24842727.93048
  22176275.516 6   -439226.961 6   -328192.52048  22176274.55148
  22917541.883 5   -826655.648 5   -552866.84049  22917542.67649
  22744390.266 5     84827.980 5     61697.10947  22744389.10247
  20768031.070 6   -262483.785 6   -188686.44548  20768028.48448
  21545757.250 6   -109603.426 6    -76516.77349  21545758.35949
  20842386.977 7   -626453.008 7   -455091.11349  20842387.16849
  22067290.969 6   -172764.090 6   -125023.34048  22067288.89148
 20  5 16  0 27 22.0000000  0  8G03G04G08G14G16G26G27G31             0.000196535
  24842588.211 4    -90033.781 4    -61371.75048  24842591.11348
  22175402.914 6   -443812.680 6   -331765.80948  22175402.31348
  22916413.234 5   -832584.316 5   -557486.57849  22916414.68049
  22744549.578 5     85663.168 5     62347.89547  22744548.45347
  20767654.094 6   -264465.984 6   -190231.02048  20767651.22748
  21545593.844 6   -110459.422 6    -77183.78549  21545595.42249
  20841498.477 7   -631121.965 7   -458729.26249  20841498.44149
  22067046.227 6   -174051.102 6   -126026.20748  22067044.18848
 20  5 16  0 27 23.0000000  0  8G03G04G08G14G16G26G27G31             0.000194963
  24842451.484 5    -90754.191 5    -61933.10948  24842453.83248
  22174530.234 6   -448399.160 6   -335339.69548  22174529.45748
  22915284.586 5   -838514.016 5   -562107.12949  22915285.77749
  22744708.484 5     86497.395 5     62997.93447  22744707.27047
  20767276.484 6   -266449.113 6   -191776.30948  20767273.77748
  21545431.141 6   -111316.590 6    -77851.71549  21545432.30949
  20840609.773 7   -635791.582 7   -462367.91849  20840609.97349
  22066800.852 6   -175339.102 6   -127029.85548  22066798.66848
 20  5 16  0 27 24.0000000  0  8G03G04G08G14G16G26G27G31             0.000193390
  24842314.008 5    -91475.762 5    -62495.37148  24842316.30948
  22173657.539 6   -452986.324 6   -338914.10548  22173656.76248
  22914156.453 5   -844444.629 5   -566728.38749  22914157.43849
  22744866.672 5     87330.695 5     63647.25447  22744865.26247
  20766899.148 7   -268433.160 7   -193322.32048  20766896.35248
  21545267.578 6   -112174.887 6    -78520.51649  21545269.20749
  20839721.180 7   -640461.832 7   -466007.07449  20839721.00849
  22066555.734 6   -176628.027 6   -128034.20748  22066553.60948
 20  5 16  0 27 25.0000000  0  8G03G04G08G14G16G26G27G31             0.000191816
  24842176.797 4    -92198.504 4    -63058.54748  24842178.99648
  22172784.164 6   -457574.328 6   -342489.17248  22172783.61748
  22913027.594 5   -850376.277 5   -571350.44549  22913028.46149
  22745025.203 5     88162.961 5     64295.77047  22745023.83647
  20766521.414 6   -270418.258 6   -194869.15248  20766518.81348
  21545104.313 6   -113034.398 6    -79190.26249  21545105.38749
  20838832.195 7   -645132.848 7   -469646.82449  20838832.55549
  22066309.984 6   -177918.035 6   -129039.41448  22066307.93448
 20  5 16  0 27 26.0000000  0  8G03G04G08G14G16G26G27G31             0.000190243
  24842039.227 5    -92922.387 5    -63622.60948  24842040.94148
  22171910.758 6   -462163.020 6   -346064.78148  22171910.07448
  22911898.555 5   -856308.891 5   -575973.25849  22911899.44149
  22745183.492 5     88994.258 5     64943.53947  22745182.40647
  20766143.195 6   -272404.270 6   -196416.69948  20766140.51248
  21544940.172 6   -113895.043 6    -79860.90249  21544941.84049
  20837943.461 7   -649804.512 7   -473287.08249  20837943.27749
  22066064.266 6   -179209.008 6   -130045.36748  22066062.34448
 20  5 16  0 27 27.0000000  0  8G03G04G08G14G16G26G27G31             0.000188667
  24841901.523 5    -93647.492 5    -64187.62948  24841903.00848
  22171037.656 6   -466752.539 6   -349641.02048  22171036.95748
  22910769.391 5   -862242.559 5   -580596.89149  22910770.37949
  22745341.633 5     89824.539 5     65590.52047  22745340.01247
  20765764.750 6   -274391.305 6   -197965.03548  20765762.60548
  21544776.344 6   -114756.938 6    -80532.51249  21544777.57849
  20837054.102 7   -654476.906 7   -476927.90649  20837054.66849
  22065818.273 6   -180501.023 6   -131052.12948  22065816.32048
 20  5 16  0 27 28.0000000  0  8G03G04G08G14G16G26G27G31             0.000187092
  24841762.969 5    -94373.727 5    -64753.52348  24841764.69548
