     2.10           OBSERVATION DATA    Mixed(MIXED)        RINEX VERSION / TYPE
cnvtToRINEX 3.07.0  convertToRINEX OPR  19-May-20 12:30 UTC PGM / RUN BY / DATE 
----------------------------------------------------------- COMMENT             
98N0                                                        MARKER NAME         
98N0                                                        MARKER NUMBER       
GNSS Observer       Trimble                                 OBSERVER / AGENCY   
0220379195          TRIMBLE 5700        2.32                REC # / TYPE / VERS 
                    TRM39105.00                             ANT # / TYPE        
 -3050829.1388  4927927.9154  2653577.1648                  APPROX POSITION XYZ 
       -0.0460        0.0000        0.0000                  ANTENNA: DELTA H/E/N
     1     1     0                                          WAVELENGTH FACT L1/2
     4    C1    L1    L2    P2                              # / TYPES OF OBSERV 
  2020     5    16     0    18   49.0000000     GPS         TIME OF FIRST OBS   
  2020     5    16     1    34   37.0000000     GPS         TIME OF LAST OBS    
     0                                                      RCV CLOCK OFFS APPL 
    18                                                      LEAP SECONDS        
    11                                                      # OF SATELLITES     
   G03   582   582   582   582                              PRN / # OF OBS      
   G04  4549  4549  4549  4549                              PRN / # OF OBS      
   G08  4549  4549  4549  4549                              PRN / # OF OBS      
   G09  3498  3498  3498  3498                              PRN / # OF OBS      
   G11  2358  2358  2358  2358                              PRN / # OF OBS      
   G14  3068  3068  3068  3068                              PRN / # OF OBS      
   G16  4549  4549  4549  4549                              PRN / # OF OBS      
   G21  4488  4488  4488  4488                              PRN / # OF OBS      
   G26  4549  4549  4549  4549                              PRN / # OF OBS      
   G27  4549  4549  4549  4549                              PRN / # OF OBS      
   G31  4549  4549  4549  4549                              PRN / # OF OBS      
CARRIER PHASE MEASUREMENTS: PHASE SHIFTS REMOVED            COMMENT             
                                                            END OF HEADER       
 20  5 16  0 18 49.0000000  0  7G04G08G14G16G26G27G31                0.000182940
  22390074.83616   -210744.69116   -126469.14157  22390074.30957
  23256041.79715   -251786.22315   -106816.91058  23256042.57058
  22424278.94515     32851.71515     17118.24657  22424277.85257
  20723302.26616    -86074.63716    -45320.36758  20723299.62558
  21385544.68816    -32725.88316    -18027.69959  21385545.39159
  21065578.46916   -191819.32816   -107707.51259  21065579.50459
  21952756.95316    -54975.57016    -29393.14858  21952755.32058
 20  5 16  0 18 50.0000000  0  7G04G08G14G16G26G27G31                0.000181425
  22389172.188 6   -215486.410 6   -130163.98447  22389171.64847
  23254907.086 5   -257748.426 5   -111462.78148  23254908.08248
  22424426.445 5     33625.664 5     17721.32447  22424425.03947
  20722911.828 6    -88124.105 6    -46917.36348  20722909.40648
  21385389.414 6    -33539.754 6    -18661.87949  21385390.43049
  21064653.648 6   -196679.195 6   -111494.42249  21064654.66449
  21952505.141 6    -56300.414 6    -30425.49648  21952503.11748
 20  5 16  0 18 51.0000000  0  7G04G08G14G16G26G27G31                0.000179913
  22388270.063 6   -220227.285 6   -133858.18048  22388269.82848
  23253772.555 5   -263710.063 5   -116108.21549  23253773.66049
  22424573.781 6     34400.281 6     18324.91447  22424572.25047
  20722522.227 6    -90172.891 6    -48513.81648  20722519.68448
  21385234.125 6    -34353.180 6    -19295.71949  21385235.75049
  21063729.086 6   -201538.141 6   -115280.61749  21063729.89149
  21952253.063 6    -57624.652 6    -31457.37548  21952251.39548
 20  5 16  0 18 52.0000000  0  7G04G08G14G16G26G27G31                0.000178398
  22387368.055 6   -224967.430 6   -137551.80148  22387367.57048
  23252638.461 5   -269671.238 5   -120753.28949  23252639.74649
  22424721.031 5     35175.523 5     18928.99647  22424719.79747
  20722132.516 6    -92221.070 6    -50109.80148  20722129.57848
  21385079.805 6    -35166.211 6    -19929.25049  21385081.11749
  21062804.680 6   -206396.309 6   -119066.19949  21062805.49249
  21952001.555 6    -58948.379 6    -32488.85248  21951999.54348
 20  5 16  0 18 53.0000000  0  7G04G08G14G16G26G27G31                0.000176886
  22386466.492 6   -229706.715 6   -141244.74648  22386465.79748
  23251503.570 5   -275631.746 5   -125397.84049  23251505.33249
  22424868.922 5     35951.477 5     19533.63347  22424867.75447
  20721742.758 6    -94268.523 6    -51705.22348  20721740.09048
  21384925.094 6    -35978.758 6    -20562.41049  21384926.26649
  21061880.609 6   -211253.531 6   -122851.05149  21061880.77049
  21951749.852 6    -60271.461 6    -33519.82448  21951747.91448
 20  5 16  0 18 54.0000000  0  7G04G08G14G16G26G27G31                0.000175373
  22385564.602 6   -234445.074 6   -144936.97748  22385563.90248
  23250369.836 5   -281591.625 5   -130041.90649  23250371.29349
  22425016.563 5     36728.188 5     20138.86347  22425015.66047
  20721353.211 6    -96315.215 6    -53300.04348  20721350.94148
  21384770.781 6    -36790.715 6    -21195.10249  21384771.68449
  21060956.414 7   -216109.777 7   -126635.14549  21060956.86749
  21951498.281 6    -61593.832 6    -34550.25048  21951496.19548
 20  5 16  0 18 55.0000000  0  7G04G08G14G16G26G27G31                0.000173861
  22384663.258 6   -239182.520 6   -148628.49248  22384662.65648
  23249236.023 5   -287550.762 5   -134685.38349  23249237.35249
  22425164.617 5     37505.711 5     20744.72747  22425163.25847
  20720964.203 6    -98361.086 6    -54894.23048  20720961.33248
  21384616.344 6    -37602.137 6    -21827.38349  21384617.70749
  21060032.570 7   -220965.012 7   -130418.44149  21060033.13349
  21951246.328 6    -62915.500 6    -35580.12548  21951244.43448
 20  5 16  0 18 56.0000000  0  7G04G08G14G16G26G27G31                0.000172348
  22383761.711 6   -243919.012 6   -152319.27048  22383761.44948
  23248102.063 5   -293509.195 5   -139328.32049  23248103.29349
  22425313.266 5     38284.035 5     21351.21147  22425311.57047
  20720574.844 6   -100406.168 6    -56487.80148  20720572.12948
  21384462.313 6    -38412.934 6    -22459.17249  21384463.35249
  21059108.813 7   -225819.246 7   -134200.96149  21059109.26249
  21950995.031 6    -64236.434 6    -36609.42248  21950992.93048
 20  5 16  0 18 57.0000000  0  7G04G08G14G16G26G27G31                0.000170835
  22382860.539 6   -248654.496 6   -156009.25048  22382860.37148
  23246968.125 5   -299466.891 5   -143970.67649  23246969.31349
  22425461.219 5     39063.230 5     21958.36747  22425459.95347
  20720185.695 6   -102450.363 6    -58080.68448  20720183.37148
  21384307.844 6    -39223.090 6    -23090.46149  21384309.04749
  21058185.164 7   -230672.379 7   -137982.62549  21058185.80549
  21950743.914 6    -65556.605 6    -37638.12548  21950741.94548
 20  5 16  0 18 58.0000000  0  7G04G08G14G16G26G27G31                0.000169325
  22381959.695 6   -253388.996 6   -159698.46948  22381959.00048
  23245834.719 5   -305423.781 5   -148612.41049  23245835.75849
  22425609.656 5     39843.262 5     22566.18047  22425608.49247
  20719797.094 6   -104493.695 6    -59672.89148  20719794.58648
  21384154.133 6    -40032.602 6    -23721.25449  21384155.05549
  21057261.695 6   -235524.469 6   -141763.47749  21057262.32849
  21950493.273 6    -66875.969 6    -38666.20348  21950491.22748
 20  5 16  0 18 59.0000000  0  7G04G08G14G16G26G27G31                0.000167814
  22381059.289 6   -258122.461 6   -163386.88348  22381058.41048
  23244701.148 5   -311379.941 5   -153253.56649  23244702.61349
  22425758.328 5     40624.188 5     23174.68847  22425756.99647
  20719408.086 6   -106536.184 6    -61264.43848  20719405.44148
  21383999.828 6    -40841.453 6    -24351.52349  21384001.39149
  21056338.586 6   -240375.480 6   -145543.48849  21056339.29749
  21950241.867 6    -68194.535 6    -39693.66048  21950240.10948
 20  5 16  0 19  0.0000000  0  7G04G08G14G16G26G27G31                0.000166304
  22380158.828 6   -262854.910 6   -167074.50448  22380157.60248
  23243568.414 5   -317335.305 5   -157894.11349  23243569.21549
  22425906.727 5     41405.969 5     23783.86747  22425905.82047
  20719019.906 6   -108577.758 6    -62855.28148  20719017.08248
  21383846.602 6    -41649.637 6    -24981.27749  21383847.46549
  21055415.461 6   -245225.395 6   -149322.64149  21055415.99249
  21949991.156 6    -69512.305 6    -40720.50048  21949989.03948
 20  5 16  0 19  1.0000000  0  7G04G08G14G16G26G27G31                0.000164793
  22379257.938 6   -267586.266 6   -170761.27348  22379257.40248
  23242435.148 5   -323289.809 5   -162533.98049  23242435.96149
  22426056.133 5     42188.730 5     24393.81347  22426054.71147
  20718631.336 6   -110618.406 6    -64445.39548  20718628.76648
  21383692.344 6    -42457.086 6    -25610.46949  21383693.77349
  21054492.898 6   -250074.137 6   -153100.88349  21054493.70349
  21949740.758 6    -70829.180 6    -41746.63748  21949738.64548
 20  5 16  0 19  2.0000000  0  7G04G08G14G16G26G27G31                0.000163282
  22378357.992 6   -272316.570 6   -174447.22347  22378357.09847
  23241301.906 5   -329243.516 5   -167173.23449  23241303.36749
  22426204.758 5     42972.410 5     25004.47747  22426203.86347
  20718243.094 6   -112658.137 6    -66034.79748  20718240.71148
  21383539.148 6    -43263.840 6    -26239.10549  21383540.47749
  21053570.430 6   -254921.766 6   -156878.25849  21053571.03149
  21949490.055 6    -72145.242 6    -42772.14148  21949488.03948
 20  5 16  0 19  3.0000000  0  7G04G08G14G16G26G27G31                0.000161774
  22377458.047 6   -277045.813 6   -178132.35247  22377456.82047
  23240169.352 5   -335196.422 5   -171811.85949  23240170.51249
  22426354.102 5     43756.996 5     25615.84047  22426352.97347
  20717855.273 6   -114696.918 6    -67623.45748  20717852.44948
  21383385.422 6    -44069.879 6    -26867.19149  21383386.93849
  21052648.266 6   -259768.266 6   -160654.75049  21052648.91849
  21949239.836 6    -73460.457 6    -43796.98048  21949237.89848
 20  5 16  0 19  4.0000000  0  7G04G08G14G16G26G27G31                0.000160265
  22376558.563 6   -281773.930 6   -181816.60548  22376557.42248
  23239036.531 5   -341148.449 5   -176449.80549  23239037.45349
  22426503.602 5     44542.539 5     26227.94947  22426502.83247
  20717467.789 6   -116734.750 6    -69211.37948  20717464.95348
  21383232.266 6    -44875.156 6    -27494.67649  21383233.43849
  21051726.320 7   -264613.590 7   -164430.33249  21051726.63349
  21948989.719 6    -74774.770 6    -44821.12548  21948987.77748
 20  5 16  0 19  5.0000000  0  7G04G08G14G16G26G27G31                0.000158756
  22375659.031 6   -286500.930 6   -185499.97748  22375657.91048
  23237904.234 5   -347099.598 5   -181087.06649  23237905.04749
  22426653.094 5     45329.094 5     26840.84447  22426652.11747
  20717080.000 6   -118771.570 6    -70798.50848  20717077.41048
  21383079.234 6    -45679.660 6    -28121.56349  21383080.88349
  21050804.500 6   -269457.691 6   -168204.95749  21050805.10249
  21948740.039 6    -76088.172 6    -45844.55548  21948738.05948
 20  5 16  0 19  6.0000000  0  7G04G08G14G16G26G27G31                0.000157248
  22374759.617 6   -291226.832 6   -189182.50048  22374758.42248
  23236771.555 5   -353049.867 5   -185723.64148  23236772.73448
  22426803.180 5     46116.609 5     27454.48447  22426801.66047
  20716692.609 6   -120807.418 6    -72384.89148  20716690.07048
  21382926.211 6    -46483.414 6    -28747.87149  21382927.80149
  21049882.914 6   -274300.633 6   -171978.68049  21049883.07449
  21948490.125 6    -77400.680 6    -46867.28548  21948488.50848
 20  5 16  0 19  7.0000000  0  7G04G08G14G16G26G27G31                0.000155739
  22373860.281 6   -295951.660 6   -192864.18847  22373859.46947
  23235639.539 5   -358999.316 5   -190359.57849  23235640.46549
  22426953.727 5     46905.027 5     28068.83647  22426951.87147
  20716305.242 6   -122842.367 6    -73970.56648  20716302.40648
  21382773.625 6    -47286.500 6    -29373.64549  21382774.94549
  21048961.641 6   -279142.461 6   -175751.53549  21048962.07449
  21948240.539 6    -78712.352 6    -47889.37948  21948238.55548
 20  5 16  0 19  8.0000000  0  7G04G08G14G16G26G27G31                0.000154232
  22372961.719 6   -300675.398 6   -196545.02748  22372960.88348
  23234507.945 5   -364947.852 5   -194994.79749  23234508.93049
  22427103.313 5     47694.418 5     28683.94547  22427101.86347
  20715918.570 6   -124876.332 6    -75555.48048  20715915.48448
  21382620.930 6    -48088.781 6    -29998.80549  21382622.01649
  21048040.484 6   -283983.109 6   -179523.46949  21048040.97349
  21947991.039 6    -80023.145 6    -48910.77348  21947988.84448
 20  5 16  0 19  9.0000000  0  7G04G08G14G16G26G27G31                0.000152725
  22372062.898 6   -305397.988 6   -200224.96548  22372062.43048
  23233375.930 5   -370895.586 5   -199629.39849  23233377.04349
  22427253.789 5     48484.820 5     29299.84447  22427252.30547
  20715531.313 6   -126909.316 6    -77139.61748  20715528.66048
  21382468.398 6    -48890.328 6    -30623.39149  21382469.65649
  21047119.727 6   -288822.539 6   -183294.45749  21047120.24649
  21947741.977 6    -81333.008 6    -49931.44548  21947740.18048
 20  5 16  0 19 10.0000000  0  7G04G08G14G16G26G27G31                0.000151218
  22371164.352 6   -310119.465 6   -203904.03147  22371163.76247
  23232243.859 5   -376842.367 5   -204263.25048  23232245.20748
  22427404.758 5     49276.164 5     29916.46947  22427403.17247
  20715144.461 6   -128941.324 6    -78723.00848  20715142.02748
  21382315.570 6    -49691.105 6    -31247.37149  21382317.02349
  21046198.813 6   -293660.816 6   -187064.54349  21046199.03949
  21947492.516 6    -82642.000 6    -50951.43848  21947490.67248
 20  5 16  0 19 11.0000000  0  7G04G08G14G16G26G27G31                0.000149712
  22370266.242 6   -314839.832 6   -207582.24248  22370265.50048
  23231113.219 5   -382788.289 5   -208896.43449  23231113.82049
  22427555.445 5     50068.508 5     30533.88347  22427553.48847
  20714758.141 6   -130972.336 6    -80305.61748  20714755.60948
  21382163.773 6    -50491.105 6    -31870.75049  21382165.16449
  21045278.273 6   -298497.855 6   -190833.66849  21045278.68049
  21947243.633 6    -83950.066 6    -51970.71148  21947242.03148
 20  5 16  0 19 12.0000000  0  7G04G08G14G16G26G27G31                0.000148207
  22369368.109 6   -319559.082 6   -211259.58248  22369367.46148
  23229981.227 5   -388733.383 5   -213528.97349  23229982.56349
  22427706.406 5     50861.801 5     31152.03947  22427704.57047
  20714372.117 6   -133002.398 6    -81887.48048  20714369.19948
  21382011.945 6    -51290.363 6    -32493.54749  21382012.92649
  21044357.906 6   -303333.754 6   -194601.89849  21044358.30949
  21946994.953 6    -85257.238 6    -52989.28548  21946992.62548
 20  5 16  0 19 13.0000000  0  7G04G08G14G16G26G27G31                0.000146702
  22368470.227 6   -324277.250 6   -214936.07847  22368469.46547
  23228850.172 5   -394677.660 5   -218160.87549  23228851.64149
  22427857.383 5     51656.039 5     31770.91847  22427855.71947
  20713985.617 6   -135031.516 6    -83468.61348  20713982.93448
  21381859.500 6    -52088.906 6    -33115.79349  21381861.28149
  21043437.984 6   -308168.500 6   -198369.23449  21043438.28949
  21946746.336 6    -86563.555 6    -54007.19548  21946744.40248
 20  5 16  0 19 14.0000000  0  7G04G08G14G16G26G27G31                0.000145197
  22367572.828 6   -328994.230 6   -218611.65247  22367572.04347
  23227719.117 5   -400620.965 5   -222792.02049  23227720.54749
  22428009.125 5     52451.320 5     32390.62147  22428007.04747
  20713599.930 6   -137059.586 6    -85048.93048  20713597.35548
  21381707.930 6    -52886.613 6    -33737.38349  21381709.40249
  21042518.688 6   -313001.984 6   -202135.58649  21042518.55549
  21946498.211 6    -87868.922 6    -55024.37548  21946495.81348
 20  5 16  0 19 15.0000000  0  7G04G08G14G16G26G27G31                0.000143692
  22366675.492 6   -333710.285 6   -222286.50047  22366674.52747
  23226588.586 5   -406563.520 5   -227422.57849  23226589.64849
  22428160.102 5     53247.395 5     33010.94547  22428158.57047
  20713214.258 6   -139086.824 6    -86628.59448  20713211.42648
  21381555.969 6    -53683.715 6    -34358.50049  21381557.30949
  21041598.492 6   -317834.465 6   -205901.15249  21041598.97749
  21946249.781 6    -89173.531 6    -56040.94948  21946247.56348
 20  5 16  0 19 16.0000000  0  7G04G08G14G16G26G27G31                0.000142187
  22365777.914 6   -338425.242 6   -225960.48847  22365777.22747
  23225457.750 5   -412505.254 5   -232052.49649  23225458.84449
  22428312.008 5     54044.418 5     33632.00047  22428310.33647
  20712828.453 6   -141113.168 6    -88207.56348  20712825.96948
  21381404.586 6    -54480.098 6    -34979.05549  21381405.92649
  21040679.375 7   -322665.797 7   -209665.82849  21040679.76649
  21946001.727 6    -90477.301 6    -57056.87948  21945999.68048
 20  5 16  0 19 17.0000000  0  7G04G08G14G16G26G27G31                0.000140684
  22364881.102 6   -343139.125 6   -229633.64547  22364880.13347
  23224327.578 5   -418446.172 5   -236681.78549  23224328.75849
  22428463.617 5     54842.363 5     34253.78147  22428462.00447
  20712443.383 6   -143138.551 6    -89785.78148  20712440.66448
  21381253.289 6    -55275.793 6    -35599.08249  21381254.78949
  21039760.305 7   -327495.973 7   -213429.60249  21039760.35249
  21945753.914 6    -91780.219 6    -58072.14148  21945751.76248
 20  5 16  0 19 18.0000000  0  7G04G08G14G16G26G27G31                0.000139179
  22363983.977 6   -347851.906 6   -233305.94147  22363983.35547
  23223197.109 5   -424386.230 5   -241310.40449  23223198.62949
  22428615.469 6     55641.281 6     34876.31647  22428613.73847
  20712057.938 6   -145162.957 6    -91363.24248  20712055.27048
  21381101.922 6    -56070.715 6    -36218.50449  21381103.18449
  21038841.250 6   -332324.980 6   -217192.46949  21038841.88749
  21945506.133 6    -93082.215 6    -59086.68448  21945503.73848
 20  5 16  0 19 19.0000000  0  7G04G08G14G16G26G27G31                0.000137676
  22363087.820 6   -352563.602 6   -236977.38748  22363086.78548
  23222067.141 5   -430325.441 5   -245938.36349  23222068.00849
  22428767.852 5     56441.141 5     35499.58247  22428766.13747
  20711672.977 6   -147186.434 6    -92939.98048  20711670.52048
  21380950.758 6    -56864.922 6    -36837.36749  21380952.37949
  21037922.328 6   -337152.813 6   -220954.41049  21037923.27749
  21945258.672 6    -94383.363 6    -60100.57048  21945256.23848
 20  5 16  0 19 20.0000000  0  8G03G04G08G14G16G26G27G31             0.000136183
  24666648.16414    -23005.66014    -12979.21958  24666650.04758
  22362191.109 6   -357274.164 6   -240647.95748  22362190.45748
  23220937.117 5   -436263.754 5   -250565.62149  23220937.52749
  22428920.133 5     57241.957 5     36123.59847  22428918.48047
  20711288.039 6   -149208.941 6    -94515.95748  20711285.21548
  21380799.805 6    -57658.359 6    -37455.63349  21380801.39849
  21037003.625 6   -341979.484 6   -224715.46149  21037004.61749
  21945011.180 6    -95683.617 6    -61113.75448  21945008.94548
 20  5 16  0 19 21.0000000  0  8G03G04G08G14G16G26G27G31             0.000134680
  24666521.406 4    -23674.496 4    -13500.39148  24666523.35948
  22361294.648 6   -361983.707 6   -244317.73848  22361294.17648
  23219806.820 5   -442201.273 5   -255192.25449  23219808.10949
  22429072.680 5     58043.695 5     36748.33247  22429071.04347
  20710903.547 6   -151230.523 6    -96091.22348  20710900.60548
  21380649.063 6    -58451.090 6    -38073.34449  21380650.46949
  21036085.594 6   -346805.043 6   -228475.63749  21036086.32449
  21944763.719 6    -96983.047 6    -62126.29748  21944761.59448
 20  5 16  0 19 22.0000000  0  8G03G04G08G14G16G26G27G31             0.000133179
  24666393.664 4    -24342.637 4    -14021.02348  24666396.09448
  22360398.484 6   -366692.234 6   -247986.71948  22360397.94148
  23218677.172 5   -448138.047 5   -259818.31349  23218677.98449
  22429225.453 5     58846.293 5     37373.72747  22429223.74247
  20710518.703 6   -153251.250 6    -97665.81348  20710516.06648
  21380498.289 6    -59243.207 6    -38690.57049  21380499.74649
  21035167.656 6   -351629.527 6   -232234.96949  21035168.07049
  21944516.258 6    -98281.680 6    -63138.22348  21944514.21548
 20  5 16  0 19 23.0000000  0  8G03G04G08G14G16G26G27G31             0.000131678
  24666266.867 4    -25010.047 4    -14541.08248  24666269.03948
  22359502.719 6   -371399.699 6   -251654.87548  22359502.31648
  23217547.398 5   -454074.016 5   -264443.74249  23217548.39849
  22429377.984 5     59649.766 5     37999.81347  22429376.68447
  20710134.617 6   -155271.059 6    -99239.69948  20710131.69548
  21380347.984 6    -60034.617 6    -39307.25849  21380349.36349
  21034249.633 6   -356452.887 6   -235993.43449  21034250.39549
  21944269.844 6    -99579.465 6    -64149.48048  21944267.77048
 20  5 16  0 19 24.0000000  0  8G03G04G08G14G16G26G27G31             0.000130177
  24666140.258 4    -25676.730 4    -15060.57448  24666141.96548
  22358607.227 6   -376106.094 6   -255322.19548  22358606.80948
  23216418.117 5   -460009.168 5   -269068.53549  23216419.25049
  22429531.359 5     60454.234 5     38626.66847  22429529.76647
  20709750.172 6   -157289.949 6   -100812.85948  20709747.32848
  21380197.266 6    -60825.309 6    -39923.37949  21380198.70349
  21033332.172 6   -361275.109 6   -239751.00849  21033332.77349
  21944023.070 6   -100876.418 6    -65160.09848  21944020.82048
 20  5 16  0 19 25.0000000  0  8G03G04G08G14G16G26G27G31             0.000128675
  24666013.445 4    -26342.629 4    -15579.45748  24666015.59448
  22357711.938 6   -380811.418 6   -258988.68447  22357711.19547
  23215289.055 5   -465943.480 5   -273692.67249  23215289.60249
  22429684.344 5     61259.613 5     39254.22347  22429683.10547
  20709366.086 6   -159307.883 6   -102385.27748  20709363.60548
  21380046.555 6    -61615.289 6    -40538.95749  21380048.32849
  21032414.555 6   -366096.180 6   -243507.69149  21032414.96949
  21943776.016 6   -102172.496 6    -66170.02748  21943774.24648
 20  5 16  0 19 26.0000000  0  8G03G04G08G14G16G26G27G31             0.000127174
  24665886.430 4    -27007.805 4    -16097.77748  24665888.83648
  22356816.656 6   -385515.711 6   -262654.36748  22356816.22348
  23214159.672 5   -471876.984 5   -278316.18049  23214160.61749
  22429837.875 5     62065.848 5     39882.45747  22429836.43447
  20708982.320 6   -161324.941 6   -103957.00848  20708979.79348
  21379896.359 6    -62404.570 6    -41153.98449  21379898.00049
  21031497.406 6   -370916.145 6   -247263.50849  21031497.90249
  21943529.891 6   -103467.777 6    -67179.33248  21943527.57048
 20  5 16  0 19 27.0000000  0  8G03G04G08G14G16G26G27G31             0.000125675
  24665760.281 4    -27672.241 4    -16615.52448  24665762.43448
  22355921.773 6   -390218.984 6   -266319.25048  22355921.02048
  23213030.711 5   -477809.723 5   -282939.09849  23213031.76649
  22429991.727 5     62872.977 5     40511.39547  22429990.07447
  20708598.875 6   -163341.109 6   -105528.04748  20708596.21948
  21379746.453 6    -63193.203 6    -41768.50449  21379748.07049
  21030580.523 6   -375735.027 6   -251018.47749  21030581.11349
  21943283.508 6   -104762.238 6    -68188.01248  21943281.24648
 20  5 16  0 19 28.0000000  0  8G03G04G08G14G16G26G27G31             0.000124176
  24665633.914 4    -28336.051 4    -17132.77748  24665636.35548
  22355026.828 6   -394921.195 6   -269983.31347  22355026.34447
  23211901.492 5   -483741.660 5   -287561.38748  23211902.41048
  22430145.773 5     63681.012 5     41141.03547  22430143.87547
  20708215.086 6   -165356.391 6   -107098.39848  20708212.52348
  21379596.500 6    -63981.180 6    -42382.51649  21379598.06649
  21029663.758 6   -380552.785 6   -254772.58249  21029664.25449
  21943037.219 6   -106055.875 6    -69196.03548  21943035.39848
 20  5 16  0 19 29.0000000  0  8G03G04G08G14G16G26G27G31             0.000122675
  24665508.086 4    -28999.098 4    -17649.44548  24665510.10548
  22354132.680 6   -399622.371 6   -273646.56648  22354131.94948
  23210772.711 5   -489672.781 5   -292183.03949  23210773.90649
  22430299.570 5     64489.930 5     41771.36747  22430297.80147
  20707831.969 6   -167370.766 6   -108668.04748  20707829.22748
  21379446.813 6    -64768.426 6    -42995.94949  21379448.30149
  21028747.016 6   -385369.445 6   -258525.82049  21028748.07049
  21942791.227 6   -107348.684 6    -70203.42248  21942789.24648
 20  5 16  0 19 30.0000000  0  8G03G04G08G14G16G26G27G31             0.000121178
  24665381.727 4    -29661.418 4    -18165.53948  24665384.04348
  22353238.219 6   -404322.551 6   -277309.03948  22353237.27748
  23209644.375 5   -495603.160 5   -296804.11349  23209645.25049
  22430453.398 5     65299.707 5     42402.36347  22430451.69147
  20707448.609 6   -169384.258 6   -110236.99648  20707446.03148
  21379297.359 6    -65555.055 6    -43608.91049  21379298.69949
  21027830.375 6   -390185.012 6   -262278.21149  21027831.35949
  21942545.547 6   -108640.703 6    -71210.19548  21942543.35548
 20  5 16  0 19 31.0000000  0  8G03G04G08G14G16G26G27G31             0.000119678
  24665255.508 4    -30323.094 4    -18681.12548  24665257.95348
  22352343.586 6   -409021.734 6   -280970.75447  22352342.98847
  23208516.602 5   -501532.816 5   -301424.62549  23208517.10249
  22430607.508 5     66110.367 5     43034.03947  22430605.81347
  20707066.031 6   -171396.953 6   -111805.34048  20707063.49248
  21379147.578 6    -66341.035 6    -44221.37149  21379149.09849
  21026914.586 6   -394999.543 6   -266029.79749  21026914.96149
  21942299.578 6   -109931.949 6    -72216.35548  21942297.30548
 20  5 16  0 19 32.0000000  0  8G03G04G08G14G16G26G27G31             0.000118179
  24665129.781 4    -30984.043 4    -19196.15248  24665132.26648
  22351449.742 6   -413719.871 6   -284631.64147  22351449.34447
  23207388.750 5   -507461.617 5   -306044.46949  23207389.16049
  22430761.781 5     66921.879 5     43666.38347  22430760.53947
  20706683.391 6   -173408.699 6   -113372.92648  20706680.23848
  21378998.469 6    -67126.328 6    -44833.29749  21378999.72349
  21025998.570 6   -399812.949 6   -269780.50449  21025998.98049
  21942054.039 6   -111222.395 6    -73221.90648  21942051.90648
 20  5 16  0 19 33.0000000  0  8G03G04G08G14G16G26G27G31             0.000116682
  24665004.617 4    -31644.320 4    -19710.65248  24665006.64848
  22350555.844 6   -418417.027 6   -288291.75447  22350555.21547
  23206260.047 5   -513389.691 5   -310663.73849  23206260.91449
  22430916.578 5     67734.258 5     44299.39847  22430915.17647
  20706300.438 6   -175419.594 6   -114939.85248  20706297.72748
  21378848.898 6    -67911.012 6    -45444.73849  21378850.34849
  21025082.547 6   -404625.297 6   -273530.38349  21025083.23849
  21941808.383 6   -112512.035 6    -74226.82048  21941806.00848
 20  5 16  0 19 34.0000000  0  8G03G04G08G14G16G26G27G31             0.000115185
  24664879.203 4    -32303.973 4    -20224.67248  24664881.32048
  22349661.922 6   -423113.195 6   -291951.10547  22349661.70347
  23205132.180 5   -519317.043 5   -315282.45749  23205133.30949
  22431071.945 5     68547.430 5     44933.03947  22431070.10247
  20705917.695 6   -177429.699 6   -116506.17648  20705915.02048
  21378699.453 6    -68695.090 6    -46055.71149  21378700.93849
  21024167.117 6   -409436.633 6   -277279.48049  21024167.63749
  21941563.742 6   -113800.969 6    -75231.18848  21941561.58248
 20  5 16  0 19 35.0000000  0  8G03G04G08G14G16G26G27G31             0.000113688
  24664752.797 4    -32962.980 4    -20738.17648  24664755.55148
  22348768.914 6   -427808.438 6   -295609.74248  22348768.20348
  23204004.414 5   -525243.629 5   -319900.57449  23204005.46149
  22431226.250 5     69361.480 5     45567.36747  22431224.71547
  20705535.367 6   -179438.984 6   -118071.84848  20705532.59448
  21378550.156 6    -69478.566 6    -46666.21549  21378551.82849
  21023252.000 7   -414246.906 7   -281027.75049  21023252.28949
  21941318.305 6   -115089.109 6    -76234.93048  21941316.21948
 20  5 16  0 19 36.0000000  0  8G03G04G08G14G16G26G27G31             0.000112190
  24664628.047 4    -33621.305 4    -21251.15648  24664630.42648
  22347875.508 6   -432502.738 6   -299267.64148  22347874.65648
  23202877.281 5   -531169.578 5   -324518.19949  23202877.84049
  22431381.234 5     70176.234 5     46202.24247  22431379.82847
  20705153.367 6   -181447.461 6   -119636.90648  20705150.67648
  21378401.375 6    -70261.465 6    -47276.25849  21378403.05549
  21022336.789 7   -419056.199 7   -284775.24649  21022337.19949
  21941073.063 6   -116376.598 6    -77238.16848  21941070.41048
 20  5 16  0 19 37.0000000  0  8G03G04G08G14G16G26G27G31             0.000110693
  24664503.164 4    -34279.094 4    -21763.72348  24664505.36748
  22346982.547 6   -437196.102 6   -302924.80548  22346982.16848
  23201749.320 5   -537094.813 5   -329135.26649  23201750.14849
  22431536.469 5     70991.805 5     46837.74647  22431535.11347
  20704771.172 7   -183455.168 7   -121201.35548  20704768.36748
  21378252.555 6    -71043.777 6    -47885.85249  21378254.15649
  21021421.906 7   -423864.480 7   -288521.96149  21021422.24649
  21940828.266 6   -117663.332 6    -78240.82448  21940826.02348
 20  5 16  0 19 38.0000000  0  8G03G04G08G14G16G26G27G31             0.000109198
  24664378.250 5    -34936.242 5    -22275.77348  24664380.40648
  22346089.328 6   -441888.473 6   -306581.20348  22346089.07048
  23200622.047 6   -543019.363 6   -333751.80149  23200623.02349
  22431692.164 5     71808.248 5     47473.93747  22431690.48847
  20704389.367 7   -185462.051 7   -122765.16048  20704386.39848
  21378104.031 6    -71825.496 6    -48494.98049  21378105.47749
  21020506.859 7   -428671.746 7   -292267.88349  21020507.44149
  21940583.805 6   -118949.340 6    -79242.91448  21940581.72748
 20  5 16  0 19 39.0000000  0  8G03G04G08G14G16G26G27G31             0.000107700
  24664252.859 5    -35592.648 5    -22787.24648  24664255.57848
  22345196.586 6   -446579.863 6   -310236.84048  22345195.98048
  23199494.727 6   -548943.074 6   -338367.68049  23199495.53549
  22431848.070 5     72625.492 5     48110.73847  22431845.98847
  20704007.469 7   -187468.035 7   -124328.26648  20704004.79748
  21377955.523 6    -72606.527 6    -49103.58649  21377957.03549
  21019592.453 7   -433477.883 7   -296012.92249  21019593.08249
  21940339.094 6   -120234.504 6    -80244.34448  21940336.78548
 20  5 16  0 19 40.0000000  0  8G03G04G08G14G16G26G27G31             0.000106205
  24664127.781 5    -36248.449 5    -23298.25448  24664130.63748
  22344303.758 6   -451270.309 6   -313891.73848  22344303.27048
  23198367.492 6   -554866.141 6   -342983.05549  23198368.30949
  22432003.148 5     73443.559 5     48748.18047  22432001.81647
  20703626.016 6   -189473.246 6   -125890.76648  20703623.36748
  21377806.922 6    -73387.047 6    -49711.78149  21377808.56349
  21018678.195 6   -438283.047 6   -299757.20349  21018678.12549
  21940095.008 6   -121518.992 6    -81245.25048  21940092.33648
 20  5 16  0 19 41.0000000  0  8G03G04G08G14G16G26G27G31             0.000104710
  24664003.266 5    -36903.672 5    -23808.81348  24664005.94948
  22343411.602 6   -455959.813 6   -317545.89548  22343411.21148
  23197240.930 6   -560788.527 6   -347597.89549  23197241.04349
  22432159.086 5     74262.387 5     49386.23047  22432157.43047
  20703244.508 6   -191477.656 6   -127452.64148  20703242.00848
  21377658.672 6    -74166.941 6    -50319.48849  21377660.23049
  21017764.078 6   -443087.207 6   -303500.69949  21017764.39549
  21939850.398 6   -122802.777 6    -82245.59848  21939848.07848
 20  5 16  0 19 42.0000000  0  8G03G04G08G14G16G26G27G31             0.000103214
  24663878.961 5    -37558.238 5    -24318.86348  24663881.54748
  22342519.555 6   -460648.383 6   -321199.32048  22342518.75048
  23196114.031 6   -566710.160 6   -352212.14149  23196113.96949
  22432314.891 5     75082.016 5     50024.90247  22432313.49647
  20702863.438 6   -193481.285 6   -129013.90248  20702860.64548
  21377509.992 6    -74946.281 6    -50926.77349  21377511.97749
  21016849.500 6   -447890.344 6   -307243.40249  21016849.90649
  21939606.305 7   -124085.824 7    -83245.37148  21939604.18048
 20  5 16  0 19 43.0000000  0  8G03G04G08G14G16G26G27G31             0.000101719
  24663753.336 3    -38212.234 3    -24828.46948  24663756.93048
  22341627.102 6   -465336.125 6   -324852.10547  22341627.17647
  23194987.469 5   -572631.188 5   -356825.92248  23194986.88348
  22432471.258 5     75902.367 5     50664.12947  22432469.82847
  20702481.844 6   -195484.195 6   -130574.61348  20702479.37148
  21377361.906 6    -75725.078 6    -51533.63349  21377363.52749
  21015936.047 7   -452692.590 7   -310985.42249  21015936.16449
  21939362.258 6   -125368.254 6    -84244.66448  21939360.13348
 20  5 16  0 19 44.0000000  0  8G03G04G08G14G16G26G27G31             0.000100225
  24663629.281 5    -38865.676 5    -25337.69948  24663632.32848
  22340735.977 5   -470022.887 5   -328504.12547  22340735.38347
  23193860.508 6   -578551.551 6   -361439.21949  23193860.92249
  22432627.344 5     76723.480 5     51303.98047  22432625.77047
  20702101.133 6   -197486.289 6   -132134.67648  20702098.20348
  21377213.672 6    -76503.324 6    -52140.05549  21377215.48049
  21015022.391 7   -457493.828 7   -314726.66049  21015022.60549
  21939118.727 6   -126649.957 6    -85243.39548  21939116.48848
 20  5 16  0 19 45.0000000  0  8G03G04G08G14G16G26G27G31             0.000098730
  24663506.195 5    -39518.461 5    -25846.39548  24663508.13748
  22339844.008 5   -474708.695 5   -332155.40247  22339843.32047
  23192733.734 6   -584471.195 6   -366051.94549  23192734.18449
  22432783.516 5     77545.438 5     51944.47347  22432782.38747
  20701720.578 6   -199487.598 6   -133694.12948  20701717.36348
  21377065.734 6    -77280.980 6    -52746.02049  21377067.43849
  21014109.242 7   -462294.016 7   -318467.07049  21014109.05149
  21938874.789 6   -127930.918 6    -86241.54748  21938872.50848
 20  5 16  0 19 46.0000000  0  8G03G04G08G14G16G26G27G31             0.000097237
  24663381.586 5    -40170.711 5    -26354.64848  24663384.05948
  22338951.984 5   -479393.645 5   -335806.01247  22338951.98447
  23191607.438 6   -590390.180 6   -370664.14549  23191607.88349
  22432940.664 5     78368.098 5     52585.51247  22432938.61747
  20701340.055 6   -201488.160 6   -135253.00048  20701336.70748
  21376918.234 6    -78058.133 6    -53351.59049  21376919.64849
  21013195.969 7   -467093.266 7   -322206.73449  21013196.01249
  21938631.078 6   -129211.211 6    -87239.17648  21938629.20748
 20  5 16  0 19 47.0000000  0  8G03G04G08G14G16G26G27G31             0.000095743
  24663257.516 5    -40822.344 5    -26862.40248  24663259.92648
  22338060.828 5   -484077.680 5   -339455.91447  22338060.65247
  23190481.445 6   -596308.527 6   -375275.85549  23190481.13349
  22433096.891 5     79191.508 5     53227.12547  22433095.55547
  20700959.297 6   -203487.988 6   -136811.30948  20700956.21548
  21376770.195 6    -78834.773 6    -53956.77349  21376771.84449
  21012282.609 7   -471891.563 7   -325945.66849  21012282.61749
  21938387.484 6   -130490.836 6    -88236.28948  21938385.23848
 20  5 16  0 19 48.0000000  0  8G03G04G08G14G16G26G27G31             0.000094250
  24663134.336 5    -41473.387 5    -27369.69948  24663135.82848
  22337169.688 5   -488760.813 5   -343105.10947  22337169.35947
  23189355.648 6   -602226.207 6   -379887.03149  23189355.25449
  22433253.891 6     80015.691 6     53869.34047  22433252.32047
  20700578.617 6   -205487.035 6   -138369.00848  20700575.93848
  21376622.500 6    -79610.832 6    -54561.49249  21376623.91449
  21011369.977 7   -476688.852 7   -329683.81349  21011369.93449
  21938144.016 6   -131769.777 6    -89232.86748  21938141.82448
 20  5 16  0 19 49.0000000  0  8G03G04G08G14G16G26G27G31             0.000092756
  24663010.555 4    -42123.879 4    -27876.56348  24663012.18848
  22336278.586 5   -493443.027 5   -346753.58247  22336278.64847
  23188229.492 6   -608143.211 6   -384497.68449  23188229.18049
  22433410.602 5     80840.629 5     54512.13347  22433409.40647
  20700198.484 6   -207485.320 6   -139926.12148  20700195.39848
  21376475.234 6    -80386.352 6    -55165.79349  21376476.55949
  21010457.117 7   -481485.176 7   -333421.21549  21010457.21149
  21937900.945 7   -133048.000 7    -90228.89148  21937898.63748
 20  5 16  0 19 50.0000000  0  9G03G04G08G14G16G21G26G27G31          0.000091263
  24662886.633 5    -42773.820 5    -28383.00448  24662888.33248
  22335387.781 5   -498124.375 5   -350401.38347  22335387.74647
  23187103.664 6   -614059.582 6   -389107.84049  23187103.32849
  22433567.930 5     81666.309 5     55155.51647  22433566.03547
  20699818.266 6   -209482.875 6   -141482.66048  20699815.59448
  24380147.64816    -64220.32416    -33012.38758  24380145.97358
  21376327.492 6    -81161.332 6    -55769.68049  21376328.70349
  21009544.352 7   -486280.551 7   -337157.86749  21009544.76649
  21937657.922 7   -134325.590 7    -91224.42248  21937655.57048
 20  5 16  0 19 51.0000000  0  9G03G04G08G14G16G21G26G27G31          0.000089773
  24662762.953 5    -43423.168 5    -28888.99248  24662764.89848
  22334497.328 5   -502804.832 5   -354048.48847  22334497.02347
  23185977.672 5   -619975.289 5   -393717.48449  23185977.47349
  22433724.953 5     82492.719 5     55799.46947  22433723.32447
  20699438.250 6   -211479.691 6   -143038.62948  20699435.53548
  24379675.156 6    -66704.824 6    -34948.35248  24379673.35948
  21376180.297 6    -81935.824 6    -56373.17649  21376181.60249
  21008632.234 7   -491074.965 7   -340893.77749  21008632.16449
  21937414.656 7   -135602.504 7    -92219.42248  21937412.82848
 20  5 16  0 19 52.0000000  0  9G03G04G08G14G16G21G26G27G31          0.000088282
  24662639.297 5    -44071.961 5    -29394.55148  24662641.35248
  22333606.914 5   -507484.391 5   -357694.89146  22333606.54346
  23184852.305 6   -625890.383 6   -398326.64549  23184851.96149
  22433883.094 6     83319.848 6     56443.98847  22433881.21147
  20699058.383 6   -213475.754 6   -144593.99648  20699055.41848
  24379202.148 6    -69188.520 6    -36883.70348  24379200.86748
  21376032.695 6    -82709.758 6    -56976.23849  21376034.19549
  21007720.117 7   -495868.453 7   -344628.96549  21007719.93449
  21937172.039 7   -136878.758 7    -93213.90648  21937169.57448
 20  5 16  0 19 53.0000000  0  9G03G04G08G14G16G21G26G27G31          0.000086788
  24662516.414 5    -44720.215 5    -29899.68448  24662518.24248
  22332716.992 5   -512163.094 5   -361340.63346  22332716.16446
  23183726.414 5   -631804.859 5   -402935.33249  23183726.59449
  22434040.461 5     84147.707 5     57089.07447  22434038.35247
  20698678.766 6   -215471.105 6   -146148.80948  20698676.31348
  24378729.867 6    -71671.418 6    -38818.43048  24378728.55148
  21375885.531 6    -83483.227 6    -57578.94149  21375887.28549
  21006807.664 7   -500660.992 7   -348363.41449  21006808.01649
  21936929.000 7   -138154.391 7    -94207.90648  21936926.83648
 20  5 16  0 19 54.0000000  0  9G03G04G08G14G16G21G26G27G31          0.000085297
  24662393.031 5    -45367.891 5    -30404.37148  24662395.01248
  22331826.516 5   -516840.891 5   -364985.66847  22331825.87947
  23182601.375 5   -637718.672 5   -407543.49649  23182601.19149
  22434197.852 5     84976.316 5     57734.74647  22434196.15647
  20698299.500 6   -217465.688 6   -147703.03148  20698296.21548
  24378257.680 6    -74153.465 6    -40752.48848  24378255.86748
  21375738.336 6    -84256.117 6    -58181.19549  21375740.03949
  21005896.141 7   -505452.543 7   -352097.09049  21005896.07849
  21936686.781 6   -139429.309 6    -95201.34848  21936684.49248
 20  5 16  0 19 55.0000000  0  9G03G04G08G14G16G21G26G27G31          0.000083805
  24662269.430 5    -46015.000 5    -30908.60948  24662271.47748
  22330936.555 5   -521517.805 5   -368630.02047  22330935.27747
  23181476.258 6   -643631.840 6   -412151.16449  23181476.16049
  22434355.711 5     85805.676 5     58381.00047  22434354.10247
  20697919.914 6   -219459.543 6   -149256.68848  20697916.92248
  24377785.391 6    -76634.676 6    -42685.90648  24377784.34448
  21375591.602 6    -85028.496 6    -58783.05549  21375592.93049
  21004984.438 7   -510243.152 7   -355830.03149  21004984.53549
  21936444.148 7   -140703.563 7    -96194.27748  21936441.68848
 20  5 16  0 19 56.0000000  0  9G03G04G08G14G16G21G26G27G31          0.000082314
  24662146.508 5    -46661.555 5    -31412.41848  24662148.87548
  22330046.742 5   -526193.832 5   -372273.68047  22330045.88347
  23180350.813 6   -649544.383 6   -416758.34049  23180351.29349
  22434513.703 5     86635.734 5     59027.78947  22434512.12147
  20697540.375 6   -221452.668 6   -150809.77748  20697537.77748
  24377313.406 6    -79115.152 6    -44618.74248  24377312.19148
  21375445.031 6    -85800.359 6    -59384.50849  21375446.39549
  21004073.297 7   -515032.820 7   -359562.23849  21004073.07849
  21936201.813 6   -141977.188 6    -97186.71148  21936199.65248
 20  5 16  0 19 57.0000000  0  9G03G04G08G14G16G21G26G27G31          0.000080822
  24662023.586 5    -47307.582 5    -31915.81648  24662025.91848
  22329156.711 5   -530868.988 5   -375916.66047  22329156.08247
  23179225.578 6   -655456.273 6   -421365.00849  23179226.23449
  22434671.633 5     87466.535 5     59675.15647  22434670.23447
  20697161.336 6   -223445.051 6   -152362.27748  20697158.00048
  24376841.773 6    -81594.773 6    -46550.91448  24376840.32848
  21375297.648 6    -86571.727 6    -59985.57849  21375299.60549
  21003161.938 7   -519821.527 7   -363293.70349  21003161.97349
  21935959.578 6   -143250.129 6    -98178.61348  21935957.35248
 20  5 16  0 19 58.0000000  0  9G03G04G08G14G16G21G26G27G31          0.000079332
  24661901.305 5    -47953.000 5    -32418.73848  24661903.32448
  22328267.445 5   -535543.309 5   -379558.98847  22328266.75847
  23178101.258 6   -661367.539 6   -425971.19149  23178101.54749
  22434829.766 5     88298.051 5     60323.09047  22434828.13747
  20696782.469 6   -225436.719 6   -153914.23048  20696779.49648
  24376369.914 6    -84073.602 6    -48482.46548  24376368.58248
  21375151.203 6    -87342.574 6    -60586.23849  21375152.64549
  21002250.758 7   -524609.340 7   -367024.46149  21002250.79349
  21935717.383 7   -144522.453 7    -99170.03548  21935715.34448
 20  5 16  0 19 59.0000000  0  9G03G04G08G14G16G21G26G27G31          0.000077841
  24661777.547 4    -48597.972 4    -32921.31048  24661780.14548
  22327377.836 5   -540216.809 5   -383200.66847  22327377.45347
  23176976.563 6   -667278.230 6   -430576.91849  23176976.73849
  22434988.359 5     89130.191 5     60971.50847  22434987.18447
  20696403.602 6   -227427.770 6   -155465.70348  20696400.71548
  24375898.695 6    -86551.723 6    -50413.46148  24375896.84048
  21375004.500 6    -88113.020 6    -61186.58649  21375006.16049
  21001339.930 7   -529396.258 7   -370754.53149  21001339.58249
  21935475.695 6   -145794.176 6   -100160.98448  21935473.05948
 20  5 16  0 20  0.0000000  0  9G03G04G08G14G16G21G26G27G31          0.000076351
  24661655.719 5    -49242.445 5    -33423.50448  24661657.60548
  22326488.914 5   -544889.398 5   -386841.64846  22326488.01646
  23175851.750 6   -673188.281 6   -435182.16449  23175852.07849
  22435146.555 5     89963.121 5     61620.53947  22435145.44147
  20696025.000 6   -229418.008 6   -157016.54348  20696021.82448
  24375427.227 6    -89029.012 6    -52343.82048  24375425.76248
  21374858.008 6    -88882.883 6    -61786.47749  21374859.84449
  21000429.258 6   -534182.191 6   -374483.83249  21000429.22349
  21935233.422 7   -147065.238 7   -101151.42648  21935231.35948
 20  5 16  0 20  1.0000000  0  9G03G04G08G14G16G21G26G27G31          0.000074862
  24661533.234 5    -49886.480 5    -33925.35248  24661535.05548
  22325600.094 5   -549561.289 5   -390482.08246  22325599.04746
  23174727.102 6   -679097.896 6   -439787.06649  23174727.84449
  22435305.383 5     90796.594 5     62269.99647  22435304.48447
  20695646.359 6   -231407.703 6   -158566.96548  20695643.18848
  24374955.891 6    -91505.621 6    -54273.64848  24374954.23048
  21374711.445 6    -89652.406 6    -62386.09449  21374713.23449
  20999518.875 7   -538967.355 7   -378212.53149  20999518.58249
  21934991.453 6   -148335.777 6   -102141.45748  21934989.42248
 20  5 16  0 20  2.0000000  0  9G03G04G08G14G16G21G26G27G31          0.000073370
  24661410.852 5    -50529.852 5    -34426.68848  24661412.44148
  22324711.188 5   -554232.246 5   -394121.78946  22324710.52046
  23173603.102 6   -685006.742 6   -444391.35949  23173603.36349
  22435464.172 5     91630.859 5     62920.06647  22435463.03147
  20695267.422 6   -233396.629 6   -160116.77748  20695264.65648
  24374484.484 6    -93981.395 6    -56202.81648  24374483.20748
  21374565.555 6    -90421.344 6    -62985.26649  21374566.74649
  20998608.477 7   -543751.531 7   -381940.46949  20998607.93049
  21934750.195 6   -149605.613 6   -103130.93448  21934747.83248
 20  5 16  0 20  3.0000000  0  9G03G04G08G14G16G21G26G27G31          0.000071880
  24661288.305 5    -51172.816 5    -34927.70348  24661290.16448
  22323822.578 5   -558902.434 5   -397760.89846  22323821.91046
  23172479.000 6   -690915.086 6   -448995.25849  23172479.20349
  22435623.031 5     92465.719 5     63570.60547  22435621.89147
  20694889.000 6   -235384.891 6   -161666.06648  20694886.34848
  24374013.406 6    -96456.465 6    -58131.44948  24374012.10248
  21374419.180 6    -91189.891 6    -63584.13349  21374420.57449
  20997698.008 6   -548534.852 6   -385667.73449  20997697.98049
  21934508.266 6   -150874.906 6   -104119.98448  21934506.32848
 20  5 16  0 20  4.0000000  0  9G03G04G08G14G16G21G26G27G31          0.000070393
  24661165.820 5    -51815.258 5    -35428.29348  24661168.11348
  22322934.023 5   -563571.758 5   -401399.32046  22322933.20346
  23171354.250 6   -696822.836 6   -453598.69949  23171354.85549
  22435781.953 5     93301.273 5     64221.69147  22435780.66047
  20694510.992 6   -237372.469 6   -163214.82848  20694508.23848
  24373542.359 6    -98930.754 6    -60059.46548  24373541.03948
  21374272.914 6    -91957.973 6    -64182.63749  21374274.18049
  20996788.211 6   -553317.262 6   -389394.28549  20996787.32449
  21934266.938 6   -152143.574 6   -105108.55548  21934264.80548
 20  5 16  0 20  5.0000000  0  9G03G04G08G14G16G21G26G27G31          0.000068903
  24661043.602 5    -52457.168 5    -35928.46548  24661045.66048
  22322045.844 5   -568240.180 5   -405037.02746  22322045.03946
  23170230.219 6   -702729.934 6   -458201.64149  23170230.95349
  22435941.008 5     94137.602 5     64873.37547  22435939.60947
  20694133.172 6   -239359.297 6   -164763.00848  20694130.22348
  24373072.008 6   -101404.215 6    -61986.84048  24373070.44148
  21374127.063 6    -92725.527 6    -64780.74249  21374128.39849
  20995878.102 7   -558098.711 7   -393120.08649  20995877.77749
  21934025.883 6   -153411.578 6   -106096.61748  21934023.48448
 20  5 16  0 20  6.0000000  0  9G03G04G08G14G16G21G26G27G31          0.000067413
  24660921.281 5    -53098.613 5    -36428.28948  24660923.49248
  22321156.953 5   -572907.867 5   -408674.16446  22321156.57046
  23169106.344 6   -708636.512 6   -462804.16049  23169106.45749
  22436100.469 6     94974.469 6     65525.48047  22436098.96547
  20693755.578 6   -241345.555 6   -166310.73848  20693752.17248
  24372601.648 6   -103877.000 6    -63913.68848  24372599.77748
  21373980.852 6    -93492.703 6    -65378.54349  21373982.65249
  20994968.148 7   -562879.352 7   -396845.25849  20994968.33249
  21933785.102 6   -154679.074 6   -107084.28548  21933782.38748
 20  5 16  0 20  7.0000000  0  9G03G04G08G14G16G21G26G27G31          0.000065924
  24660799.203 4    -53739.566 4    -36927.75848  24660801.91448
  22320269.359 6   -577574.781 6   -412310.73847  22320268.38747
  23167982.531 6   -714542.535 6   -467406.24649  23167982.52049
  22436259.906 5     95812.051 5     66178.16447  22436258.55147
  20693377.156 6   -243331.176 6   -167857.97348  20693374.48048
  24372131.117 6   -106349.070 6    -65839.97348  24372129.53548
  21373835.336 6    -94259.406 6    -65975.97749  21373836.41849
  20994058.977 7   -567659.063 7   -400569.70749  20994058.58649
  21933543.680 6   -155945.969 6   -108071.48848  21933541.41448
 20  5 16  0 20  8.0000000  0  9G03G04G08G14G16G21G26G27G31          0.000064436
  24660678.125 3    -54380.035 3    -37426.82448  24660679.91048
  22319381.320 6   -582240.770 6   -415946.60547  22319380.53147
  23166858.656 5   -720447.953 5   -472007.84449  23166858.41049
  22436419.289 5     96650.316 5     66831.34847  22436417.99247
  20692999.742 6   -245316.039 6   -169404.64148  20692996.43048
  24371660.852 6   -108820.336 6    -67765.62947  24371659.06647
  21373688.938 6    -95025.672 6    -66573.07049  21373690.58249
  20993149.430 7   -572437.922 7   -404293.48849  20993149.41049
  21933302.695 7   -157212.199 7   -109058.16848  21933300.27048
 20  5 16  0 20  9.0000000  0  9G03G04G08G14G16G21G26G27G31          0.000062948
  24660556.500 4    -55019.945 4    -37925.44548  24660558.24648
  22318493.352 6   -586905.949 6   -419581.84047  22318492.52047
  23165734.344 5   -726352.762 5   -476609.00049  23165734.94549
  22436579.039 5     97489.234 5     67485.04747  22436577.71547
  20692622.164 7   -247300.207 7   -170950.75848  20692619.32848
  24371190.563 6   -111290.828 6    -69690.68447  24371188.82847
  21373543.219 6    -95791.445 6    -67169.78149  21373544.76249
  20992239.945 7   -577215.848 7   -408016.54749  20992239.67249
  21933061.469 7   -158477.844 7   -110044.38348  21933059.70748
 20  5 16  0 20 10.0000000  0  9G03G04G08G14G16G21G26G27G31          0.000061460
  24660434.672 4    -55659.402 4    -38423.72748  24660436.31348
  22317605.719 6   -591570.332 6   -423216.43048  22317605.46548
  23164611.578 5   -732256.988 5   -481209.70349  23164611.32849
  22436738.969 5     98328.855 5     68139.29347  22436737.26647
  20692244.953 7   -249283.719 7   -172496.35948  20692241.93848
  24370721.109 6   -113760.598 6    -71615.17247  24370719.12947
  21373397.641 6    -96556.734 6    -67766.11349  21373399.07449
  20991330.758 7   -581992.887 7   -411738.91849  20991330.68049
  21932820.875 7   -159742.910 7   -111030.14848  21932818.75048
 20  5 16  0 20 11.0000000  0  9G03G04G08G14G16G21G26G27G31          0.000059973
  24660313.391 4    -56298.324 4    -38921.59848  24660315.40248
  22316718.492 6   -596233.883 6   -426850.36748  22316718.19148
  23163487.906 5   -738160.648 5   -485809.96949  23163487.82049
  22436898.844 5     99169.133 5     68794.05147  22436897.64147
  20691867.063 6   -251266.563 6   -174041.43448  20691863.96148
  24370250.953 6   -116229.609 6    -73539.07447  24370249.25847
  21373252.289 6    -97321.563 6    -68362.08249  21373253.77749
  20990422.172 7   -586769.055 7   -415460.60549  20990421.75049
  21932580.578 6   -161007.359 6   -112015.43048  21932578.32848
 20  5 16  0 20 12.0000000  0  9G03G04G08G14G16G21G26G27G31          0.000058485
  24660191.336 4    -56936.832 4    -39419.15248  24660193.61748
  22315831.438 6   -600896.637 6   -430483.68448  22315830.67248
  23162364.484 5   -744063.777 5   -490409.80549  23162365.09049
  22437058.727 5    100010.063 5     69449.32047  22437057.28947
  20691490.297 7   -253248.754 7   -175586.00048  20691487.35948
  24369781.148 6   -118697.863 6    -75462.39147  24369779.77047
  21373106.977 6    -98085.980 6    -68957.73449  21373108.23049
  20989513.016 6   -591544.344 6   -419181.60549  20989513.25449
  21932339.656 6   -162271.219 6   -113000.25448  21932337.36748
 20  5 16  0 20 13.0000000  0  9G03G04G08G14G16G21G26G27G31          0.000056997
  24660069.563 4    -57574.832 4    -39916.29348  24660072.00448
  22314943.852 6   -605558.625 6   -434116.39548  22314943.13348
  23161241.477 6   -749966.297 6   -495009.17649  23161241.54749
  22437219.000 6    100851.590 6     70105.05547  22437217.26647
  20691113.195 6   -255230.305 6   -177130.06648  20691110.00848
  24369311.656 6   -121165.406 6    -77385.15247  24369310.12147
  21372961.063 6    -98849.957 6    -69553.03549  21372962.95749
  20988605.125 6   -596318.742 6   -422901.92249  20988604.52049
  21932099.133 7   -163534.531 7   -113984.64848  21932096.97748
 20  5 16  0 20 14.0000000  0  9G03G04G08G14G16G21G26G27G31          0.000055510
  24659948.172 4    -58212.371 4    -40413.04348  24659951.00048
  22314057.281 6   -610219.734 6   -437748.41848  22314056.35548
  23160118.430 5   -755868.297 5   -499608.14549  23160117.96149
  22437379.258 6    101693.840 6     70761.36347  22437377.43047
  20690736.078 7   -257211.148 7   -178673.58248  20690733.15248
  24368842.102 6   -123632.191 6    -79307.32047  24368840.62547
  21372816.375 6    -99613.449 6    -70147.96949  21372817.63749
  20987696.453 6   -601092.289 6   -426621.56649  20987696.18449
  21931859.211 6   -164797.215 6   -114968.56348  21931856.75848
 20  5 16  0 20 15.0000000  0  9G03G04G08G14G16G21G26G27G31          0.000054022
  24659826.938 4    -58849.359 4    -40909.37548  24659829.75048
  22313170.281 6   -614880.020 6   -441379.80948  22313169.87948
  23158995.523 5   -761769.645 5   -504206.58249  23158994.85549
  22437539.930 6    102536.770 6     71418.18847  22437537.98047
  20690359.242 7   -259191.320 7   -180216.57048  20690356.07048
  24368372.891 6   -126098.211 6    -81228.89847  24368371.48847
  21372670.922 6   -100376.488 6    -70742.55149  21372672.15649
  20986788.195 6   -605864.895 6   -430340.48049  20986788.16049
  21931618.773 6   -166059.289 6   -115952.00048  21931616.56348
 20  5 16  0 20 16.0000000  0  9G03G04G08G14G16G21G26G27G31          0.000052536
  24659706.391 4    -59485.887 4    -41405.36348  24659708.91448
  22312284.039 6   -619539.559 6   -445010.61748  22312282.75048
  23157872.648 5   -767670.512 5   -508804.64549  23157872.23049
  22437700.828 6    103380.262 6     72075.44947  22437698.32047
  20689982.414 7   -261170.898 7   -181759.09448  20689979.77048
  24367903.563 5   -128563.566 5    -83149.95347  24367902.57047
  21372525.703 6   -101139.172 6    -71336.84849  21372526.94949
  20985880.180 7   -610636.695 7   -434058.77049  20985880.10249
  21931378.773 6   -167320.832 6   -116935.02348  21931376.85948
 20  5 16  0 20 17.0000000  0  9G03G04G08G14G16G21G26G27G31          0.000051048
  24659585.219 4    -60121.977 4    -41901.02748  24659587.58648
  22311397.336 6   -624198.270 6   -448640.78148  22311396.48048
  23156750.094 5   -773570.750 5   -513402.23449  23156749.39549
  22437861.922 6    104224.480 6     72733.27347  22437859.10947
  20689605.977 7   -263149.773 7   -183301.07448  20689603.35248
  24367434.711 5   -131028.113 5    -85070.37547  24367433.56347
  21372380.750 6   -101901.324 6    -71930.74249  21372382.29749
  20984972.625 7   -615407.582 7   -437776.33649  20984972.26649
  21931138.758 6   -168581.746 6   -117917.55548  21931136.59848
 20  5 16  0 20 18.0000000  0  9G03G04G08G14G16G21G26G27G31          0.000049562
  24659464.414 4    -60757.559 4    -42396.30148  24659466.18848
  22310510.391 6   -628856.141 6   -452270.29348  22310509.85948
  23155627.484 5   -779470.430 5   -517999.39849  23155627.01249
  22438022.430 6    105069.363 6     73391.61347  22438020.30547
  20689229.578 7   -265127.980 7   -184842.54348  20689226.44148
  24366965.508 5   -133491.938 5    -86990.23447  24366964.36347
  21372235.508 6   -102663.051 6    -72524.30549  21372237.19549
  20984064.836 7   -620177.574 7   -441493.20749  20984064.62549
  21930898.789 6   -169842.063 6   -118899.62148  21930896.68048
 20  5 16  0 20 19.0000000  0  9G03G04G08G14G16G21G26G27G31          0.000048077
  24659343.180 3    -61392.508 3    -42891.07448  24659345.61348
  22309624.633 6   -633513.125 6   -455899.11748  22309623.21548
  23154504.625 6   -785369.465 6   -522596.04749  23154504.50849
  22438182.836 6    105914.938 6     74050.50447  22438180.66047
  20688853.227 7   -267105.461 7   -186383.43848  20688850.12148
  24366497.047 6   -135954.949 6    -88909.47347  24366495.96147
  21372091.133 6   -103424.258 6    -73117.44549  21372091.98449
  20983157.422 7   -624946.641 7   -445209.36749  20983156.99249
  21930659.141 7   -171101.730 7   -119881.18048  21930657.30548
 20  5 16  0 20 20.0000000  0  9G03G04G08G14G16G21G26G27G31          0.000046591
  24659223.047 4    -62027.160 4    -43385.59448  24659224.98448
  22308738.094 6   -638169.410 6   -459527.39848  22308737.70348
  23153382.133 6   -791268.023 6   -527192.31649  23153382.14549
  22438344.000 6    106761.078 6     74709.83247  22438341.88747
  20688476.922 6   -269082.363 6   -187923.87548  20688474.23448
  24366029.188 5   -138417.324 5    -90828.20347  24366027.19147
  21371946.273 6   -104185.129 6    -73710.32849  21371947.59849
  20982250.047 7   -629714.910 7   -448924.90649  20982249.52349
  21930419.672 6   -172360.918 6   -120862.36348  21930417.62148
 20  5 16  0 20 21.0000000  0  9G03G04G08G14G16G21G26G27G31          0.000045105
  24659102.281 4    -62661.383 4    -43879.78148  24659104.14148
  22307852.672 6   -642824.918 6   -463155.06348  22307851.87148
  23152259.867 5   -797166.066 5   -531788.19549  23152259.82449
  22438505.445 5    107607.844 5     75369.66047  22438503.10947
  20688101.211 6   -271058.664 6   -189463.85248  20688098.42248
  24365559.891 5   -140878.973 5    -92746.36347  24365558.73047
  21371801.641 6   -104945.582 6    -74302.88349  21371802.30949
  20981342.508 7   -634482.340 7   -452639.78149  20981342.30149
  21930180.461 6   -173619.520 6   -121843.09448  21930178.08648
 20  5 16  0 20 22.0000000  0  9G03G04G08G14G16G21G26G27G31          0.000043619
  24658981.867 4    -63294.992 4    -44373.50848  24658983.55948
  22306966.586 6   -647479.574 6   -466782.06347  22306965.91447
  23151137.320 5   -803063.473 5   -536383.58649  23151137.84449
  22438666.539 6    108455.340 6     76030.05947  22438664.42247
  20687725.273 6   -273034.238 6   -191003.26248  20687722.17648
  24365091.906 6   -143339.844 6    -94663.92647  24365090.71547
  21371656.711 6   -105705.492 6    -74895.02049  21371658.41049
  20980435.641 7   -639248.828 7   -456353.92249  20980435.23849
  21929941.078 7   -174877.504 7   -122823.34848  21929938.86348
 20  5 16  0 20 23.0000000  0  9G03G04G08G14G16G21G26G27G31          0.000042135
  24658860.500 4    -63928.203 4    -44866.93048  24658862.77348
  22306081.125 6   -652133.453 6   -470408.44947  22306080.85947
  23150015.469 5   -808960.348 5   -540978.55149  23150015.68449
  22438827.898 6    109303.422 6     76690.91047  22438825.54747
  20687348.891 6   -275009.211 6   -192542.18848  20687346.23048
  24364623.711 6   -145800.012 6    -96580.94547  24364622.48847
  21371512.469 6   -106465.059 6    -75486.89849  21371513.68449
  20979528.773 7   -644014.469 7   -460067.40649  20979528.37549
  21929701.445 7   -176134.922 7   -123803.15648  21929699.33648
 20  5 16  0 20 24.0000000  0  9G03G04G08G14G16G21G26G27G31          0.000040649
  24658741.180 4    -64560.949 4    -45359.98848  24658742.86748
  22305195.406 6   -656786.566 6   -474034.23847  22305195.17647
  23148893.383 5   -814856.711 5   -545573.11349  23148893.84449
