     2.11           OBSERVATION DATA    G (GPS)             RINEX VERSION / TYPE
DAT2RINW 3.10 001   TBYT                30MAY18 21:26:57    PGM / RUN BY / DATE 
TBYT                TBYT                                    OBSERVER / AGENCY   
25535               TRIMBLE 4000SSI     Nav 7.32 Sig 3.08   REC # / TYPE / VERS 
00000000            TRM14532.00                             ANT # / TYPE        
----------------------------------------------------------- COMMENT             
Offset from BOTTOM OF ANTENNA to PHASE CENTER is  69.2 mm   COMMENT             
----------------------------------------------------------- COMMENT             
E184                                                        MARKER NAME         
E184                                                        MARKER NUMBER       
 -2966086.0028  5006102.3191  2603593.8981                  APPROX POSITION XYZ 
        1.4750        0.0000        0.0000                  ANTENNA: DELTA H/E/N
*** Above antenna height is from mark to PHASE CENTER.      COMMENT             
----------------------------------------------------------- COMMENT             
Note: The above height is to the antenna phase center.      COMMENT             
      The RINEX specification calls for this to be the      COMMENT             
      height from the bottom surface of the antenna mount   COMMENT             
      to the survey mark.                                   COMMENT             
Note: The above offsets are CORRECTED.                      COMMENT             
Raw Offsets: H=      1.4840 E=      0.0000 N=      0.0000   COMMENT             
----------------------------------------------------------- COMMENT             
     1     1     0                                          WAVELENGTH FACT L1/2
     4    L1    C1    L2    P2                              # / TYPES OF OBSERV 
     5.000                                                  INTERVAL            
  2018     5    30     0    25    5.0000000                 TIME OF FIRST OBS   
  2018     5    30     1    35   45.0000000                 TIME OF LAST OBS    
     0                                                      RCV CLOCK OFFS APPL 
    12                                                      # OF SATELLITES     
     3   847   847   825   825                              PRN / # OF OBS      
     8   141   143     0     0                              PRN / # OF OBS      
    14   849   849   847   847                              PRN / # OF OBS      
    16   849   849   849   849                              PRN / # OF OBS      
    21   180   185   106   106                              PRN / # OF OBS      
    22   729   734   696   696                              PRN / # OF OBS      
    23   849   849   838   838                              PRN / # OF OBS      
    26   849   849   849   849                              PRN / # OF OBS      
    27   807   808   787   787                              PRN / # OF OBS      
    29   336   336   336   336                              PRN / # OF OBS      
    31   849   849   849   849                              PRN / # OF OBS      
    32   659   659   656   656                              PRN / # OF OBS      
                                                            END OF HEADER       
 18  5 30  0 25  5.0000000  0 10  3 14 16 22 23 26 27 29 31 32
     12459.05915  23830886.64805      3650.83355  23830893.90645
     37756.99117  20699985.31307         0.00000         0.00000
    -23864.00917  20713227.94507    -16283.76057  20713233.23047
     36320.36015  23731463.80505     28301.74856  23731467.50846
    -75464.90815  24522849.88305         0.00000         0.00000
     30513.87718  20724612.90608     15954.29658  20724620.14148
    -57685.29913  22847663.58603         0.00000         0.00000
     81708.75616  23729565.64806     44484.85956  23729570.98046
     16820.00317  21685582.09407      3243.74657  21685586.54747
     85579.90117  22684466.23407         0.00000         0.00000
 18  5 30  0 25 10.0000000  0 10  3 14 16 22 23 26 27 29 31 32
     14465.35705  23831268.52305      5214.18145  23831274.72345
     44610.25707  20701289.18807         0.00000         0.00000
    -27360.84107  20712562.60907    -19008.56347  20712567.82447
     41926.09805  23732530.25005     32669.84846  23732534.35246
    -92559.18205  24519596.21105         0.00000         0.00000
     35240.73808  20725512.34408     19637.56448  20725519.57848
    -75666.05103  22844241.55503         0.00000         0.00000
     94205.77206  23731943.81306     54222.79146  23731949.15646
     19452.83108  21686082.90608      5295.31047  21686087.43047
    100954.45307  22687391.90607         0.00000         0.00000
 18  5 30  0 25 15.0000000  0 10  3 14 16 22 23 26 27 29 31 32
     16500.56505  23831655.43805      6800.06045  23831661.41445
     51494.82707  20702599.39807      2147.02657  20702604.25047
    -30828.51207  20711902.85907    -21710.64247  20711908.16847
     47556.47305  23733601.81305     37057.14746  23733605.87946
   -109633.59105  24516347.60905         0.00000         0.00000
     39992.48208  20726416.75008     23340.22448  20726424.07848
    -93625.44803  22840823.08603         0.00000         0.00000
    106730.98706  23734327.56306     63982.68546  23734332.71946
     22105.56207  21686587.92207      7362.37847  21686592.55147
    116354.36207  22690322.64107         0.00000         0.00000
 18  5 30  0 25 20.0000000  0 10  3 14 16 22 23 26 27 29 31 32
     18565.37705  23832048.90605      8409.00545  23832055.18845
     58411.44907  20703915.57007      7536.60747  20703920.45747
    -34266.26907  20711248.30507    -24389.41247  20711253.74247
     53212.20305  23734678.21905     41464.19646  23734682.35546
   -126687.31905  24513102.83605         0.00000         0.00000
     44769.87008  20727325.74208     27062.86148  20727333.03548
   -111562.74003  22837410.39803         0.00000         0.00000
    119285.15106  23736716.22706     73765.13746  23736721.39546
     24778.94607  21687096.82807      9445.53747  21687101.46947
    131780.35807  22693258.07807      9614.74457  22693266.01647
 18  5 30  0 25 25.0000000  0 10  3 14 16 22 23 26 27 29 31 32
     20658.86705  23832447.01605     10040.27845  23832453.09845
     65359.16307  20705237.62507     12950.40747  20705242.57047
    -37675.08207  20710599.77307    -27045.63047  20710605.07047
     58892.30805  23735758.96905     45890.23246  23735763.36346
   -143721.37905  24509861.51605         0.00000         0.00000
     49571.93108  20728239.50008     30804.72848  20728246.84048
   -129478.91503  22834000.02303         0.00000         0.00000
    131867.31206  23739110.82806     83569.40146  23739116.02046
     27472.06007  21687609.31307     11544.06447  21687613.89547
    147231.48607  22696198.37507     21654.58247  22696205.99647
 18  5 30  0 25 30.0000000  0 10  3 14 16 22 23 26 27 29 31 32
     22780.75805  23832850.48405     11693.70045  23832856.44945
     72337.66407  20706565.44507     18388.20347  20706570.57847
    -41055.22507  20709956.68007    -29679.51247  20709961.93047
     64596.50205  23736844.68005     50335.04746  23736848.47746
   -160736.00305  24506623.39805         0.00000         0.00000
     54398.37608  20729157.96908     34565.59448  20729165.33248
   -147374.14403  22830595.91403         0.00000         0.00000
    144477.16406  23741510.50006     93395.26446  23741515.65646
     30184.65707  21688125.46907     13657.77347  21688130.09847
    162707.45608  22699143.50808     33713.78447  22699150.93047
 18  5 30  0 25 35.0000000  0 10  3 14 16 22 23 26 27 29 31 32
     24932.16505  23833260.68005     13370.11345  23833267.68045
     79348.12507  20707899.61707     23850.89347  20707904.94947
    -44405.58707  20709318.97707    -32290.18747  20709324.08647
     70325.93606  23737934.72706     54799.54946  23737939.10946
   -177730.07505  24503390.03105         0.00000         0.00000
     59250.33308  20730081.34408     38346.33748  20730088.69548
   -165247.34103  22827194.66403         0.00000         0.00000
    157115.82306  23743915.19506    103243.57046  23743920.49246
     32917.80507  21688645.59407     15787.49347  21688650.27047
    178209.37707  22702093.33607     45793.20547  22702100.62947
 18  5 30  0 25 40.0000000  0 10  3 14 16 22 23 26 27 29 31 32
     27111.75205  23833674.55505     15068.49345  23833680.89545
     86389.20407  20709239.49207     29337.43947  20709244.93047
    -47727.49007  20708687.02307    -34878.68647  20708691.93447
     76079.30106  23739029.59406     59282.69146  23739033.78946
   -194704.85205  24500159.91405         0.00000         0.00000
     64126.49208  20731009.21108     42145.93548  20731016.59848
   -183099.77003  22823797.68803         0.00000         0.00000
    169782.04406  23746326.06306    113113.34246  23746331.19546
     35670.23107  21689169.21907     17932.23447  21689173.83647
    193735.96307  22705047.85207     57891.83847  22705055.13347
 18  5 30  0 25 45.0000000  0 10  3 14 16 22 23 26 27 29 31 32
     29319.27406  23834094.82006     16788.62445  23834101.73845
     93460.62107  20710585.32807     34847.63247  20710590.68447
    -51021.17507  20708060.43807    -37445.19647  20708065.43047
     81856.28106  23740129.21106     63784.23146  23740133.00846
   -211660.59605  24496933.17205         0.00000         0.00000
     69026.56508  20731941.69508     45964.16848  20731949.04748
   -200931.70503  22820405.79703         0.00000         0.00000
    182475.46206  23748741.01606    123004.31246  23748746.35946
     38441.67207  21689696.70307     20091.79347  21689701.41447
    209286.90507  22708007.07807     70009.43347  22708014.58247
 18  5 30  0 25 50.0000000  0 10  3 14 16 22 23 26 27 29 31 32
     31554.74605  23834520.33605     18530.55545  23834527.24245
    100562.41207  20711936.50807     40381.49047  20711941.91047
    -54286.58807  20707438.86707    -39989.67047  20707443.76647
     87656.93806  23741233.58606     68304.20146  23741237.35946
   -228597.30305  24493710.44505         0.00000         0.00000
     73950.58108  20732878.57008     49801.05548  20732886.05148
   -218743.06903  22817015.37503     -8322.71255  22817021.52745
    195196.13606  23751161.60906    132916.52646  23751166.57846
     41232.13307  21690227.73407     22266.17247  21690232.45747
    224862.23007  22710970.74207     82146.02447  22710978.43447
 18  5 30  0 25 55.0000000  0  9  3 14 16 22 23 26 29 31 32
     33817.68705  23834950.10905     20293.88345  23834956.80145
    107694.11507  20713293.48407     45938.65647  20713298.89847
    -57524.23007  20706822.56307    -42512.50747  20706827.40247
     93480.81906  23742341.34406     72842.26646  23742345.32846
   -245515.41005  24490491.49205         0.00000         0.00000
     78898.06808  20733819.88308     53656.23848  20733827.46948
    207943.64006  23753587.77306    142849.61746  23753592.53146
     44041.18206  21690762.25806     24455.03847  21690766.96947
    240461.46307  22713939.48407     94301.25047  22713947.25847
 18  5 30  0 26  0.0000000  0  9  3 14 16 22 23 26 29 31 32
     36108.28805  23835387.01605     22078.74045  23835395.58645
    114855.98007  20714656.51607     51519.32047  20714661.91847
    -60733.89707  20706211.89107    -45013.54647  20706216.68447
     99328.12206  23743454.41406     77398.57946  23743458.66846
   -262414.67505  24487275.39105     -2630.01055  24487278.71945
     83869.22008  20734765.78108     57529.86148  20734773.48448
    220718.05406  23756018.43806    152803.64746  23756023.51246
     46869.04207  21691300.28907     26658.55447  21691304.94147
    256084.82507  22716912.67207    106475.27946  22716920.60946
 18  5 30  0 26  5.0000000  0  9  3 14 16 22 23 26 29 31 32
     38427.44705  23835828.21905     23885.88045  23835835.87545
    122048.84207  20716025.26607     57124.14747  20716030.58647
    -63914.72107  20705606.58607    -47492.11447  20705611.12147
    105199.64006  23744571.81306     81973.78846  23744575.86746
   -279294.21605  24484062.93805    -15782.91245  24484065.85545
     88864.90308  20735716.50808     61422.60348  20735724.11748
    233520.25806  23758454.21106    162779.39446  23758459.52046
     49716.56007  21691842.11707     28877.40147  21691846.67647
    271733.18107  22719890.15607    118668.79547  22719897.98847
 18  5 30  0 26 10.0000000  0  9  3 14 16 22 23 26 29 31 32
     40772.95806  23836274.70306     25713.56245  23836282.26645
    129270.50207  20717399.47707     62751.41747  20717404.73847
    -67068.88907  20705006.24207    -49949.90447  20705010.60247
    111093.21606  23745692.96906     86566.19546  23745696.40246
   -296156.23405  24480854.36705    -28922.15246  24480857.28546
     93882.92408  20736671.57808     65332.75048  20736679.36348
    246348.14606  23760895.21106    172775.17046  23760901.08246
     52581.57407  21692387.25807     31109.89047  21692391.73447
    287404.29907  22722872.41407    130880.05747  22722880.28147
 18  5 30  0 26 15.0000000  0  9  3 14 16 22 23 26 29 31 32
     43144.88006  23836725.76606     27561.81545  23836733.10545
    136521.03307  20718779.01607     68401.17647  20718784.28947
    -70196.32307  20704411.19507    -52386.87047  20704415.64847
    117008.91006  23746819.35206     91175.83246  23746823.02046
   -313000.62405  24477648.95305    -42047.64946  24477651.95346
     98923.35208  20737630.73408     69260.35448  20737638.47348
    259201.75506  23763341.28106    182790.97646  23763347.78546
     55464.13607  21692935.78907     33356.04747  21692940.39547
    303098.25407  22725859.00807    143109.11147  22725866.80547
 18  5 30  0 26 20.0000000  0  9  3 14 16 22 23 26 29 31 32
     45544.77505  23837182.44505     29431.86146  23837190.18446
    143802.04007  20720164.69507     74074.67947  20720170.14547
    -73295.45507  20703821.46107    -54801.78047  20703825.94947
    122948.28106  23747949.29706     95803.90046  23747953.11746
   -329825.80805  24474447.28905    -55158.18546  24474450.88746
    103987.73508  20738594.25808     73206.62248  20738602.10248
    272082.58806  23765792.60206    192827.98546  23765798.70746
     58365.86308  21693487.91408     35617.12647  21693492.63747
    318816.60307  22728849.96107    155357.16347  22728857.55947
 18  5 30  0 26 25.0000000  0  9  3 14 16 22 23 26 29 31 32
     47973.12005  23837644.88305     31324.07246  23837652.59846
    151113.96707  20721556.21907     79772.28047  20721561.65647
    -76365.83707  20703237.06307    -57194.28547  20703241.51647
    128911.80006  23749084.13306    100450.78246  23749087.97746
   -346631.28305  24471248.86705    -68253.35446  24471251.87946
    109076.55408  20739562.71108     77171.92748  20739570.52048
    284991.14906  23768249.18806    202886.60646  23768255.39846
     61287.22107  21694043.89807     37893.50147  21694048.57447
    334559.84807  22731845.71907    167624.61047  22731853.38747
 18  5 30  0 26 30.0000000  0  9  3 14 16 22 23 26 29 31 32
     50430.17206  23838113.44506     33238.65246  23838120.98446
    158457.09307  20722953.10907     85494.19147  20722958.85247
    -79407.16907  20702658.61707    -59564.15547  20702663.21147
    134899.69606  23750223.56306    105116.67046  23750227.43046
   -363416.74805  24468054.69505    -81332.92446  24468057.57846
    114190.08508  20740535.85208     81156.49348  20740543.68448
    297927.69106  23770710.05506    212967.03746  23770716.12546
     64228.49807  21694603.51607     40185.40147  21694608.19147
    350328.21507  22734846.25807    179911.63746  22734854.06646
 18  5 30  0 26 35.0000000  0  9  3 14 16 22 23 26 29 31 32
     52916.09106  23838586.00006     35175.70846  23838593.64546
    165831.52407  20724356.78107     91240.48947  20724362.84047
    -82419.35807  20702085.03107    -61911.31747  20702089.63747
    140912.12306  23751367.48406    109801.67446  23751370.69546
   -380182.07805  24464864.60905    -94396.83646  24464867.30546
    119328.44308  20741513.79708     85160.40348  20741521.67648
    310892.34906  23773177.40606    223069.37346  23773183.67646
     67189.85307  21695167.03107     42492.94847  21695171.63747
    366121.86107  22737851.93807    192218.36547  22737860.00447
 18  5 30  0 26 40.0000000  0  9  3 14 16 22 23 26 29 31 32
     55430.76806  23839064.07006     37135.19846  23839072.10246
    173237.19607  20725766.03107     97011.13547  20725771.69147
    -85402.44007  20701517.64807    -64235.79447  20701522.25447
    146949.00706  23752516.07006    114505.73246  23752518.98846
   -396927.33305  24461677.45305   -107445.09246  24461679.24646
    124491.56208  20742496.14108     89183.60948  20742503.93848
    323885.08706  23775650.00806    233193.57446  23775656.10246
     70171.21707  21695734.39807     44816.08847  21695739.22747
    381940.71307  22740861.93807    204544.72646  22740869.77046
 18  5 30  0 26 45.0000000  0  9  3 14 16 22 23 26 29 31 32
     57974.22706  23839547.97706     39117.12746  23839555.57446
    180674.11707  20727181.15607    102806.13547  20727186.77047
    -88356.42207  20700955.35907    -66537.59947  20700960.02347
    153010.37706  23753669.82806    119228.88446  23753672.13746
   -413652.49305  24458494.68005   -120477.68746  24458496.77746
    129679.45108  20743483.54708     93226.11548  20743491.40248
    336905.89006  23778128.35906    243339.64246  23778134.35946
     73172.57408  21696305.55508     47154.80347  21696310.41847
    397784.76007  22743876.73407    216890.72046  22743884.61346
 18  5 30  0 26 50.0000000  0  9  3 14 16 22 23 26 29 31 32
     60545.96906  23840037.29706     41121.07446  23840044.76646
    188141.75607  20728602.39107    108625.07547  20728607.78147
    -91281.81407  20700398.78107    -68817.12647  20700403.39847
    159095.65106  23754827.71106    123970.64846  23754830.52346
   -430358.03405  24455316.01605   -133494.98946  24455318.60546
    134891.56308  20744475.18808     97287.49848  20744483.04348
    349954.17106  23780610.58606    253507.12646  23780616.83246
     76193.41708  21696880.53108     49508.69947  21696885.35947
    413653.47307  22746896.57007    229255.93946  22746904.46146
 18  5 30  0 26 55.0000000  0  9  3 14 16 22 23 26 29 31 32
     63144.71805  23840532.43805     43146.06646  23840540.28146
    195638.91207  20730029.07007    114467.01947  20730034.63747
    -94179.88207  20699846.96907    -71075.36147  20699851.50447
    165203.60506  23755990.23406    128730.09346  23755993.00046
   -447045.22206  24452140.64106   -146497.99046  24452143.39546
    140126.65708  20745471.54708    101366.79248  20745479.23848
    363028.75306  23783099.01606    263695.09346  23783105.20346
     79232.54707  21697459.03107     51876.85147  21697463.64847
    429545.60207  22749920.96107    241639.40246  22749928.75846
 18  5 30  0 27  0.0000000  0  9  3 14 16 22 23 26 29 31 32
     65772.45305  23841032.04705     45193.64745  23841039.28145
    203167.56507  20731461.61707    120333.50247  20731467.24247
    -97048.60007  20699301.39107    -73310.72847  20699306.11347
    171336.23106  23757156.85206    133508.75446  23757159.46546
   -463712.02006  24448969.62506   -159485.09846  24448971.89846
    145386.73108  20746472.48408    105465.55348  20746480.16448
    376131.62306  23785592.14106    273905.10446  23785598.21146
     82291.94307  21698041.28107     54260.79247  21698045.80547
    445463.12607  22752949.77307    254042.66046  22752957.59446
 18  5 30  0 27  5.0000000  0  9  3 14 16 22 23 26 29 31 32
     68425.97605  23841536.57805     47261.32345  23841544.63345
    210724.54307  20732899.63307    126222.05247  20732905.19947
    -99891.20007  20698760.55507    -75525.74247  20698765.23047
    177490.30806  23758328.43006    138304.13146  23758331.31346
   -480361.65806  24445801.10906   -172458.85046  24445803.82846
    150668.57308  20747477.65608    109581.27448  20747485.21948
    389259.51806  23788090.39106    284134.63446  23788096.33246
     85368.40507  21698626.55507     56658.02947  21698631.06647
    461402.87007  22755983.15607    266463.22746  22755991.10546
 18  5 30  0 27 10.0000000  0  9  3 14 16 22 23 26 29 31 32
     71105.91005  23842047.48405     49349.55545  23842056.25445
    218310.46107  20734343.32007    132133.14847  20734348.78147
   -102707.03707  20698224.67207    -77719.90347  20698229.40647
    183666.44206  23759503.43006    143116.69646  23759505.73846
   -496993.44306  24442636.19506   -185418.68746  24442638.87946
    155972.80508  20748486.96108    113714.43748  20748494.40648
    402413.11706  23790593.01606    294384.20146  23790599.08646
     88462.56006  21699215.30506     59069.05647  21699219.69947
    477365.42007  22759020.60207    278901.56546  22759028.56346
 18  5 30  0 27 15.0000000  0  9  3 14 16 22 23 26 29 31 32
     73811.85506  23842562.40606     51458.06845  23842570.67245
    225924.87607  20735792.17207    138066.45247  20735797.35247
   -105496.50807  20697693.78107    -79893.51547  20697698.31647
    189864.24606  23760683.02306    147946.15746  23760685.83646
   -513607.75206  24439474.37506   -198364.91446  24439476.94146
    161299.00108  20749500.53108    117864.71548  20749507.88348
    415591.96906  23793101.95306    304653.43146  23793108.23446
     91574.01206  21699807.38306     61493.56247  21699811.69547
    493350.34507  22762062.57807    291357.33946  22762070.46946
 18  5 30  0 27 20.0000000  0  9  3 14 16 22 23 26 29 31 32
     76540.94805  23843081.31305     53584.64046  23843090.18846
    233564.94907  20737246.29707    144019.74947  20737251.88747
   -108262.46807  20697167.30507    -82048.81047  20697172.05147
    196080.85806  23761866.10206    152790.26946  23761869.28946
   -530207.46106  24436315.49206   -211299.75246  24436317.95346
    166644.33508  20750517.75808    122029.90748  20750525.09848
    428793.18606  23795613.53106    314940.09646  23795619.91846
     94699.89906  21700402.18006     63929.31247  21700406.50447
    509354.85407  22765108.18807    303828.37847  22765116.21947
 18  5 30  0 27 25.0000000  0  9  3 14 16 22 23 26 29 31 32
     79298.36705  23843605.39105     55733.28346  23843613.72746
    241235.88507  20738705.85207    149997.09447  20738711.38347
   -110999.75607  20696646.77307    -84181.76347  20696651.40247
    202321.46006  23763053.25006    157653.08146  23763056.82446
   -546787.34906  24433161.12506   -224219.15246  24433163.71546
    172013.96008  20751539.55508    126214.02848  20751546.94148
    442021.97106  23798131.06306    325248.23046  23798136.94546
     97845.46606  21701000.79706     66380.39547  21701005.05147
    525384.07407  22768158.43007    316318.66847  22768166.34447
 18  5 30  0 27 30.0000000  0  9  3 14 16 22 23 26 29 31 32
     82083.89905  23844135.59405     57903.80545  23844143.50845
    248937.44207  20740171.22707    155998.29647  20740176.67647
   -113708.59007  20696130.94507    -86292.54447  20696135.65647
    208585.82206  23764245.53106    162534.38046  23764249.03546
   -563347.62106  24430009.41406   -237123.26546  24430011.73446
    177407.64308  20752565.96108    130416.89548  20752573.32448
    455278.06406  23800653.50006    335577.64046  23800658.82046
    101010.45806  21701603.16406     68846.62047  21701607.34847
    541437.78907  22771213.48407    328828.04246  22771221.57446
 18  5 30  0 27 35.0000000  0  9  3 14 16 22 23 26 29 31 32
     84893.80405  23844670.42205     60093.33045  23844679.83645
    256665.89207  20741641.89807    162020.46846  20741647.31346
   -116392.68607  20695620.17207    -88384.04447  20695624.94147
    214870.14506  23765441.51606    167431.24346  23765444.73846
   -579892.05906  24426860.47706   -250015.04046  24426863.61746
    182821.67508  20753596.32808    134635.62148  20753603.84448
    468557.80706  23803180.30506    345925.47146  23803186.41046
    104191.14906  21702208.48406     71325.06747  21702212.83247
    557512.26806  22774271.92206    341353.59646  22774280.29346
 18  5 30  0 27 40.0000000  0  9  3 14 16 22 23 26 29 31 32
     87726.73805  23845209.61705     62300.76245  23845218.22345
    264419.95407  20743117.72707    168062.59946  20743123.27046
   -119053.37407  20695114.07007    -90457.31047  20695118.95747
    221173.16306  23766641.10906    172342.68846  23766643.96946
   -596421.87705  24423714.82805   -262895.41146  24423717.61746
    188254.72208  20754630.11708    138869.16348  20754637.78548
    481859.78906  23805712.11706    356290.63746  23805718.18846
    107386.22806  21702816.49206     73814.71147  21702820.86347
    573606.18606  22777334.80506    353894.30046  22777342.57846
 18  5 30  0 27 45.0000000  0  9  3 14 16 22 23 26 29 31 32
     90583.02005  23845753.42205     64526.41445  23845761.87545
    272199.90907  20744598.25807    174124.89546  20744603.94146
   -121690.34107  20694612.32007    -92512.09447  20694617.32447
    227495.18906  23767843.83606    177268.95046  23767846.73046
   -612936.78805  24420572.36705   -275764.17046  24420574.88746
    193707.08808  20755667.60908    143117.75748  20755675.41848
    495184.39006  23808247.64106    366673.42746  23808253.32446
    110596.04306  21703427.27306     76315.85247  21703431.62147
    589719.83606  22780400.93806    366450.38446  22780408.85246
 18  5 30  0 27 50.0000000  0  9  3 14 16 22 23 26 29 31 32
     93462.29205  23846301.65605     66770.03045  23846311.04745
    280005.43107  20746083.67207    180207.10347  20746089.29747
   -124303.96207  20694114.86707    -94548.68847  20694119.93047
    233835.85406  23769050.35206    182209.73146  23769053.56346
   -629437.09806  24417433.17206   -288621.53346  24417435.36346
    199178.39308  20756708.85208    147381.11048  20756716.59048
    508531.15206  23810787.26606    377073.50246  23810792.63346
    113820.22007  21704040.89807     78828.21047  21704045.16447
    605852.83607  22783471.00807    379021.53446  22783478.74646
 18  5 30  0 27 55.0000000  0  9  3 14 16 22 23 26 29 31 32
     96364.91205  23846853.25005     69031.84145  23846861.92645
    287836.88007  20747574.18007    186309.51647  20747579.52347
   -126893.82907  20693622.22707    -96566.76847  20693627.35947
    240195.52806  23770260.39806    187165.30946  23770263.98446
   -645922.49506  24414295.77306   -301467.30446  24414298.72746
    204669.04908  20757753.75808    151659.53848  20757761.53148
    521900.56906  23813331.57806    387491.24346  23813337.10946
    117059.17307  21704657.21107     81352.08247  21704661.59447
    622005.61507  22786544.89807    391608.09346  22786552.63746
 18  5 30  0 28  0.0000000  0  9  3 14 16 22 23 26 29 31 32
     99291.21605  23847410.90605     71312.10145  23847419.59445
    295694.52607  20749069.45307    192432.35247  20749074.50447
   -129459.65107  20693133.77307    -98566.11247  20693138.89547
    246574.50406  23771474.55506    192135.92046  23771478.15246
   -662392.52806  24411161.48406   -314301.11146  24411163.60546
    210179.35108  20758802.17208    155953.27648  20758809.84048
    535292.89106  23815879.96106    397926.82846  23815885.56346
    120313.20306  21705276.39106     83887.69247  21705280.86747
    638178.44207  22789622.57007    404210.28446  22789630.22746
 18  5 30  0 28  5.0000000  0  9  3 14 16 22 23 26 29 31 32
    102240.65005  23847971.05505     73610.36845  23847979.33245
    303577.88607  20750569.46907    198575.22947  20750574.48447
   -132001.96707  20692650.15607   -100547.13947  20692655.21947
    252972.24306  23772691.48406    197121.15846  23772695.03546
   -678847.78606  24408030.68806   -327123.38346  24408032.37546
    215708.75407  20759854.39107    160261.90048  20759862.08248
    548707.58606  23818432.37506    408379.84046  23818438.36346
    123581.76206  21705898.18806     86434.62247  21705902.75847
    654370.78807  22792704.01607    416827.68846  22792711.75446
 18  5 30  0 28 10.0000000  0  9  3 14 16 22 23 26 29 31 32
    105213.37405  23848537.22705     75926.76246  23848546.16046
    311487.06107  20752074.54707    204738.22147  20752079.52747
   -134520.67207  20692170.59407   -102509.76347  20692175.62147
    259388.86106  23773912.98406    202121.12146  23773916.39546
   -695288.13806  24404901.83606   -339934.04946  24404904.43846
    221257.37007  20760910.47707    164585.49548  20760918.15648
    562144.75906  23820989.69506    418850.35246  23820995.33246
    126865.01406  21706523.03906     88993.00147  21706527.71547
    670582.76207  22795788.67207    429460.38546  22795796.43446
 18  5 30  0 28 15.0000000  0  9  3 14 16 22 23 26 29 31 32
    108209.09805  23849106.94505     78261.08045  23849114.52045
    319421.76907  20753584.56307    210921.11447  20753589.43847
   -137016.00807  20691696.05507   -104454.17747  20691701.27047
    265824.11806  23775137.48406    207135.60146  23775141.04746
   -711713.82206  24401776.25006   -352733.28746  24401778.84046
    226824.94307  20761969.93807    168923.85948  20761977.52348
    575604.15506  23823550.95306    429338.18646  23823556.46146
    130162.70606  21707150.65606     91562.62947  21707155.23847
    686814.11007  22798877.62507    442108.18146  22798885.70346
 18  5 30  0 28 20.0000000  0  9  3 14 16 22 23 26 29 31 32
    111227.14105  23849681.91405     80612.79346  23849690.77746
    327381.40507  20755099.27307    217123.42847  20755104.32447
   -139488.60407  20691225.54707   -106380.87547  20691230.97347
    272277.33006  23776365.28906    212164.06546  23776368.64146
   -728125.45106  24398653.20306   -365521.56346  24398655.93446
    232410.83607  20763032.78907    173276.49948  20763040.24648
    589085.13206  23826116.43006    439842.83746  23826122.20746
    133474.20906  21707780.98406     94143.01647  21707785.53147
    703064.19407  22801969.68007    454770.57246  22801977.80546
 18  5 30  0 28 25.0000000  0  9  3 14 16 22 23 26 29 31 32
    114267.48605  23850260.25805     82981.90246  23850268.50046
    335365.89107  20756618.48407    223345.10447  20756623.59447
   -141938.48307  20690759.23407   -108289.86947  20690764.76647
    278748.43006  23777596.38306    217206.48046  23777599.45346
   -744523.05606  24395532.59406   -378298.90846  24395534.85546
    238014.97607  20764099.28107    177643.36348  20764106.62148
    602587.57806  23828685.75006    450364.21846  23828691.09446
    136799.48206  21708413.71906     96734.13647  21708418.28947
    719332.92307  22805065.53107    467447.49146  22805073.77346
 18  5 30  0 28 30.0000000  0  9  3 14 16 22 23 26 29 31 32
    117328.84905  23850843.06305     85367.40845  23850851.48045
    343373.98507  20758142.30507    229585.17747  20758147.47347
   -144366.94807  20690297.14807   -110182.18047  20690302.64547
    285236.17406  23778831.13306    222261.85846  23778834.46146
   -760907.94206  24392414.88306   -391066.32646  24392416.81646
    243636.07507  20765168.95307    182023.44048  20765176.21148
    616110.20906  23831258.78906    460901.33946  23831264.19146
    140137.25406  21709048.81306     99334.99347  21709053.30147
    735619.00507  22808164.82007    480137.92746  22808172.88746
 18  5 30  0 28 35.0000000  0  9  3 14 16 22 23 26 29 31 32
    120410.68405  23851429.82805     87768.81845  23851438.37545
    351405.16307  20759670.65607    235843.23247  20759676.14147
   -146774.54907  20689838.96907   -112058.23747  20689844.35947
    291739.96205  23780068.97705    227329.72646  23780072.24646
   -777280.62206  24389299.12506   -403824.25046  24389301.93846
    249273.59807  20766241.89807    186416.31448  20766249.23848
    629652.53406  23833836.18806    471453.80546  23833841.61346
    143486.97306  21709686.46906    101945.16447  21709690.94547
    751921.93107  22811267.18807    492841.49646  22811275.14846
 18  5 30  0 28 40.0000000  0  9  3 14 16 22 23 26 29 31 32
    123513.36405  23852019.63305     90186.48046  23852028.97746
    359459.81207  20761203.67207    242119.57647  20761209.22747
   -149160.84007  20689385.08607   -113917.68547  20689390.54747
    298260.22906  23781309.06306    232410.44046  23781312.01646
   -793640.66106  24386185.98406   -416572.33846  24386189.09046
    254927.94607  20767317.71907    190822.29748  20767325.12948
    643214.90606  23836417.22706    482021.89246  23836422.52346
    146849.06806  21710326.04706    104564.97947  21710330.48847
    768242.08407  22814372.75807    505558.48746  22814380.56646
 18  5 30  0 28 45.0000000  0  9  3 14 16 22 23 26 29 31 32
    126637.23405  23852614.17205     92620.66046  23852622.82446
    367538.24407  20762740.83607    248414.45047  20762746.36747
   -151525.53807  20688934.79707   -115760.31147  20688940.29347
    304797.34006  23782553.64106    237504.29546  23782556.77046
   -809987.72406  24383075.15606   -429310.29646  24383078.39146
    260599.43007  20768396.97707    195241.63148  20768404.41048
    656797.64306  23839001.73406    492605.84646  23839007.53546
    150223.84406  21710968.21906    107194.67347  21710972.62547
    784579.77407  22817481.92207    518289.14446  22817489.70746
 18  5 30  0 28 50.0000000  0  9  3 14 16 22 23 26 29 31 32
    129783.42405  23853212.64805     95072.25446  23853220.91446
    375641.60007  20764282.93807    254728.75247  20764288.35247
   -153867.53707  20688488.98407   -117585.24447  20688494.41047
    311352.32906  23783800.67206    242612.08646  23783804.58646
   -826320.64806  24379967.04706   -442037.24246  24379970.72746
    266289.18207  20769479.73407    199675.20148  20769487.15648
    670401.88706  23841590.50006    503206.54546  23841596.74646
    153612.48106  21711613.02306    109835.16547  21711617.38347
    800936.13607  22820594.47707    531034.35146  22820602.03946
 18  5 30  0 28 55.0000000  0  9  3 14 16 22 23 26 29 31 32
    132951.32805  23853815.85205     97540.75946  23853824.02346
    383769.28007  20765829.57007    261062.00547  20765834.92647
   -156187.42207  20688047.83607   -119392.94747  20688053.26247
    317924.61305  23785051.57005    247733.34446  23785055.48446
   -842640.06306  24376861.12506   -454753.66846  24376864.84046
    271996.59907  20770565.71907    204122.53648  20770573.14148
    684027.05106  23844183.81306    513823.54346  23844189.50846
    157014.35806  21712260.49206    112485.97847  21712264.88747
    817310.56107  22823710.09407    543793.63646  22823718.05546
 18  5 30  0 29  0.0000000  0  9  3 14 16 22 23 26 29 31 32
    136142.35305  23854423.00005    100027.26046  23854431.73446
    391922.68107  20767380.89107    267415.30047  20767385.88347
   -158483.78607  20687610.86707   -121182.32147  20687616.27047
    324515.61006  23786305.67206    252869.17246  23786309.09446
   -858944.51206  24373758.39106   -467458.42846  24373762.04746
    277723.06907  20771655.28107    208584.71848  20771662.73848
    697674.49606  23846780.43806    524457.90946  23846785.89846
    160430.86306  21712910.41406    115148.18047  21712914.90247
    833704.43807  22826829.68807    556568.07646  22826837.57846
 18  5 30  0 29  5.0000000  0  9  3 14 16 22 23 26 29 31 32
    139357.09505  23855035.29705    102532.23146  23855043.98446
    400102.43907  20768937.62507    273789.13747  20768942.50047
   -160755.93507  20687178.29707   -122952.82747  20687183.75847
    331125.96806  23787563.46906    258020.08446  23787566.94946
   -875233.28106  24370658.82806   -480150.97746  24370662.69546
    283469.27007  20772748.93807    213062.27748  20772756.51248
    711344.90806  23849382.21106    535110.16146  23849387.50846
    163862.73206  21713563.67206    117822.35547  21713568.07847
    850118.45007  22829953.41407    569358.20246  22829961.34046
 18  5 30  0 29 10.0000000  0  9  3 14 16 22 23 26 29 31 32
    142594.62905  23855651.17205    105054.99046  23855659.44946
    408307.55207  20770499.00007    280182.73147  20770503.91047
   -163004.92807  20686750.51607   -124705.28847  20686756.02347
    337754.67706  23788825.29706    263185.29746  23788828.57846
   -891507.41006  24367562.02306   -492832.12446  24367565.85546
    289234.16807  20773845.97707    217554.40448  20773853.66848
    725037.25806  23851987.69506    545779.51246  23851992.82846
    167308.88406  21714219.31306    120507.66547  21714223.75447
    866551.54507  22833080.48407    582163.19546  22833088.42246
 18  5 30  0 29 15.0000000  0  9  3 14 16 22 23 26 29 31 32
    145855.88805  23856271.43805    107596.23545  23856279.89145
    416539.05607  20772065.64807    286596.88547  20772070.61747
   -165229.76107  20686327.22707   -126438.92547  20686332.77047
    344402.74006  23790090.25006    268365.60646  23790094.53946
   -907765.87306  24364468.31306   -505501.04846  24364471.35946
    295018.75807  20774946.77307    222061.87648  20774954.58248
    738752.55706  23854597.46906    556466.76046  23854603.17646
    170770.38106  21714877.96906    123204.92947  21714882.49247
    883004.73507  22836211.23407    594983.84846  22836219.21946
 18  5 30  0 29 20.0000000  0 10  3 14 16 22 23 26 27 29 31 32
    149140.49105  23856896.63305    110155.66946  23856905.44946
    424796.52007  20773636.75807    293031.26847  20773641.65647
   -167430.83107  20685908.21907   -128154.04747  20685913.77347
    351069.71906  23791358.81306    273560.66046  23791362.56346
   -924009.07506  24361376.80506   -518158.06446  24361380.28546
    300822.64007  20776051.11707    226584.37948  20776058.96148
         0.00000  22677948.22702         0.00000         0.00000
    752490.34106  23857211.78106    567171.51146  23857217.35946
    174246.79506  21715539.35206    125913.81847  21715543.88747
    899477.61107  22839346.11707    607819.84346  22839354.18446
 18  5 30  0 29 25.0000000  0 10  3 14 16 22 23 26 27 29 31 32
    152448.11705  23857525.59405    112733.01445  23857534.18845
    433079.65907  20775212.98407    299485.65647  20775217.81347
   -169608.42207  20685493.86707   -129850.86947  20685499.46947
    357755.25806  23792631.21906    278770.15646  23792634.95746
   -940237.33806  24358288.89106   -530803.45546  24358292.55946
    306645.49907  20777159.18807    231121.66648  20777167.06648
         3.26313  22674711.36703         0.00000         0.00000
    766250.34706  23859830.23406    577893.58946  23859835.44946
    177737.84506  21716203.92206    128634.11147  21716208.53947
    915969.85207  22842484.60907    620670.92446  22842492.60546
 18  5 30  0 29 30.0000000  0 10  3 14 16 22 23 26 27 29 31 32
    155778.75505  23858160.03105    115328.31546  23858167.86346
    441388.45707  20776794.28107    305960.03947  20776799.19147
   -171762.56107  20685083.93007   -131529.42147  20685089.43847
    364459.38706  23793907.15606    283994.15246  23793911.05946
   -956450.62606  24355203.71106   -543437.19846  24355207.67246
    312487.32507  20778270.75807    235673.73348  20778278.71948
    -17016.71302  22671471.10902         0.00000         0.00000
    780032.54706  23862452.74206    588632.95546  23862457.69946
    181243.54206  21716871.00006    131365.81147  21716875.64147
    932481.44307  22845626.72707    633537.07846  22845634.59446
 18  5 30  0 29 35.0000000  0 10  3 14 16 22 23 26 27 29 31 32
    159132.38305  23858797.93805    117941.54846  23858806.54346
    449722.82007  20778380.31307    312454.34747  20778385.08247
   -173893.31507  20684678.35207   -133189.74847  20684683.81347
    371182.05506  23795186.07006    289232.58646  23795189.57446
   -972648.92106  24352121.39806   -556059.24646  24352124.97346
    318348.04107  20779386.04707    240240.52248  20779394.02048
    -34020.17703  22668235.89803         0.00000         0.00000
    793836.91906  23865079.60206    599389.60746  23865084.82846
    184763.81306  21717540.93806    134108.87247  21717545.54347
    949012.32407  22848772.51607    646418.27546  22848780.21946
 18  5 30  0 29 40.0000000  0 10  3 14 16 22 23 26 27 29 31 32
    162508.36605  23859440.64105    120572.19046  23859449.04746
    458082.22907  20779970.93007    318968.16747  20779975.65247
   -176001.22407  20684277.54707   -134832.27947  20684283.06647
    377922.64306  23796469.02306    294484.98446  23796472.30546
   -988832.81506  24349041.82006   -568670.08146  24349044.89146
    324227.10007  20780504.82807    244821.60848  20780512.83648
    -51007.61503  22665004.07003         0.00000         0.00000
    807662.86806  23867710.65606    610163.07046  23867715.98846
    188298.11106  21718213.46106    136862.86847  21718218.11347
    965561.93107  22851921.75007    659314.06746  22851929.39546
 18  5 30  0 29 45.0000000  0 10  3 14 16 22 23 26 27 29 31 32
    165907.10805  23860087.16405    123220.55145  23860096.63745
    466467.03807  20781566.60907    325501.78047  20781571.28547
   -178085.97707  20683880.52307   -136456.76347  20683885.98447
    384681.53406  23797755.60906    299751.65246  23797758.94946
  -1005001.95706  24345965.00006   -581269.40946  24345967.93046
    330124.83807  20781627.19507    249417.24848  20781635.20348
    -67978.70603  22661773.46103         0.00000         0.00000
    821510.70106  23870346.27306    620953.59746  23870351.11346
    191846.82206  21718888.69506    139628.09747  21718893.40647
    982130.59707  22855074.62507    672224.70746  22855082.08246
 18  5 30  0 29 50.0000000  0 10  3 14 16 22 23 26 27 29 31 32
    169326.98405  23860738.35205    125885.38145  23860746.74645
    474875.64807  20783166.68007    332053.93947  20783171.44947
   -180149.11507  20683487.92207   -138064.40447  20683493.33647
    391457.16306  23799044.70306    305031.35746  23799048.14846
  -1021157.85406  24342890.39806   -593858.42346  24342893.16446
    336039.66107  20782752.82007    254026.19748  20782760.92248
    -84934.96003  22658546.65603         0.00000         0.00000
    835378.84206  23872985.07806    631759.93546  23872989.68446
    195408.40906  21719566.49206    142403.35547  21719571.28547
    998716.75207  22858230.85907    685148.97446  22858238.31646
 18  5 30  0 29 55.0000000  0 10  3 14 16 22 23 26 27 29 31 32
    172769.04405  23861393.40605    128567.51246  23861402.28146
    483309.11107  20784771.34407    338625.46847  20784775.97347
   -182189.64707  20683099.68007   -139654.42847  20683105.02347
    398250.54206  23800337.31306    310324.88946  23800339.91446
  -1037299.48505  24339818.61705   -606436.31446  24339822.06346
    341972.62507  20783881.64107    258649.28248  20783889.75448
   -101875.35603  22655322.95303         0.00000         0.00000
    849268.31206  23875628.20306    642582.89246  23875632.60946
    198983.85506  21720247.07806    145189.41347  21720251.73047
   1015321.31607  22861390.46907    698087.58446  22861397.90246
 18  5 30  0 30  0.0000000  0 10  3 14 16 22 23 26 27 29 31 32
    176232.72505  23862052.20305    131266.49746  23862060.94946
    491766.84707  20786380.72707    345215.91247  20786385.49647
   -184208.11507  20682715.55507   -141227.25747  20682721.00447
    405061.10106  23801633.88306    315631.80646  23801636.27346
  -1053427.42605  24336749.83605   -619003.55746  24336753.59846
    347923.15008  20785013.78908    263286.05448  20785021.99648
   -118800.37803  22652102.80503         0.00000         0.00000
    863178.51206  23878275.21106    653421.98546  23878279.65246
    202572.62206  21720929.98406    147985.85047  21720934.62547
   1031943.92807  22864553.89807    711040.25846  22864561.80146
 18  5 30  0 30  5.0000000  0 10  3 14 16 22 23 26 27 29 31 32
    179718.39805  23862714.92205    133982.59245  23862723.92645
    500249.22707  20787994.97707    351825.55647  20787999.73447
   -186204.10407  20682335.76607   -142782.57447  20682341.14547
    411889.23706  23802933.18806    320952.43346  23802935.95346
  -1069541.24905  24333683.04705   -631559.79146  24333687.20746
    353891.60708  20786149.80508    267936.79848  20786157.91848
   -135709.70003  22648885.37503         0.00000         0.00000
    877109.92406  23880926.19506    664277.62046  23880930.73046
    206175.08906  21721615.40606    150792.96247  21721619.95347
   1048584.85607  22867720.34407    724007.19946  22867728.41046
 18  5 30  0 30 10.0000000  0 10  3 14 16 22 23 26 27 29 31 32
    183225.55405  23863382.39105    136715.43845  23863390.72745
    508755.77207  20789613.68807    358454.03047  20789618.69147
   -188178.15807  20681960.07007   -144320.79847  20681965.50847
    418734.38706  23804235.75006    326286.31246  23804238.93846
  -1085641.47405  24330619.24205   -644105.41146  24330623.76646
    359877.48408  20787288.65608    272601.11448  20787296.77048
   -152603.80703  22645671.36703         0.00000         0.00000
    891061.95106  23883581.05506    675149.34446  23883585.10946
    209790.76006  21722303.38306    153610.36347  21722307.88347
   1065243.57507  22870890.39807    736987.99746  22870898.57046
 18  5 30  0 30 15.0000000  0 10  3 14 16 22 23 26 27 29 31 32
    186753.77405  23864053.80505    139464.69845  23864062.69145
    517286.02707  20791237.05507    365100.97747  20791242.00047
   -190130.71407  20681588.77307   -145842.27147  20681594.05947
    425596.11706  23805541.25006    331633.10146  23805544.06346
  -1101728.51005  24327558.34405   -656640.75346  24327562.62146
    365880.34008  20788431.26608    277278.65948  20788439.35548
   -169483.09904  22642459.20304         0.00000         0.00000
    905034.11806  23886239.71906    686036.75146  23886243.77346
    213419.20206  21722993.91406    156437.72047  21722998.33247
   1081919.66107  22874063.85207    749982.33646  22874072.15246
 18  5 30  0 30 20.0000000  0 10  3 14 16 22 23 26 27 29 31 32
    190302.00305  23864729.24205    142229.53745  23864737.60245
    525838.96807  20792864.28907    371765.59947  20792869.38747
   -192062.77607  20681220.82807   -147347.77647  20681226.07847
    432473.41606  23806850.31306    336992.02346  23806852.89146
  -1117803.36705  24324499.53905   -669166.59946  24324503.64146
    371899.15607  20789576.57807    281968.64248  20789584.53948
   -186348.57704  22639248.85204         2.43155  22639252.68445
    919025.46006  23888902.40606    696939.09746  23888906.78946
    217059.41906  21723686.63306    159274.25747  21723691.13347
   1098612.07107  22877240.40607    762989.39946  22877248.70746
 18  5 30  0 30 25.0000000  0 10  3 14 16 22 23 26 27 29 31 32
    193871.68906  23865409.26606    145011.12945  23865417.35545
    534416.06307  20794496.64807    378449.05047  20794501.79347
   -193972.88607  20680857.23407   -148836.17647  20680862.39147
    439367.72106  23808161.92206    342364.21246  23808164.81646
  -1133864.59805  24321442.94505   -681681.83846  24321447.65646
    377935.37707  20790725.19507    286672.18548  20790733.06348
   -203198.74604  22636042.27304    -13127.57045  22636045.91845
    933037.42306  23891568.59406    707857.50146  23891573.32846
    220712.84206  21724381.84406    162121.08247  21724386.33247
   1115322.27607  22880420.35907    776010.32046  22880428.67246
 18  5 30  0 30 30.0000000  0 10  3 14 16 22 23 26 27 29 31 32
    197462.15506  23866092.16406    147808.89846  23866100.05546
    543016.62207  20796133.25007    385150.78047  20796138.38347
   -195861.75207  20680498.16407   -150308.01847  20680503.13347
    446278.34206  23809477.06306    347749.10346  23809479.99246
  -1149912.86905  24318389.21105   -694186.98046  24318395.17646
    383988.30907  20791877.01607    291388.75348  20791884.76648
   -220034.31304  22632838.45304    -26246.21145  22632842.77745
    947069.26106  23894238.83606    718791.36246  23894243.17246
    224378.78506  21725079.41406    164977.66547  21725083.83247
   1132049.54507  22883603.39107    789044.54946  22883611.59846
 18  5 30  0 30 35.0000000  0 10  3 14 16 22 23 26 27 29 31 32
    201072.85906  23866778.50006    150622.43646  23866786.41446
    551640.14207  20797774.24207    391870.40547  20797779.30547
   -197729.90707  20680142.71107   -151763.72347  20680147.53947
    453204.77206  23810795.18006    353146.31846  23810798.28546
  -1165948.65605  24315337.98405   -706682.37846  24315343.44546
    390057.41807  20793031.96107    296117.92748  20793039.53548
   -236855.75704  22629636.90604    -39353.86545  22629641.51245
    961120.49506  23896912.64806    729740.35946  23896917.25446
    228056.74906  21725779.33606    167843.61247  21725783.73047
   1148793.38507  22886789.77307    802091.68546  22886797.94546
 18  5 30  0 30 40.0000000  0 10  3 14 16 22 23 26 27 29 31 32
    204703.47705  23867470.33605    153451.48946  23867478.52046
    560286.29607  20799419.28107    398607.66447  20799424.25047
   -199577.66807  20679790.87507   -153203.53547  20679795.48047
    460146.67406  23812116.61706    358555.58246  23812120.02746
  -1181972.30605  24312289.01605   -719168.34046  24312294.41846
    396142.38907  20794189.90607    300859.46048  20794197.38748
   -253663.43303  22626438.51603    -52450.74245  22626443.91845
    975190.80406  23899590.07806    740704.22646  23899594.95346
    231746.40506  21726481.53106    170718.66147  21726485.91447
   1165553.44206  22889978.96106    815151.45246  22889987.22746
 18  5 30  0 30 45.0000000  0 10  3 14 16 22 23 26 27 29 31 32
    208353.50805  23868164.53905    156295.68146  23868173.23846
    568954.56907  20801068.89107    405362.16147  20801073.85947
   -201405.53207  20679443.28907   -154627.84247  20679447.96547
    467103.50906  23813440.11706    363976.49146  23813443.11746
  -1197984.27205  24309241.71105   -731645.17846  24309247.59446
    402242.70506  20795350.83606    305612.94848  20795358.28148
   -270457.73503  22623243.03903    -65537.17345  22623248.37145
    989279.66406  23902270.91406    751682.54746  23902275.43846
    235447.28506  21727185.82006    173602.45947  21727190.20347
   1182329.21507  22893171.29707    828223.46946  22893179.76246
 18  5 30  0 30 50.0000000  0 10  3 14 16 22 23 26 27 29 31 32
    212023.38205  23868863.00005    159155.31346  23868872.82446
    577645.35507  20802722.43007    412134.19847  20802727.43447
   -203213.08907  20679099.10207   -156036.33047  20679103.60247
    474075.66506  23814766.78106    369409.33546  23814769.99246
  -1213984.12505  24306196.70305   -744112.60145  24306201.83645
    408358.76806  20796514.66406    310378.71348  20796521.99248
   -287238.35003  22620049.75003    -78612.99945  22620055.62145
   1003387.44706  23904955.96106    762675.62846  23904961.03546
    239159.78306  21727892.22706    176495.31647  21727896.57447
   1199121.11807  22896366.68007    841308.05846  22896375.01646
 18  5 30  0 30 55.0000000  0 10  3 14 16 22 23 26 27 29 31 32
    215713.48405  23869564.69505    162030.66946  23869575.18846
    586359.08607  20804380.93807    418924.11747  20804385.85947
   -204999.93007  20678758.98407   -157428.67147  20678763.29747
    481063.57706  23816096.83606    374854.45346  23816100.01246
  -1229971.43805  24303154.66405   -756570.25045  24303159.92645
    414491.02306  20797681.66406    315157.09448  20797688.86348
   -304004.74003  22616859.62503    -91677.73045  22616866.54345
   1017514.60106  23907644.07006    773683.80446  23907649.36746
    242884.38606  21728600.86706    179397.60147  21728605.23847
   1215929.54807  22899565.38307    854405.52246  22899573.76646
 18  5 30  0 31  0.0000000  0 10  3 14 16 22 23 26 27 29 31 32
    219423.93405  23870270.93805    164921.91546  23870280.56346
    595095.93707  20806043.38307    425732.05147  20806048.29347
   -206765.89507  20678423.14807   -158804.74447  20678427.48447
    488067.35106  23817429.22706    380311.94146  23817432.77746
  -1245946.07205  24300114.67205   -769018.00845  24300120.43845
    420639.56106  20798851.68806    319948.16348  20798858.93448
   -320756.77203  22613670.82803   -104731.25145  22613676.71145
   1031661.24106  23910336.19506    784707.15946  23910341.23446
    246621.19006  21729311.93806    182309.39547  21729316.29747
   1232754.65407  22902767.12507    867515.97846  22902775.53146
 18  5 30  0 31  5.0000000  0 10  3 14 16 22 23 26 27 29 31 32
    223153.90906  23870981.70306         0.00000         0.00000
    603855.03407  20807710.30507    432557.31147  20807715.36747
   -208511.80307  20678090.93007   -160165.19047  20678095.32447
    495086.21106  23818765.10206    385781.17846  23818768.46546
  -1261908.78705  24297077.34405   -781456.48845  24297083.13345
    426803.59306  20800024.50006    324751.30448  20800031.65248
   -337495.21203  22610486.19503   -117774.19745  22610492.13745
   1045826.51306  23913031.67206    795745.03246  23913036.10246
    250369.40906  21730025.26606    185230.08747  21730029.63747
   1249595.59907  22905972.03907    880638.78046  22905980.24646
 18  5 30  0 31 10.0000000  0 10  3 14 16 22 23 26 27 29 31 32
    226903.34705  23871694.35905         0.00000         0.00000
    612636.26407  20809381.19507    439399.82547  20809386.41047
   -210237.81107  20677762.42207   -161510.13947  20677766.96947
    502120.00406  23820103.78106    391262.05946  23820107.10946
  -1277859.72205  24294041.79705   -793885.79046  24294047.29346
    432982.97206  20801200.53906    329566.40448  20801207.62148
   -354220.33403  22607304.01603   -130806.74445  22607309.65245
   1060010.33306  23915730.62506    806797.35946  23915734.82046
    254128.89106  21730740.55506    188159.54747  21730744.97347
   1266452.24907  22909179.48407    893773.81746  22909187.36346
 18  5 30  0 31 15.0000000  0 10  3 14 16 22 23 26 27 29 31 32
    230672.27705  23872411.35205         0.00000         0.00000
    621439.77107  20811056.74207    446259.69847  20811061.78147
   -211943.77407  20677437.68807   -162839.46147  20677442.16447
    509168.83606  23821445.21906    396754.64246  23821448.55946
  -1293798.71705  24291008.71905   -806305.79145  24291014.05145
    439177.80706  20802379.46906    334393.54848  20802386.58648
   -370931.78703  22604123.89103   -143828.66945  22604129.98445
   1074212.79906  23918433.32006    817864.19546  23918437.66846
    257899.79406  21731458.20306    191097.91047  21731462.59847
   1283324.72007  22912390.35907    906921.19046  22912398.03946
 18  5 30  0 31 20.0000000  0 10  3 14 16 22 23 26 27 29 31 32
    234459.76905  23873131.82005         0.00000         0.00000
    630264.56007  20812735.54707    453136.15047  20812740.46947
   -213630.69307  20677116.87507   -164153.94547  20677121.32847
    516231.71006  23822788.91406    402258.16846  23822792.58246
  -1309726.76005  24287977.48405   -818717.24545  24287982.96945
    445387.12206  20803561.04706    339231.97348  20803568.15248
   -387630.65204  22600946.18804   -156840.75545  22600952.70345
   1088432.93506  23921139.50006    828944.80446  23921144.49246
    261681.15706  21732177.89806    194044.42147  21732182.49247
   1300212.02707  22915604.02307    920080.12646  22915611.70346
 18  5 30  0 31 25.0000000  0 10  3 14 16 22 23 26 27 29 31 32
    238266.12005  23873855.99205         0.00000         0.00000
    639110.92007  20814419.24207    460029.41147  20814424.25847
   -215298.24807  20676799.61707   -165453.34347  20676803.93047
    523308.93306  23824135.57806    407772.87746  23824139.42246
  -1325643.49805  24284948.58605   -831119.89246  24284954.24646
    451611.21606  20804745.36706    344081.91448  20804752.52048
   -404316.60504  22597771.46104   -169842.77445  22597779.63345
   1102671.01106  23923848.96106    840039.41546  23923853.69546
    265473.25406  21732899.30506    196999.29447  21732903.82847
   1317114.46207  22918820.33607    933250.84746  22918828.12146
 18  5 30  0 31 30.0000000  0 10  3 14 16 22 23 26 27 29 31 32
    242092.15205  23874584.50005         0.00000         0.00000
    647979.72707  20816106.82807    466940.17046  20816111.69146
   -216945.60407  20676485.96907   -166736.99647  20676490.29347
    530401.35906  23825485.18806    413299.44346  23825489.00846
  -1341548.10105  24281922.25805   -843513.09246  24281927.00446
    457850.93806  20805932.91406    348944.03248  20805940.09048
   -420988.72504  22594598.14804   -182834.05045  22594605.26645
   1116927.90306  23926561.64106    851148.67146  23926566.28146
    269276.96006  21733623.09406    199963.21547  21733627.45347
   1334032.89507  22922039.87507    946434.03146  22922047.62546
 18  5 30  0 31 35.0000000  0 10  3 14 16 22 23 26 27 29 31 32
    245937.79305  23875316.40605         0.00000         0.00000
    656870.88507  20817798.78107    473868.34047  20817803.48047
   -218572.80607  20676176.45307   -168004.94447  20676180.89547
    537508.89906  23826837.73406    418837.78146  23826841.57846
  -1357440.60905  24278898.07005   -855896.85446  24278902.93446
    464106.20806  20807123.18006    353818.26648  20807130.40248
   -437647.10904  22591428.57804   -195814.56845  22591435.04745
   1131203.49506  23929278.19506    862272.49046  23929283.03546
    273092.21206  21734349.24206    202936.13147  21734353.68447
   1350967.21007  22925262.25807    959629.58746  22925269.99646
 18  5 30  0 31 40.0000000  0 10  3 14 16 22 23 26 27 29 31 32
    249802.61105  23876051.25005        -1.33656  23876060.57046
    665783.97107  20819494.96907    480813.59446  20819499.86746
   -220180.32807  20675870.50007   -169257.55847  20675875.00047
    544631.14306  23828193.53106    424387.57346  23828197.71546
  -1373321.47805  24275875.32805   -868271.54146  24275880.33246
    470376.58106  20808316.39806    358704.26748  20808323.78548
   -454292.15704  22588260.93804   -208784.75745  22588265.12145
   1145497.36806  23931998.23406    873410.56946  23932003.28546
    276918.57106  21735077.41406    205917.70147  21735081.91447
   1367916.99807  22928487.84407    972837.18846  22928495.52346
 18  5 30  0 31 45.0000000  0 10  3 14 16 22 23 26 27 29 31 32
    253686.40106  23876791.19506      3024.98345  23876800.57445
    674718.79107  20821195.07807    487775.78947  20821200.18847
   -221768.35907  20675568.35207   -170494.98547  20675572.89847
    551767.81906  23829550.84406    429948.60846  23829554.68846
  -1389190.85406  24272856.27306   -880637.27846  24272861.07846
    476661.84306  20809512.26606    363601.87048  20809519.68848
   -470924.02204  22585095.72704   -221744.64645  22585101.63345
   1159809.32206  23934721.77306    884562.73746  23934727.34046
    280755.86006  21735807.64806    208907.78947  21735812.19547
   1384882.03107  22931716.39107    986056.68246  22931724.01246
 18  5 30  0 31 50.0000000  0 10  3 14 16 22 23 26 27 29 31 32
    257588.76906  23877533.30506      6065.74345  23877543.29345
    683674.93007  20822899.46107    494754.59746  20822904.77046
   -223337.30307  20675269.68007   -171717.53947  20675274.23847
    558918.56206  23830911.85206    435520.58746  23830916.19946
  -1405049.10606  24269838.06306   -892994.34946  24269842.14146
    482961.61606  20810711.33606    368510.78148  20810718.67648
   -487543.14004  22581933.37504   -234694.58745  22581939.99645
   1174138.94006  23937448.50006    895728.66246  23937454.16046
    284603.65306  21736540.00006    211906.06247  21736544.57047
   1401861.91207  22934947.33607    999287.73946  22934955.10946
 18  5 30  0 31 55.0000000  0 10  3 14 16 22 23 26 27 29 31 32
    261510.25405  23878279.28905      9121.41246  23878288.91446
    692652.96307  20824608.10207    501750.45647  20824613.34047
   -224886.58707  20674974.77307   -172924.77447  20674979.30947
    566083.93505  23832275.00805    441104.00146  23832279.32046
  -1420895.65706  24266823.04706   -905342.29946  24266826.57446
    489276.46706  20811912.85906    373431.44448  20811920.23448
   -504148.87605  22578773.93005   -247634.11545  22578779.10945
   1188486.81806  23940178.81306    906908.82646  23940184.73046
    288462.61406  21737274.23406    214913.04647  21737278.72347
   1418857.21407  22938181.34407   1012530.81946  22938188.87146
 18  5 30  0 32  0.0000000  0 10  3 14 16 22 23 26 27 29 31 32
    265450.16605  23879029.24205     12191.44346  23879036.87546
    701652.21707  20826320.58607    508762.86447  20826325.59047
   -226416.94007  20674683.67207   -174117.25747  20674688.11347
