     2.10           OBSERVATION DATA    GPS(GPS)            RINEX VERSION / TYPE
cnvtToRINEX 3.07.0  convertToRINEX OPR  19-May-20 12:29 UTC PGM / RUN BY / DATE 
----------------------------------------------------------- COMMENT             
GG07                                                        MARKER NAME         
GG07                                                        MARKER NUMBER       
GNSS Observer       Trimble                                 OBSERVER / AGENCY   
0220247377          5700                2.32                REC # / TYPE / VERS 
                    UNKNOWN EXT                             ANT # / TYPE        
 -3050080.7210  4928159.6222  2654053.5916                  APPROX POSITION XYZ 
        0.0000        0.0000        0.0000                  ANTENNA: DELTA H/E/N
     1     1     0                                          WAVELENGTH FACT L1/2
     4    C1    L1    L2    P2                              # / TYPES OF OBSERV 
  2020     5    16     0    35   25.0000000     GPS         TIME OF FIRST OBS   
  2020     5    16     1    35   13.0000000     GPS         TIME OF LAST OBS    
     0                                                      RCV CLOCK OFFS APPL 
    18                                                      LEAP SECONDS        
    10                                                      # OF SATELLITES     
   G04  3564  3564  3564  3564                              PRN / # OF OBS      
   G08  3589  3589  3589  3589                              PRN / # OF OBS      
   G09  2955  2946  2950  2950                              PRN / # OF OBS      
   G11  1884  1884  1884  1884                              PRN / # OF OBS      
   G14  1623  1623  1623  1623                              PRN / # OF OBS      
   G16  3564  3564  3564  3564                              PRN / # OF OBS      
   G21  2103  2103  2103  2103                              PRN / # OF OBS      
   G26  3589  3589  3589  3589                              PRN / # OF OBS      
   G27  3589  3589  3589  3589                              PRN / # OF OBS      
   G31  3589  3589  3589  3589                              PRN / # OF OBS      
CARRIER PHASE MEASUREMENTS: PHASE SHIFTS REMOVED            COMMENT             
                                                            END OF HEADER       
 20  5 16  0 35 25.0000000  0  4G08G26G27G31                        -0.000409859
  22423912.96915   -242987.94515    -94350.00459  22423915.29359
  21513979.52316    -71850.82816    -34853.29359  21513980.58259
  20471265.74217   -194151.00017    -94917.24659  20471266.31659
  22000275.22717    -83832.41417    -40238.23858  22000272.90258
 20  5 16  0 35 26.0000000  0  4G08G26G27G31                        -0.000412233
  22422570.406 5   -250041.910 5    -99846.59849  22422572.77349
  21513582.258 6    -73937.863 6    -36479.55549  21513583.75049
  20470190.367 7   -199801.590 7    -99320.30149  20470191.13349
  21999813.422 7    -86257.105 7    -42127.60948  21999811.74648
 20  5 16  0 35 27.0000000  0  4G08G26G27G31                        -0.000414608
  22421227.844 5   -257096.813 5   -105343.93049  22421230.03949
  21513184.539 6    -76026.078 6    -38106.73849  21513186.23049
  20469114.836 7   -205452.848 7   -103723.88749  20469115.63749
  21999351.820 6    -88682.820 6    -44017.77348  21999350.02348
 20  5 16  0 35 28.0000000  0  4G08G26G27G31                        -0.000416985
  22419885.117 5   -264152.715 5   -110842.03549  22419887.49649
  21512786.750 6    -78115.523 6    -39734.87549  21512788.71949
  20468039.734 7   -211104.766 7   -108127.98049  20468040.17649
  21998890.242 6    -91109.516 6    -45908.70748  21998888.44948
 20  5 16  0 35 29.0000000  0  4G08G26G27G31                        -0.000419363
  22418542.094 5   -271209.516 5   -116340.83649  22418544.71949
  21512388.961 6    -80206.148 6    -41363.93849  21512390.59449
  20466963.797 7   -216757.328 7   -112532.57049  20466964.31349
  21998428.102 6    -93537.203 6    -47800.41848  21998426.39548
 20  5 16  0 35 30.0000000  0  4G08G26G27G31                        -0.000421740
  22417199.109 5   -278267.176 5   -121840.30949  22417201.34049
  21511991.125 6    -82297.898 6    -42993.87549  21511992.90249
  20465888.094 7   -222410.469 7   -116937.61749  20465888.99649
  21997966.180 6    -95965.793 6    -49692.82448  21997964.25848
 20  5 16  0 35 31.0000000  0  4G08G26G27G31                        -0.000424118
  22415856.180 5   -285325.582 5   -127340.36349  22415858.05149
  21511593.133 6    -84390.637 6    -44624.58249  21511594.51249
  20464812.328 7   -228064.051 7   -121343.00449  20464812.51649
  21997503.578 6    -98395.180 6    -51585.85248  21997501.87548
 20  5 16  0 35 32.0000000  0  4G08G26G27G31                        -0.000426498
  22414512.695 5   -292384.781 5   -132841.03549  22414515.07049
  21511194.211 6    -86484.379 6    -46256.06649  21511196.19149
  20463736.617 7   -233718.148 7   -125748.79749  20463737.09849
  21997041.133 6   -100825.387 6    -53479.52748  21997038.95748
 20  5 16  0 35 33.0000000  0  4G08G26G27G31                        -0.000428877
  22413169.477 5   -299444.762 5   -138342.32449  22413171.30949
  21510795.875 6    -88579.211 6    -47888.40649  21510797.72349
  20462660.320 7   -239372.727 7   -130154.95349  20462660.81349
  21996578.508 6   -103256.426 6    -55373.84448  21996576.77048
 20  5 16  0 35 34.0000000  0  4G08G26G27G31                        -0.000431257
  22411825.820 5   -306505.480 5   -143844.18449  22411827.39849
  21510397.141 6    -90674.969 6    -49521.46949  21510398.91849
  20461584.102 7   -245027.719 7   -134561.44149  20461585.02749
  21996115.617 7   -105688.195 7    -57268.73448  21996114.16048
 20  5 16  0 35 35.0000000  0  4G08G26G27G31                        -0.000433640
  22410482.063 5   -313566.926 5   -149346.60949  22410483.82849
  21509998.352 6    -92771.758 6    -51155.32849  21510000.03949
  20460507.938 7   -250683.152 7   -138968.27749  20460508.93049
  21995652.805 7   -108120.766 7    -59164.24248  21995650.94948
 20  5 16  0 35 36.0000000  0  4G08G26G27G31                        -0.000436022
  22409138.109 5   -320629.082 5   -154849.59049  22409140.04349
  21509599.039 6    -94869.434 6    -52789.88749  21509600.72749
  20459431.617 7   -256339.008 7   -143375.43849  20459432.25449
  21995189.563 7   -110554.070 7    -61060.32448  21995187.93048
 20  5 16  0 35 37.0000000  0  4G08G26G27G31                        -0.000438404
  22407794.313 5   -327691.910 5   -160353.09449  22407796.10249
  21509199.188 6    -96968.129 6    -54425.23849  21509201.13749
  20458355.281 7   -261995.281 7   -147782.93049  20458356.14549
  21994726.641 6   -112988.145 6    -62957.01248  21994724.78948
 20  5 16  0 35 38.0000000  0  4G08G26G27G31                        -0.000440786
  22406449.922 5   -334755.422 5   -165857.12549  22406451.82049
  21508799.805 6    -99067.734 6    -56061.29749  21508801.74649
  20457278.922 7   -267651.949 7   -152190.71549  20457279.86749
  21994263.344 6   -115422.941 6    -64854.25048  21994261.39148
 20  5 16  0 35 39.0000000  0  4G08G26G27G31                        -0.000443171
  22405105.500 5   -341819.645 5   -171361.71549  22405107.87149
  21508400.789 6   -101168.297 6    -57698.10249  21508401.98049
  20456202.492 7   -273309.008 7   -156598.81649  20456203.16449
  21993799.992 6   -117858.461 6    -66752.05948  21993798.41048
 20  5 16  0 35 40.0000000  0  4G08G26G27G31                        -0.000445555
  22403761.383 5   -348884.520 5   -176866.81649  22403763.39149
  21508000.594 6   -103269.758 6    -59335.60549  21508002.18449
  20455125.531 7   -278966.445 7   -161007.20749  20455126.46949
  21993336.477 6   -120294.691 6    -68650.42248  21993334.55548
 20  5 16  0 35 41.0000000  0  4G08G26G27G31                        -0.000447939
  22402416.961 5   -355949.906 5   -182372.30949  22402418.83249
  21507600.289 6   -105372.008 6    -60973.72349  21507602.39849
  20454049.367 7   -284624.098 7   -165415.77049  20454049.96149
  21992872.695 6   -122731.480 6    -70549.21548  21992870.88748
 20  5 16  0 35 42.0000000  0  4G08G26G27G31                        -0.000450325
  22401072.266 5   -363015.914 5   -187878.28949  22401073.83649
  21507199.953 6   -107475.121 6    -62612.51649  21507202.07849
  20452972.680 7   -290282.102 7   -169824.60249  20452973.15249
  21992408.625 6   -125168.938 6    -72448.53948  21992406.69148
 20  5 16  0 35 43.0000000  0  4G08G26G27G31                        -0.000452711
  22399727.344 5   -370082.469 5   -193384.69949  22399729.56349
  21506799.539 6   -109579.074 6    -64251.95349  21506801.27749
  20451895.633 7   -295940.387 7   -174233.65649  20451896.46949
  21991945.039 6   -127607.039 6    -74348.35948  21991943.07848
 20  5 16  0 35 44.0000000  0  4G08G26G27G31                        -0.000455097
  22398382.672 5   -377149.605 5   -198891.55949  22398384.31349
  21506399.242 6   -111683.813 6    -65892.01649  21506401.14549
  20450819.281 7   -301598.941 7   -178642.91849  20450819.67649
  21991480.656 6   -130045.734 6    -76248.64148  21991479.26248
 20  5 16  0 35 45.0000000  0  4G08G26G27G31                        -0.000457485
  22397037.867 5   -384217.355 5   -204398.89849  22397039.42249
  21505998.750 6   -113789.449 6    -67532.77349  21506000.62149
  20449742.289 7   -307257.777 7   -183052.40249  20449743.02049
  21991016.625 6   -132485.051 6    -78149.40648  21991014.59048
 20  5 16  0 35 46.0000000  0  4G08G26G27G31                        -0.000459873
  22395692.344 5   -391285.730 5   -209906.71949  22395694.54349
  21505597.484 6   -115895.922 6    -69174.18049  21505599.19949
  20448665.266 7   -312916.988 7   -187462.17249  20448665.92249
  21990552.188 6   -134925.059 6    -80050.71548  21990550.38748
 20  5 16  0 35 47.0000000  0  4G08G26G27G31                        -0.000462261
  22394347.773 5   -398354.727 5   -215415.02749  22394349.75449
  21505196.914 6   -118003.273 6    -70816.27349  21505198.69149
  20447588.383 7   -318576.500 7   -191872.18849  20447588.74649
  21990087.945 6   -137365.711 6    -81952.52748  21990085.87148
 20  5 16  0 35 48.0000000  0  4G08G26G27G31                        -0.000464649
  22393001.773 5   -405424.297 5   -220923.78149  22393004.32049
  21504795.758 6   -120111.484 6    -72459.03149  21504797.32049
  20446511.281 7   -324236.320 7   -196282.44149  20446511.98849
  21989623.453 6   -139807.012 6    -83854.83648  21989621.47348
 20  5 16  0 35 49.0000000  0  4G08G26G27G31                        -0.000467039
  22391656.594 5   -412494.340 5   -226432.90649  22391658.73449
  21504393.813 6   -122220.430 6    -74102.37549  21504395.73049
  20445434.453 7   -329896.336 7   -200692.83649  20445434.73449
  21989158.516 6   -142248.859 6    -85757.57448  21989157.10248
 20  5 16  0 35 50.0000000  0  7G04G08G14G16G26G27G31               -0.000469425
  21784252.75016   -147839.52316   -102192.38758  21784251.45358
  22390311.172 5   -419564.965 5   -231942.48849  22390313.33649
  22871619.85215     -8355.80515     -4389.75857  22871618.92257
  20622345.65616    -83963.20716    -55935.64858  20622343.37158
  21503992.719 6   -124330.133 6    -75746.30149  21503994.35949
  20444356.938 7   -335556.574 7   -205103.41049  20444357.95349
  21988693.586 6   -144691.246 6    -87660.73448  21988691.87148
 20  5 16  0 35 51.0000000  0  7G04G08G14G16G26G27G31               -0.000471817
  21783184.773 6   -153449.594 6   -106563.87948  21783183.47348
  22388965.586 5   -426636.043 5   -237452.41849  22388967.36749
  22871557.016 5     -8685.785 5     -4646.87547  22871556.08247
  20621749.430 6    -87096.230 6    -58376.96548  20621747.61348
  21503590.852 6   -126440.637 6    -77390.85249  21503592.82049
  20443279.875 7   -341217.035 7   -209514.16449  20443280.55549
  21988228.805 6   -147134.180 6    -89564.32048  21988227.08248
 20  5 16  0 35 52.0000000  0  7G04G08G14G16G26G27G31               -0.000474207
  21782116.648 6   -159060.059 6   -110935.67248  21782115.70348
  22387620.094 5   -433707.703 5   -242962.79349  22387621.37949
  22871494.711 5     -9016.410 5     -4904.50047  22871493.50047
  20621152.797 6    -90229.895 6    -60818.78548  20621150.92648
  21503189.211 6   -128551.945 6    -79036.02749  21503191.04749
  20442202.758 7   -346877.773 7   -213925.12549  20442203.34449
  21987764.055 6   -149577.730 6    -91468.39148  21987761.95748
 20  5 16  0 35 53.0000000  0  7G04G08G14G16G26G27G31               -0.000476599
  21781049.273 6   -164670.750 6   -115307.63748  21781048.47348
  22386273.938 6   -440779.859 6   -248473.55949  22386276.12549
  22871430.891 5     -9347.637 5     -5162.59447  22871430.18847
  20620557.000 6    -93364.063 6    -63260.99648  20620554.75448
  21502787.633 6   -130663.992 6    -80681.77349  21502788.96149
  20441125.281 7   -352538.719 7   -218336.25049  20441125.89149
  21987299.188 7   -152021.813 7    -93372.88748  21987296.76648
 20  5 16  0 35 54.0000000  0  7G04G08G14G16G26G27G31               -0.000478991
  21779981.461 6   -170281.688 6   -119679.79748  21779980.14548
  22384928.578 5   -447852.469 5   -253984.68849  22384930.17249
  22871368.352 5     -9679.418 5     -5421.13747  22871367.01247
  20619960.180 6    -96498.777 6    -65703.63348  20619958.34848
  21502385.805 6   -132776.762 6    -82328.08649  21502387.44549
  20440047.844 7   -358199.844 7   -222747.51649  20440048.98049
  21986833.555 6   -154466.426 6    -95277.78148  21986831.90248
 20  5 16  0 35 55.0000000  0  7G04G08G14G16G26G27G31               -0.000481384
  21778913.547 6   -175892.891 6   -124052.16048  21778912.72748
  22383582.398 5   -454925.566 5   -259496.18849  22383584.02349
  22871304.570 5    -10011.809 5     -5680.14547  22871303.96547
  20619364.063 6    -99634.035 6    -68146.68848  20619361.94148
  21501983.313 6   -134890.273 6    -83974.98049  21501985.22749
  20438970.617 7   -363861.141 7   -227158.91849  20438971.52049
  21986368.555 6   -156911.551 6    -97183.05948  21986366.65248
 20  5 16  0 35 56.0000000  0  7G04G08G14G16G26G27G31               -0.000483776
  21777845.641 6   -181504.410 6   -128424.76648  21777844.83648
  22382236.820 6   -461999.188 6   -265008.10249  22382238.20349
  22871241.852 5    -10344.816 5     -5939.63347  22871240.44547
  20618767.234 6   -102769.891 6    -70590.21148  20618764.90648
  21501581.289 6   -137004.559 6    -85622.48049  21501582.98049
  20437893.391 7   -369522.703 7   -231570.52749  20437894.02349
  21985902.922 6   -159357.266 6    -99088.80948  21985901.19148
 20  5 16  0 35 57.0000000  0  7G04G08G14G16G26G27G31               -0.000486170
  21776777.875 6   -187116.238 6   -132797.60948  21776777.03948
  22380890.477 6   -469073.348 6   -270520.43849  22380891.84849
  22871178.320 5    -10678.477 5     -6199.62947  22871177.46947
  20618170.508 6   -105906.320 6    -73034.18448  20618167.76248
  21501178.516 6   -139119.668 6    -87270.61749  21501180.10949
  20436816.094 7   -375184.512 7   -235982.32449  20436816.49249
  21985437.531 6   -161803.570 6   -100995.02348  21985435.34048
 20  5 16  0 35 58.0000000  0  7G04G08G14G16G26G27G31               -0.000488565
  21775710.406 6   -192728.367 6   -137170.69948  21775709.16048
  22379544.063 5   -476148.031 5   -276033.18849  22379545.62149
  22871114.000 5    -11012.766 5     -6460.13347  22871113.55947
  20617573.125 6   -109043.359 6    -75478.62948  20617570.98848
  21500775.781 6   -141235.527 6    -88919.33649  21500777.67249
  20435738.703 7   -380846.539 7   -240394.29749  20435739.20349
  21984971.844 6   -164250.422 6   -102901.66848  21984969.91048
 20  5 16  0 35 59.0000000  0  7G04G08G14G16G26G27G31               -0.000490959
  21774642.281 6   -198340.727 6   -141543.96548  21774640.70748
  22378197.609 5   -483223.164 5   -281546.28949  22378199.55549
  22871050.781 5    -11347.555 5     -6721.01647  22871049.97747
  20616976.242 6   -112180.875 6    -77923.44948  20616973.56348
  21500373.203 6   -143352.113 6    -90568.61749  21500375.23449
  20434661.281 7   -386508.742 7   -244806.40649  20434661.81649
  21984506.172 6   -166697.781 6   -104808.70348  21984504.11348
 20  5 16  0 36  0.0000000  0  7G04G08G14G16G26G27G31               -0.000493355
  21773573.953 6   -203953.266 6   -145917.37948  21773573.10948
  22376850.930 5   -490298.719 5   -287059.70349  22376852.75049
  22870987.586 5    -11682.914 5     -6982.33647  22870986.27747
  20616379.438 6   -115318.906 6    -80368.67248  20616376.64148
  21499970.133 6   -145469.387 6    -92218.44549  21499972.05149
  20433583.703 7   -392171.074 7   -249218.61349  20433584.11749
  21984040.516 6   -169145.617 6   -106716.11348  21984038.67248
 20  5 16  0 36  1.0000000  0  7G04G08G14G16G26G27G31               -0.000495750
  21772505.703 6   -209566.117 6   -150291.03148  21772504.60248
  22375504.414 5   -497374.797 5   -292573.52749  22375506.34849
  22870923.328 5    -12018.883 5     -7244.13746  22870922.29346
  20615781.984 6   -118457.480 6    -82814.32048  20615779.66848
  21499566.820 6   -147587.406 6    -93868.85249  21499568.89549
  20432506.211 7   -397833.645 7   -253631.00449  20432506.56349
  21983574.383 6   -171594.008 6   -108623.94548  21983572.47348
 20  5 16  0 36  2.0000000  0  7G04G08G14G16G26G27G31               -0.000498146
  21771438.023 6   -215179.242 6   -154664.90248  21771436.81648
  22374157.633 5   -504451.398 5   -298087.75849  22374159.78949
  22870858.922 5    -12355.449 5     -7506.39847  22870857.87947
  20615184.750 6   -121596.656 6    -85260.42248  20615182.14848
  21499163.773 6   -149706.199 6    -95519.85549  21499165.27749
  20431428.703 7   -403496.422 7   -258043.56349  20431429.29349
  21983108.430 6   -174042.965 6   -110532.23448  21983106.48848
 20  5 16  0 36  3.0000000  0  7G04G08G14G16G26G27G31               -0.000500542
  21770369.453 6   -220792.578 6   -159038.92648  21770368.82048
  22372811.086 6   -511528.430 6   -303602.33249  22372813.33649
  22870795.094 5    -12692.570 5     -7769.08247  22870793.63747
  20614587.086 6   -124736.301 6    -87706.90248  20614584.78948
  21498760.570 6   -151825.703 6    -97171.41049  21498762.36349
  20430350.891 7   -409159.367 7   -262456.24249  20430351.41849
  21982641.961 6   -176492.387 6   -112440.87148  21982640.62148
 20  5 16  0 36  3.9990000  0  7G04G08G14G16G26G27G31                0.000497063
  21769302.831 6   -226400.504 6   -163408.74248  21769301.02648
  22371465.573 6   -518598.824 6   -309111.74249  22371467.13249
  22870731.042 5    -13029.781 5     -8031.84047  22870729.87047
  20613990.081 6   -127873.309 6    -90151.32448  20613987.77648
  21498357.714 6   -153943.777 6    -98821.87149  21498358.97649
  20429274.464 7   -414816.785 7   -266864.61749  20429275.11649
  21982176.362 6   -178939.855 6   -114347.98048  21982174.58148
 20  5 16  0 36  4.9990000  0  7G04G08G14G16G26G27G31                0.000494665
  21768233.761 6   -232014.301 6   -167783.13748  21768232.56948
  22370119.081 6   -525676.770 6   -314627.01249  22370120.24549
  22870666.683 5    -13367.965 5     -8295.40247  22870665.09747
  20613392.409 6   -131013.988 6    -92598.60948  20613389.81948
  21497954.120 6   -156064.707 6   -100474.54749  21497955.40949
  20428196.628 6   -420480.027 6   -271277.52349  20428197.04649
  21981710.120 6   -181390.223 6   -116257.36348  21981708.40948
 20  5 16  0 36  5.9990000  0  7G04G08G14G16G26G27G31                0.000492268
  21767165.745 6   -237628.203 6   -172157.61348  21767164.60848
  22368772.284 6   -532755.023 6   -320142.54349  22368773.56549
  22870601.487 4    -13706.574 4     -8559.28147  22870600.62047
  20612794.667 6   -134155.039 6    -95046.17248  20612792.25748
  21497550.370 6   -158186.172 6   -102127.62549  21497552.68349
  20427118.597 6   -426143.313 6   -275690.47349  20427119.73349
  21981243.737 6   -183841.016 6   -118167.07048  21981242.02648
 20  5 16  0 36  6.9990000  0  7G04G08G14G16G26G27G31                0.000489868
  21766097.065 6   -243242.273 6   -176532.21148  21766096.51548
  22367424.862 6   -539833.711 6   -325658.41049  22367426.62449
  22870537.214 5    -14045.695 5     -8823.54347  22870536.52647
  20612196.987 6   -137296.590 6    -97494.12948  20612193.85548
  21497146.253 6   -160308.328 6   -103781.24649  21497147.96449
  20426041.386 7   -431806.738 7   -280103.53549  20426041.69049
  21980777.183 6   -186292.309 6   -120077.16848  21980775.42148
 20  5 16  0 36  7.9990000  0  7G04G08G14G16G26G27G31                0.000487469
  21765028.933 6   -248856.594 6   -180907.00048  21765027.89448
  22366078.206 6   -546912.836 6   -331174.60549  22366079.66349
  22870473.050 5    -14385.355 5     -9088.22347  22870471.67947
  20611598.987 6   -140438.645 6    -99942.47348  20611596.12448
  21496742.394 6   -162431.223 6   -105435.45349  21496743.98349
  20424963.550 6   -437470.320 6   -284516.71949  20424963.96049
  21980310.886 6   -188744.055 6   -121987.62548  21980308.80848
 20  5 16  0 36  8.9990000  0  7G04G08G14G16G26G27G31                0.000485069
  21763960.636 6   -254471.082 6   -185281.91848  21763959.55848
  22364730.722 6   -553992.336 6   -336691.09849  22364732.16349
  22870408.315 5    -14725.551 5     -9353.30147  22870406.79247
  20611000.878 6   -143581.145 6   -102391.17648  20610998.08548
  21496337.753 6   -164554.773 6   -107090.16049  21496340.11649
  20423885.698 6   -443134.031 6   -288930.00449  20423886.35149
  21979844.003 6   -191196.285 6   -123898.45348  21979842.31548
 20  5 16  0 36  9.9990000  0  7G04G08G14G16G26G27G31                0.000482670
  21762892.323 6   -260085.742 6   -189656.97747  21762891.08147
  22363383.487 6   -561072.242 6   -342207.91049  22363385.06249
  22870343.706 5    -15066.227 5     -9618.75847  22870342.30047
  20610402.636 6   -146724.113 6   -104840.24248  20610400.25348
  21495934.011 6   -166678.953 6   -108745.35949  21495935.73749
  20422808.370 6   -448797.809 6   -293343.33249  20422808.71449
  21979377.370 6   -193648.934 6   -125809.61348  21979375.75348
 20  5 16  0 36 10.9990000  0  7G04G08G14G16G26G27G31                0.000480270
  21761823.683 6   -265700.527 6   -194032.13347  21761822.50747
  22362036.073 6   -568152.492 6   -347724.98449  22362037.41349
  22870278.933 5    -15407.387 5     -9884.58647  22870277.31547
  20609804.644 6   -149867.484 6   -107289.62148  20609801.81948
  21495529.339 6   -168803.754 6   -110401.04349  21495531.52249
  20421730.237 7   -454461.727 7   -297756.77749  20421730.92949
  21978910.612 6   -196102.016 6   -127721.10948  21978908.96448
 20  5 16  0 36 11.9990000  0  7G04G08G14G16G26G27G31                0.000477869
  21760755.526 6   -271315.477 6   -198407.43448  21760754.15548
  22360688.808 6   -575233.184 6   -353242.41849  22360690.01149
  22870213.339 5    -15749.043 5    -10150.80147  22870212.17147
  20609206.261 7   -153011.316 7   -109739.37948  20609203.44848
  21495125.245 6   -170929.203 6   -112057.25049  21495126.86249
  20420652.573 7   -460125.719 7   -302170.27749  20420652.89749
  21978444.026 6   -198555.570 6   -129632.96948  21978442.08148
 20  5 16  0 36 12.9990000  0  7G04G08G14G16G26G27G31                0.000475468
  21759687.526 6   -276930.676 6   -202782.91048  21759685.65948
  22359341.730 6   -582314.352 6   -358760.20349  22359343.00349
  22870147.964 5    -16091.309 5    -10417.46947  22870146.84747
  20608607.894 6   -156155.680 6   -112189.55948  20608605.22248
  21494720.714 6   -173055.375 6   -113714.03949  21494722.58149
  20419574.417 7   -465789.883 7   -306583.92249  20419575.25749
  21977976.597 7   -201009.637 7   -131545.22748  21977975.01948
 20  5 16  0 36 13.9990000  0  7G04G08G14G16G26G27G31                0.000473066
  21758618.487 6   -282546.141 6   -207158.59048  21758616.77248
  22357993.925 6   -589395.973 6   -364278.34449  22357994.99549
  22870083.003 5    -16434.031 5    -10684.50447  22870081.76547
  20608009.558 6   -159300.594 6   -114640.13748  20608007.34348
  21494315.487 6   -175182.285 6   -115371.37549  21494318.05449
  20418496.550 7   -471454.234 7   -310997.69949  20418497.31249
  21977509.644 7   -203464.180 7   -133457.86348  21977508.10148
 20  5 16  0 36 14.9990000  0  7G04G08G14G16G26G27G31                0.000470665
  21757549.573 6   -288161.816 6   -211534.44148  21757548.39048
  22356645.558 5   -596478.031 5   -369796.82449  22356647.43349
  22870017.956 5    -16777.340 5    -10952.02747  22870016.96847
  20607411.394 6   -162445.977 6   -117091.08248  20607408.73048
  21493911.144 6   -177309.930 6   -117029.27349  21493912.89049
  20417418.690 7   -477118.719 7   -315411.59049  20417419.31549
  21977042.769 6   -205919.211 6   -135370.88348  21977040.74948
 20  5 16  0 36 15.9990000  0  7G04G08G14G16G26G27G31                0.000468262
  21756481.339 6   -293777.613 6   -215910.39548  21756480.09748
  22355298.144 5   -603560.473 5   -375315.60949  22355299.76949
  22869952.511 5    -17121.105 5    -11219.91447  22869951.17547
  20606812.550 6   -165591.809 6   -119542.37548  20606810.01148
  21493506.065 6   -179438.129 6   -118687.60549  21493508.39449
  20416340.714 7   -482783.254 7   -319825.51649  20416341.31249
  21976575.120 6   -208374.645 6   -137284.21148  21976573.58948
 20  5 16  0 36 16.9990000  0  7G04G08G14G16G26G27G31                0.000465858
  21755412.597 6   -299393.531 6   -220286.43448  21755411.00348
  22353950.417 5   -610643.207 5   -380834.62149  22353952.22249
  22869887.003 5    -17465.305 5    -11488.13747  22869885.77247
  20606213.683 6   -168738.020 6   -121993.96948  20606211.48748
  21493100.753 6   -181566.961 6   -120346.42249  21493102.94849
  20415262.761 7   -488447.867 7   -324239.49249  20415263.57749
  21976108.214 7   -210830.484 7   -139197.85248  21976106.27248
 20  5 16  0 36 17.9990000  0  7G04G08G14G16G26G27G31                0.000463453
  21754343.550 6   -305009.605 6   -224662.58248  21754342.80048
  22352602.276 5   -617726.324 5   -386353.93449  22352604.34749
  22869821.769 5    -17810.008 5    -11756.75447  22869820.32747
  20605614.870 6   -171884.668 6   -124445.89548  20605612.46048
  21492695.065 6   -183696.434 6   -122005.75049  21492697.48749
  20414184.745 7   -494112.566 7   -328653.54749  20414185.31549
  21975640.456 6   -213286.727 6   -141111.80948  21975638.90148
 20  5 16  0 36 18.9990000  0  7G04G08G14G16G26G27G31                0.000461050
  21753274.940 6   -310625.797 6   -229038.84848  21753273.96848
  22351254.183 5   -624809.844 5   -391873.55949  22351256.21449
  22869755.573 5    -18155.180 5    -12025.71547  22869754.50747
  20605016.503 6   -175031.758 6   -126898.17248  20605014.16348
  21492290.323 6   -185826.516 6   -123665.56349  21492292.21849
  20413106.870 6   -499777.348 6   -333067.66849  20413107.24549
  21975172.870 6   -215743.395 6   -143026.09448  21975171.31948
 20  5 16  0 36 19.9990000  0  7G04G08G14G16G26G27G31                0.000458645
  21752206.042 6   -316242.129 6   -233415.22348  21752204.96048
  22349906.495 5   -631893.672 5   -397393.43049  22349908.44049
  22869689.956 5    -18500.777 5    -12295.00847  22869688.62447
  20604417.292 6   -178179.242 6   -129350.75848  20604414.92148
  21491884.917 6   -187957.219 6   -125325.85549  21491886.97249
  20412028.878 6   -505442.199 6   -337481.83249  20412029.68749
  21974705.542 6   -218200.453 6   -144940.69148  21974703.74948
 20  5 16  0 36 20.9990000  0  7G04G08G14G16G26G27G31                0.000456242
  21751137.901 6   -321858.629 6   -237791.71548  21751136.14048
  22348557.980 5   -638977.875 5   -402913.59049  22348560.07749
  22869623.940 5    -18846.836 5    -12564.65647  22869622.76947
  20603818.073 6   -181327.160 6   -131803.67648  20603815.85148
  21491479.089 6   -190088.547 6   -126986.63349  21491481.22649
  20410951.097 6   -511107.129 6   -341896.06349  20410951.73049
  21974237.636 6   -220657.938 6   -146855.61348  21974236.11648
 20  5 16  0 36 21.9990000  0  7G04G08G14G16G26G27G31                0.000453836
  21750068.519 6   -327475.238 6   -242168.29348  21750067.22648
  22347210.120 5   -646062.465 5   -408434.05549  22347212.00349
  22869558.378 5    -19193.383 5    -12834.68447  22869556.75347
  20603218.948 6   -184475.492 6   -134256.92248  20603216.78048
  21491073.503 6   -192220.484 6   -128647.88349  21491075.49149
  20409873.097 7   -516772.129 7   -346310.35549  20409873.40549
  21973770.089 6   -223115.805 6   -148770.84048  21973768.53448
 20  5 16  0 36 22.9990000  0  7G04G08G14G16G26G27G31                0.000451429
  21748999.933 6   -333092.000 6   -246544.98848  21748998.48748
  22345861.925 5   -653147.395 5   -413954.78149  22345863.56949
  22869492.128 5    -19540.367 5    -13105.06647  22869490.69847
  20602619.730 6   -187624.273 6   -136710.52048  20602617.69448
  21490667.769 6   -194353.047 6   -130309.62149  21490669.66349
  20408795.050 7   -522437.203 7   -350724.69949  20408795.32349
  21973302.605 6   -225574.078 6   -150686.37548  21973300.55048
 20  5 16  0 36 23.9990000  0  7G04G08G14G16G26G27G31                0.000449024
  21747930.690 6   -338708.898 6   -250921.78948  21747929.98048
  22344513.776 5   -660232.715 5   -419475.80949  22344515.44449
  22869426.378 5    -19887.840 5    -13375.83247  22869424.55047
  20602021.089 6   -190773.484 6   -139164.44948  20602018.01148
  21490261.636 6   -196486.262 6   -131971.85949  21490263.67149
  20407716.808 7   -528102.379 7   -355139.11749  20407717.71049
  21972834.605 6   -228032.797 6   -152602.26248  21972832.76548
 20  5 16  0 36 24.9990000  0  7G04G08G14G16G26G27G31                0.000446617
  21746862.112 6   -344325.965 6   -255298.73048  21746860.99948
  22343165.128 5   -667318.426 5   -424997.12949  22343167.39449
  22869359.706 5    -20235.777 5    -13646.96547  22869358.50747
  20601421.558 6   -193923.102 6   -141618.69548  20601419.17148
  21489855.409 6   -198620.063 6   -133634.56349  21489857.87049
  20406638.675 7   -533767.594 7   -359553.57449  20406639.10549
  21972366.917 6   -230491.949 6   -154518.48448  21972364.56248
 20  5 16  0 36 25.9990000  0  7G04G08G14G16G26G27G31                0.000444210
  21745793.339 6   -349943.184 6   -259675.78547  21745791.93347
  22341817.011 6   -674404.535 6   -430518.77049  22341819.02249
  22869292.808 5    -20584.234 5    -13918.51647  22869292.01147
  20600821.378 6   -197073.172 6   -144073.29748  20600819.48748
  21489449.573 6   -200754.547 6   -135297.79349  21489451.62849
  20405560.433 7   -539432.957 7   -363968.15649  20405561.07349
  21971898.440 6   -232951.512 6   -156435.02048  21971896.78048
 20  5 16  0 36 26.9990000  0  7G04G08G14G16G26G27G31                0.000441803
  21744723.831 5   -355560.535 5   -264052.91447  21744723.01147
  22340468.714 5   -681491.000 5   -436040.67649  22340470.57349
  22869227.276 5    -20933.156 5    -14190.42247  22869225.63247
  20600221.698 6   -200223.664 6   -146528.22748  20600220.30048
  21489042.808 6   -202889.645 6   -136961.50849  21489045.15549
  20404482.487 7   -545098.387 7   -368382.77349  20404483.52649
  21971430.308 6   -235411.531 6   -158351.91048  21971428.76948
 20  5 16  0 36 27.9990000  0  7G04G08G14G16G26G27G31                0.000439394
  21743654.917 5   -361178.039 5   -268430.16447  21743653.60847
  22339119.753 6   -688577.813 6   -441562.86749  22339121.62449
  22869160.581 6    -21282.520 6    -14462.65647  22869159.31547
  20599621.878 6   -203374.637 6   -148983.53948  20599620.53448
  21488636.480 6   -205025.391 6   -138625.72749  21488638.86649
  20403404.409 7   -550763.871 7   -372797.43449  20403405.40149
  21970962.315 6   -237871.910 6   -160269.10248  21970960.38248
 20  5 16  0 36 28.9990000  0  7G04G08G14G16G26G27G31                0.000436987
  21742586.628 6   -366795.566 6   -272807.46547  21742584.62847
  22337771.120 6   -695664.930 6   -447085.30949  22337773.00749
  22869093.987 5    -21632.293 5    -14735.20347  22869092.80047
  20599022.526 6   -206525.941 6   -151439.10248  20599020.96448
  21488229.800 6   -207161.695 6   -140290.37949  21488232.31549
  20402326.323 7   -556429.359 7   -377212.10549  20402326.85549
  21970493.675 6   -240332.648 6   -162186.56348  21970491.77648
 20  5 16  0 36 29.9990000  0  7G04G08G14G16G26G27G31                0.000434578
  21741517.308 5   -372413.258 5   -277184.88347  21741516.03447
  22336422.589 5   -702752.449 5   -452608.04749  22336424.20649
  22869027.440 5    -21982.547 5    -15008.12147  22869025.84347
  20598423.097 6   -209677.652 6   -153894.97748  20598420.88648
  21487823.190 6   -209298.590 6   -141955.49649  21487825.96849
  20401248.378 7   -562094.969 7   -381626.86349  20401249.13649
  21970025.597 6   -242793.816 6   -164104.36348  21970023.83148
 20  5 16  0 36 30.9990000  0  7G04G08G14G16G26G27G31                0.000432169
  21740448.276 5   -378031.141 5   -281562.43047  21740446.85147
  22335074.167 5   -709840.348 5   -458131.08249  22335075.91349
  22868960.362 5    -22333.258 5    -15281.42247  22868959.19447
  20597823.339 6   -212829.809 6   -156351.21148  20597821.54248
  21487416.753 6   -211436.176 6   -143621.15249  21487418.94049
  20400169.839 7   -567760.633 7   -386041.65649  20400170.53849
  21969557.222 7   -245255.422 7   -166022.50048  21969555.55448
 20  5 16  0 36 31.9990000  0  7G04G08G14G16G26G27G31                0.000429758
  21739379.276 5   -383649.008 5   -285939.98847  21739377.71447
  22333725.050 5   -716928.492 5   -463654.31649  22333726.92549
  22868893.565 5    -22684.371 5    -15555.03147  22868892.39047
  20597223.698 6   -215982.336 6   -158807.73848  20597221.35148
  21487009.964 6   -213574.246 6   -145287.18049  21487012.24149
  20399092.237 7   -573426.285 7   -390456.44549  20399092.70649
  21969088.558 7   -247717.332 7   -167940.87548  21969086.76548
 20  5 16  0 36 32.9990000  0  7G04G08G14G16G26G27G31                0.000427349
  21738310.097 5   -389267.125 5   -290317.74247  21738308.75747
  22332375.784 6   -724017.047 6   -469177.86349  22332377.76149
  22868826.769 5    -23036.008 5    -15829.03947  22868825.55847
  20596623.487 6   -219135.305 6   -161264.59848  20596621.06948
  21486603.323 6   -215713.016 6   -146953.75449  21486605.51149
  20398013.730 7   -579092.074 7   -394871.34849  20398014.15149
  21968619.964 7   -250179.734 7   -169859.62948  21968618.35148
 20  5 16  0 36 33.9990000  0  7G04G08G14G16G26G27G31                0.000424938
  21737241.433 5   -394885.391 5   -294695.60547  21737239.78047
  22331026.940 5   -731105.980 5   -474701.70349  22331029.19849
  22868760.222 5    -23388.109 5    -16103.38347  22868758.69047
  20596023.355 6   -222288.680 6   -163721.77748  20596021.36248
  21486195.534 6   -217852.383 6   -148620.79349  21486197.76549
  20396935.495 6   -584757.938 6   -399286.30549  20396935.71049
  21968151.284 7   -252642.516 7   -171778.67648  21968149.62448
 20  5 16  0 36 34.9990000  0  7G04G08G14G16G26G27G31                0.000422527
  21736171.362 5   -400503.773 5   -299073.56347  21736170.65547
  22329677.636 5   -738195.285 5   -480225.83649  22329679.97649
  22868692.761 5    -23740.695 5    -16378.09847  22868691.19447
  20595423.003 6   -225442.520 6   -166179.31648  20595421.35148
  21485788.534 6   -219992.406 6   -150288.34449  21485790.16749
  20395857.448 7   -590423.891 7   -403701.32449  20395858.23349
  21967682.737 7   -255105.738 7   -173698.07048  21967681.15548
 20  5 16  0 36 35.9990000  0  7G04G08G14G16G26G27G31                0.000420116
  21735102.683 5   -406122.277 5   -303451.62146  21735101.28446
  22328329.230 6   -745284.879 6   -485750.19149  22328330.69849
  22868625.831 5    -24093.633 5    -16653.11347  22868624.23347
  20594822.878 6   -228596.742 6   -168637.14548  20594820.93348
  21485381.167 6   -222132.992 6   -151956.33249  21485382.83549
  20394779.261 7   -596089.863 7   -408116.37949  20394779.56249
  21967213.831 7   -257569.293 7   -175617.72348  21967212.08548
 20  5 16  0 36 36.9990000  0  7G04G08G14G16G26G27G31                0.000417706
  21734033.136 5   -411740.977 5   -307829.82047  21734032.21047
  22326979.511 6   -752374.953 6   -491274.92249  22326981.74549
  22868558.683 6    -24447.148 6    -16928.58247  22868557.08947
  20594223.034 6   -231751.453 6   -171095.36748  20594220.69048
  21484974.167 6   -224274.266 6   -153624.85949  21484975.49149
  20393701.269 7   -601755.965 7   -412531.52049  20393701.55049
  21966744.737 6   -260033.352 6   -177537.76648  21966743.40948
 20  5 16  0 36 37.9990000  0  7G04G08G14G16G26G27G31                0.000415293
  21732964.401 5   -417359.723 5   -312208.06646  21732962.78046
  22325630.394 6   -759465.238 6   -496799.81349  22325632.67149
  22868490.722 5    -24801.023 5    -17204.34847  22868489.57347
  20593622.550 6   -234906.461 6   -173553.81348  20593620.25348
  21484566.472 6   -226416.063 6   -155293.79349  21484567.56549
  20392622.964 7   -607422.039 7   -416946.64549  20392623.67549
  21966275.878 6   -262497.699 6   -179458.03948  21966273.95248
 20  5 16  0 36 38.9990000  0  7G04G08G14G16G26G27G31                0.000412880
  21731895.315 5   -422978.500 5   -316586.34447  21731893.40547
  22324281.003 6   -766555.867 6   -502324.98049  22324283.03849
  22868423.464 5    -25155.316 5    -17480.43447  22868422.33547
  20593021.675 6   -238061.895 6   -176012.59848  20593019.76548
  21484159.261 6   -228558.465 6   -156963.19949  21484160.64049
  20391544.800 7   -613088.176 7   -421361.81649  20391545.38649
  21965806.964 7   -264962.445 7   -181378.62148  21965805.30048
 20  5 16  0 36 39.9990000  0  7G04G08G14G16G26G27G31                0.000410467
  21730826.034 5   -428597.395 5   -320964.69146  21730824.57346
  22322931.769 6   -773646.734 6   -507850.33649  22322933.83949
  22868356.011 5    -25510.023 5    -17756.84047  22868354.53447
  20592421.425 6   -241217.664 6   -178471.63348  20592419.85848
  21483751.128 6   -230701.418 6   -158633.03549  21483752.21449
  20390466.589 7   -618754.285 7   -425776.96549  20390467.13649
  21965337.581 6   -267427.512 6   -183299.45748  21965336.12848
 20  5 16  0 36 40.9990000  0  7G04G08G14G16G26G27G31                0.000408054
  21729756.706 5   -434216.465 5   -325343.19947  21729755.32747
  22321582.284 6   -780738.035 6   -513376.02349  22321584.05049
  22868288.636 5    -25865.211 5    -18033.60947  22868287.49547
  20591820.339 6   -244373.867 6   -180931.01248  20591818.57748
  21483343.151 6   -232845.012 6   -160303.36749  21483344.61249
  20389388.464 7   -624420.527 7   -430192.22349  20389388.78049
  21964868.362 6   -269893.031 6   -185220.64148  21964866.92548
 20  5 16  0 36 41.9990000  0  7G04G08G14G16G26G27G31                0.000405640
  21728687.019 5   -439835.621 5   -329721.75047  21728685.94047
  22320232.706 5   -787829.680 5   -518901.97749  22320235.10149
  22868220.940 5    -26220.867 5    -18310.73847  22868219.54247
  20591220.253 6   -247530.539 6   -183390.75448  20591217.94848
  21482934.800 6   -234989.215 6   -161974.17649  21482936.46049
  20388309.847 7   -630086.816 7   -434607.51649  20388310.47249
  21964399.362 6   -272358.934 6   -187142.12548  21964397.86248
 20  5 16  0 36 42.9990000  0  7G04G08G14G16G26G27G31                0.000403225
  21727617.800 5   -445454.973 5   -334100.46547  21727616.58947
  22318883.722 5   -794921.707 5   -524428.23449  22318885.10149
  22868153.237 5    -26577.000 5    -18588.24647  22868151.87847
  20590619.144 6   -250687.625 6   -185850.82448  20590616.85548
  21482526.675 6   -237134.043 6   -163645.46949  21482528.05049
  20387231.683 7   -635753.191 7   -439022.86349  20387232.52649
  21963930.089 6   -274825.270 6   -189063.94148  21963928.42948
 20  5 16  0 36 43.9990000  0  7G04G08G14G16G26G27G31                0.000400810
  21726549.276 5   -451074.367 5   -338479.21547  21726547.37847
  22317533.433 5   -802014.054 5   -529954.73349  22317535.66749
  22868085.198 6    -26933.531 6    -18866.07047  22868084.09347
  20590017.987 6   -253845.070 6   -188311.17248  20590016.01548
  21482118.386 6   -239279.441 6   -165317.20349  21482119.95249
  20386153.597 7   -641419.555 7   -443438.21549  20386153.97649
  21963460.808 6   -277291.957 6   -190986.03548  21963459.10548
 20  5 16  0 36 44.9990000  0  7G04G08G14G16G26G27G31                0.000398396
  21725479.050 5   -456693.859 5   -342858.03546  21725478.10546
  22316183.440 5   -809106.711 5   -535481.48049  22316185.81949
  22868017.308 6    -27290.492 6    -19144.21947  22868016.19847
  20589417.362 6   -257002.949 6   -190771.85548  20589415.48748
  21481710.120 6   -241425.465 6   -166989.43049  21481711.31249
  20385075.276 7   -647085.996 7   -447853.62149  20385075.69449
  21962990.925 6   -279759.039 6   -192908.44148  21962989.71048
 20  5 16  0 36 45.9990000  0  7G04G08G14G16G26G27G31                0.000395979
  21724409.761 5   -462313.504 5   -347236.98047  21724408.48747
  22314834.144 5   -816199.738 5   -541008.51649  22314836.55049
  22867949.230 5    -27647.895 5    -19422.72747  22867947.70647
  20588816.206 6   -260161.207 6   -193232.83648  20588814.58548
  21481301.464 6   -243572.074 6   -168662.12149  21481303.05049
  20383996.690 7   -652752.480 7   -452269.06349  20383997.44049
  21962521.628 6   -282226.488 6   -194831.12948  21962519.93748
 20  5 16  0 36 46.9990000  0  7G04G08G14G16G26G27G31                0.000393564
  21723340.698 5   -467933.266 5   -351616.02347  21723339.57347
  22313484.136 6   -823293.129 6   -546535.82849  22313486.27249
  22867881.042 5    -28005.793 5    -19701.60947  22867880.15947
  20588215.511 6   -263319.898 6   -195694.15248  20588213.50348
  21480893.034 6   -245719.293 6   -170335.28149  21480894.27249
  20382918.276 7   -658419.035 7   -456684.56649  20382918.97249
  21962051.901 6   -284694.367 6   -196754.15648  21962050.36648
 20  5 16  0 36 47.9990000  0  7G04G08G14G16G26G27G31                0.000391148
  21722271.433 5   -473553.051 5   -355995.07846  21722269.84746
  22312134.636 6   -830386.738 6   -552063.31349  22312136.72649
  22867813.214 6    -28364.012 6    -19980.74647  22867811.92947
  20587614.081 6   -266478.902 6   -198155.71148  20587611.92548
  21480484.683 6   -247867.012 6   -172008.83249  21480485.83149
  20381840.253 7   -664085.547 7   -461100.03149  20381840.95649
  21961582.394 6   -287162.520 6   -198677.39548  21961580.70248
 20  5 16  0 36 48.9990000  0  7G04G08G14G16G26G27G31                0.000388731
  21721201.956 5   -479172.945 5   -360374.21547  21721200.33947
  22310785.065 5   -837480.672 5   -557591.05149  22310786.73349
  22867745.261 6    -28722.652 6    -20260.20347  22867743.73347
  20587012.784 6   -269638.277 6   -200617.56348  20587010.44848
  21480076.058 6   -250015.324 6   -173682.84049  21480076.98049
  20380761.839 7   -669752.078 7   -465515.51249  20380762.54249
  21961112.550 6   -289631.055 6   -200600.92648  21961111.24548
 20  5 16  0 36 49.9990000  0  7G04G08G14G16G26G27G31                0.000386314
  21720132.276 5   -484792.895 5   -364753.39547  21720130.98747
  22309434.526 5   -844574.914 5   -563119.03549  22309436.48349
  22867676.534 5    -29081.770 5    -20540.03947  22867675.18747
  20586411.417 6   -272798.039 6   -203079.72348  20586409.87848
  21479667.144 6   -252164.230 6   -175357.31649  21479667.90549
  20379683.605 7   -675418.664 7   -469931.03549  20379683.92949
  21960642.534 6   -292099.961 6   -202524.75448  21960641.38248
 20  5 16  0 36 50.9990000  0  7G04G08G14G16G26G27G31                0.000383896
  21719062.808 5   -490413.031 5   -369132.73047  21719061.87447
  22308084.355 6   -851669.582 6   -568647.34449  22308086.46049
  22867608.237 5    -29441.313 5    -20820.20347  22867606.53047
  20585810.253 6   -275958.258 6   -205542.22748  20585808.18348
  21479258.308 6   -254313.766 6   -177032.28149  21479259.06549
  20378605.323 7   -681085.316 7   -474346.60549  20378606.10149
  21960172.855 6   -294569.293 6   -204448.90648  21960171.42148
 20  5 16  0 36 51.9990000  0  7G04G08G14G16G26G27G31                0.000381477
  21717993.386 5   -496033.320 5   -373512.17646  21717991.96446
  22306734.355 6   -858764.598 6   -574175.92649  22306736.28449
  22867539.261 5    -29801.367 5    -21100.77047  22867538.48347
  20585208.987 6   -279118.949 6   -208005.10948  20585206.81248
  21478848.589 6   -256463.949 6   -178707.74249  21478849.61249
  20377526.870 7   -686752.074 7   -478762.26249  20377527.62049
  21959703.175 6   -297039.066 6   -206373.41048  21959701.58548
 20  5 16  0 36 52.9990000  0  7G04G08G14G16G26G27G31                0.000379061
  21716923.628 5   -501653.699 5   -377891.69547  21716922.37447
  22305384.300 6   -865859.930 6   -579704.75849  22305386.06249
  22867471.276 5    -30161.816 5    -21381.64147  22867469.76547
  20584607.378 6   -282279.980 6   -210468.25048  20584605.31948
  21478438.987 6   -258614.680 6   -180383.64149  21478440.85549
  20376448.378 7   -692418.848 7   -483177.93449  20376448.94449
  21959233.050 6   -299509.184 6   -208298.17248  21959231.14048
 20  5 16  0 36 53.9990000  0  7G04G08G14G16G26G27G31                0.000376640
  21715854.753 5   -507274.109 5   -382271.26647  21715852.84747
  22304033.980 6   -872955.551 6   -585233.82449  22304035.93749
  22867402.136 6    -30522.668 6    -21662.83647  22867400.73047
  20584005.706 6   -285441.344 6   -212931.64548  20584003.67548
  21478029.690 6   -260765.961 6   -182059.96149  21478031.44849
  20375370.026 7   -698085.617 7   -487593.60249  20375370.74549
  21958762.917 6   -301979.602 6   -210223.18848  21958761.54648
 20  5 16  0 36 54.9990000  0  7G04G08G14G16G26G27G31                0.000374222
  21714784.440 5   -512894.563 5   -386650.84447  21714783.19447
  22302683.987 5   -880051.422 5   -590763.06649  22302685.62449
  22867333.862 6    -30883.938 6    -21944.32046  22867332.16746
  20583403.987 6   -288603.047 6   -215395.29748  20583401.88648
  21477620.167 6   -262917.785 6   -183736.70749  21477621.68349
  20374291.784 6   -703752.367 6   -492009.25049  20374292.54649
  21958292.347 6   -304450.367 6   -212148.46948  21958291.06248
 20  5 16  0 36 55.9990000  0  7G04G08G14G16G26G27G31                0.000371801
  21713714.909 5   -518515.207 5   -391030.55946  21713713.98346
  22301333.144 5   -887147.738 5   -596292.66049  22301335.08549
  22867264.706 6    -31245.684 6    -22226.15246  22867263.47246
  20582802.276 6   -291765.258 6   -217859.35548  20582800.49148
  21477210.519 6   -265070.301 6   -185413.98849  21477211.99549
  20373213.378 7   -709419.250 7   -496425.00449  20373214.03049
  21957822.308 6   -306921.609 6   -214074.11748  21957820.57348
 20  5 16  0 36 56.9990000  0  7G04G08G14G16G26G27G31                0.000369383
  21712645.245 5   -524135.992 5   -395410.40247  21712644.08547
  22299982.644 5   -894244.367 5   -601822.50449  22299984.74149
  22867196.347 5    -31607.910 5    -22508.41846  22867194.56946
  20582200.511 6   -294927.848 6   -220323.71148  20582198.46048
  21476801.136 6   -267223.398 6   -187091.72749  21476802.20649
  20372135.073 7   -715086.180 7   -500840.79349  20372135.87449
  21957351.776 6   -309393.230 6   -216000.05948  21957350.22648
 20  5 16  0 36 57.9990000  0  7G04G08G14G16G26G27G31                0.000366962
  21711575.300 5   -529756.938 5   -399790.37947  21711574.64747
  22298632.089 5   -901341.402 5   -607352.66049  22298634.03449
  22867126.933 5    -31970.629 5    -22791.08646  22867125.60546
  20581598.480 6   -298090.941 6   -222788.46948  20581596.32348
  21476390.800 6   -269377.172 6   -188769.99649  21476392.58549
  20371056.480 7   -720753.219 7   -505256.65649  20371057.36649
  21956881.245 6   -311865.313 6   -217926.34848  21956879.90548
 20  5 16  0 36 58.9990000  0  7G04G08G14G16G26G27G31                0.000364540
  21710505.823 5   -535377.859 5   -404170.31647  21710504.91747
  22297281.651 5   -908438.625 5   -612882.96149  22297283.33549
  22867057.175 5    -32333.641 5    -23073.96546  22867056.14046
  20580996.823 6   -301254.258 6   -225253.39848  20580994.64448
  21475981.222 6   -271531.391 6   -190448.61349  21475982.53849
  20369978.472 6   -726420.172 6   -509672.46149  20369978.90149
  21956410.800 6   -314337.621 6   -219852.81648  21956409.49948
 20  5 16  0 36 59.9990000  0  7G04G08G14G16G26G27G31                0.000362120
  21709436.073 5   -540998.902 5   -408550.34847  21709435.30847
  22295931.190 6   -915536.168 6   -618413.51249  22295933.22249
  22866988.183 5    -32697.082 5    -23357.17246  22866987.09346
  20580394.355 6   -304418.000 6   -227718.65648  20580392.75748
  21475571.003 6   -273686.195 6   -192127.68449  21475572.60549
  20368899.948 7   -732087.145 7   -514088.28549  20368900.68749
  21955940.495 6   -316810.297 6   -221779.57848  21955938.88248
 20  5 16  0 37  0.9990000  0  7G04G08G14G16G26G27G31                0.000359697
  21708366.612 5   -546619.953 5   -412930.39846  21708365.91346
  22294580.894 5   -922633.992 5   -623944.29349  22294582.28049
  22866919.448 5    -33060.910 5    -23640.66846  22866918.02646
  20579792.433 6   -307582.066 6   -230184.16448  20579790.59348
  21475160.878 6   -275841.547 6   -193807.18049  21475162.58549
  20367821.558 7   -737754.125 7   -518504.12149  20367822.33949
  21955470.011 6   -319283.328 6   -223706.62148  21955468.70248
 20  5 16  0 37  1.9990000  0  7G04G08G14G16G26G27G31                0.000357275
  21707296.894 5   -552241.117 5   -417310.51646  21707296.16746
  22293229.605 5   -929732.121 5   -629475.30549  22293231.70649
  22866849.558 5    -33425.145 5    -23924.48846  22866848.65546
  20579190.308 6   -310746.496 6   -232649.95748  20579188.16348
  21474750.839 6   -277997.453 6   -195487.10549  21474752.22649
  20366743.026 7   -743421.098 7   -522919.94549  20366743.81949
  21954999.565 6   -321756.668 6   -225633.90248  21954997.87448
 20  5 16  0 37  2.9990000  0  7G04G08G14G16G26G27G31                0.000354855
  21706227.378 5   -557862.426 5   -421690.75846  21706226.65546
  22291879.339 5   -936830.637 5   -635006.61349  22291880.56549
  22866780.534 5    -33789.918 5    -24208.75046  22866779.20246
  20578588.159 6   -313911.383 6   -235116.10248  20578585.40548
  21474340.722 6   -280154.035 6   -197167.56349  21474342.04649
  20365664.730 7   -749088.188 7   -527335.86349  20365665.48749
  21954528.433 6   -324230.477 6   -227561.54748  21954526.78448
 20  5 16  0 37  3.9990000  0  7G04G08G14G16G26G27G31                0.000352430
  21705157.589 6   -563483.852 6   -426071.08647  21705156.85547
  22290527.683 5   -943929.504 5   -640538.19549  22290529.75349
  22866710.526 5    -34155.137 5    -24493.33646  22866709.42146
  20577986.019 6   -317076.703 6   -237582.58248  20577983.65548
  21473930.073 6   -282311.242 6   -198848.49649  21473931.13649
  20364586.237 7   -754755.324 7   -531751.81649  20364586.67949
  21954057.503 6   -326704.680 6   -229489.49648  21954056.14448
 20  5 16  0 37  4.9990000  0  7G04G08G14G16G26G27G31                0.000350008
  21704087.940 6   -569105.398 6   -430451.50847  21704087.13647
  22289177.206 5   -951028.680 5   -646070.02049  22289179.15549
  22866641.519 5    -34520.777 5    -24778.23846  22866639.99546
  20577383.503 6   -320242.398 6   -240049.35548  20577381.28448
  21473519.175 6   -284468.996 6   -200529.86749  21473520.66349
  20363507.753 7   -760422.492 7   -536167.78549  20363508.34749
  21953587.065 6   -329179.262 6   -231417.74248  21953585.25348
 20  5 16  0 37  5.9990000  0  7G04G08G14G16G26G27G31                0.000347584
  21703017.980 6   -574726.895 6   -434831.89147  21703017.34747
  22287825.823 5   -958128.047 5   -651601.99249  22287827.81549
  22866571.862 5    -34886.676 5    -25063.34046  22866570.53846
  20576780.940 6   -323408.359 6   -242516.34448  20576779.10548
  21473108.761 6   -286627.211 6   -202211.59049  21473110.15149
  20362429.112 7   -766089.570 7   -540583.69149  20362430.33549
  21953115.722 6   -331654.070 6   -233346.16848  21953114.27248
 20  5 16  0 37  6.9990000  0  7G04G08G14G16G26G27G31                0.000345160
  21701948.667 6   -580348.473 6   -439212.33647  21701947.68747
  22286474.995 5   -965227.738 5   -657134.22349  22286476.92549
  22866501.480 5    -35253.039 5    -25348.81346  22866500.58946
  20576178.526 6   -326574.680 6   -244983.61348  20576176.18748
  21472697.534 6   -288786.012 6   -203893.77349  21472699.07349
  20361351.026 7   -771756.660 7   -544999.60949  20361351.61649
  21952645.105 6   -334129.258 6   -235274.88348  21952643.39448
 20  5 16  0 37  7.9990000  0  7G04G08G14G16G26G27G31                0.000342735
  21700878.394 6   -585970.148 6   -443592.87547  21700878.08947
  22285124.276 5   -972327.707 5   -662666.67249  22285126.14749
  22866431.901 5    -35619.785 5    -25634.59446  22866431.15546
  20575576.144 6   -329741.387 6   -247451.18048  20575573.85148
  21472286.784 6   -290945.387 6   -205576.40649  21472288.37449
  20360272.448 7   -777423.793 7   -549415.55549  20360273.09349
  21952174.026 6   -336604.770 6   -237203.85548  21952172.16748
 20  5 16  0 37  8.9990000  0  7G04G08G14G16G26G27G31                0.000340311
  21699808.667 6   -591591.902 6   -447973.46547  21699808.17547
  22283772.909 5   -979427.992 5   -668199.36349  22283774.74949
  22866361.995 5    -35986.977 5    -25920.73047  22866360.65147
  20574972.956 6   -332908.488 6   -249919.05148  20574970.98048
  21471875.730 6   -293105.320 6   -207259.46949  21471877.50349
  20359194.292 7   -783090.930 7   -553831.50849  20359194.75349
  21951702.495 6   -339080.668 6   -239133.13348  21951701.10148
 20  5 16  0 37  9.9990000  0  7G04G08G14G16G26G27G31                0.000337885
  21698738.769 6   -597213.734 6   -452354.12147  21698738.27647
  22282421.128 5   -986528.602 5   -673732.31349  22282423.80449
  22866292.980 5    -36354.602 5    -26207.18846  22866291.37846
  20574370.190 6   -336075.961 6   -252387.20348  20574368.21448
  21471464.433 6   -295265.848 6   -208943.00049  21471466.10849
  20358115.690 7   -788758.109 7   -558247.48849  20358116.45649
  21951231.315 6   -341556.957 6   -241062.71148  21951229.63648
 20  5 16  0 37 10.9990000  0  7G04G08G14G16G26G27G31                0.000335459
  21697669.190 6   -602835.699 6   -456734.86747  21697668.35547
  22281070.761 5   -993629.563 5   -679265.52749  22281072.23749
  22866222.214 5    -36722.691 5    -26494.02746  22866220.95646
  20573767.534 6   -339243.832 6   -254855.67248  20573765.75348
  21471053.401 6   -297426.961 6   -210626.98449  21471055.10549
  20357037.237 7   -794425.320 7   -562663.50449  20357037.98049
  21950760.151 6   -344033.598 6   -242992.55548  21950758.40948
 20  5 16  0 37 11.9990000  0  7G04G08G14G16G26G27G31                0.000333033
  21696599.378 6   -608457.715 6   -461115.66447  21696598.68747
  22279719.581 5  -1000730.801 5   -684798.96549  22279720.78049
  22866152.698 5    -37091.199 5    -26781.17246  22866150.97246
  20573164.636 6   -342412.090 6   -257324.44548  20573162.62048
  21470642.097 6   -299588.660 6   -212311.42649  21470643.67549
  20355958.855 7   -800092.555 7   -567079.53149  20355959.73049
  21950288.722 6   -346510.586 6   -244922.68048  21950286.92948
 20  5 16  0 37 12.9990000  0  7G04G08G14G16G26G27G31                0.000330606
  21695529.503 6   -614079.820 6   -465496.52347  21695528.75347
  22278368.339 6  -1007832.340 6   -690332.62949  22278369.46449
  22866082.089 5    -37460.109 5    -27068.61346  22866080.86246
  20572561.526 6   -345580.746 6   -259793.53548  20572559.48748
  21470230.808 6   -301750.957 6   -213996.33649  21470232.24549
  20354880.659 7   -805759.813 7   -571495.57449  20354881.12849
  21949817.323 6   -348987.984 6   -246853.11748  21949815.90548
 20  5 16  0 37 13.9990000  0  7G04G08G14G16G26G27G31                0.000328180
  21694459.675 6   -619702.066 6   -469877.50448  21694458.72248
  22277016.667 5  -1014934.195 5   -695866.55549  22277017.47249
  22866011.644 5    -37829.469 5    -27356.44547  22866010.35147
  20571958.612 6   -348749.809 6   -262262.91848  20571956.72648
  21469818.862 6   -303913.891 6   -215681.73049  21469820.74149
  20353801.823 7   -811427.121 7   -575911.66049  20353802.68349
  21949345.730 6   -351465.738 6   -248783.83248  21949344.06248
 20  5 16  0 37 14.9990000  0  7G04G08G14G16G26G27G31                0.000325752
  21693389.690 6   -625324.328 6   -474258.50048  21693389.08548
  22275664.980 6  -1022036.352 6   -701400.71549  22275665.87449
  22865941.597 5    -38199.211 5    -27644.57447  22865940.24547
  20571355.058 6   -351919.184 6   -264732.57048  20571353.16348
  21469407.198 6   -306077.258 6   -217367.47749  21469409.01549
  20352723.550 7   -817094.406 7   -580327.72749  20352723.96049
  21948874.683 6   -353943.813 6   -250714.78948  21948872.67148
 20  5 16  0 37 15.9990000  0  7G04G08G14G16G26G27G31                0.000323324
  21692320.019 6   -630946.754 6   -478639.61348  21692319.01148
  22274313.769 6  -1029138.863 6   -706935.14549  22274314.40149
  22865871.011 5    -38569.445 5    -27933.07447  22865870.03847
  20570752.394 6   -355088.988 6   -267202.55948  20570750.06948
  21468995.589 6   -308241.305 6   -219053.74649  21468997.61649
  20351645.495 7   -822761.758 7   -584743.84849  20351645.95649
  21948402.831 6   -356422.316 6   -252646.07848  21948401.03048
 20  5 16  0 37 16.9990000  0  7G04G08G14G16G26G27G31                0.000320896
  21691250.433 6   -636569.250 6   -483020.77348  21691249.20648
  22272961.542 5  -1036241.746 5   -712469.86349  22272962.79249
  22865800.558 5    -38940.043 5    -28221.86347  22865799.09747
  20570149.089 6   -358259.184 6   -269672.84448  20570146.78848
  21468584.058 6   -310405.906 6   -220740.45749  21468585.40549
  20350566.636 7   -828429.156 7   -589160.00449  20350567.19849
  21947931.237 6   -358901.176 6   -254577.66048  21947929.55848
 20  5 16  0 37 17.9990000  0  7G04G08G14G16G26G27G31                0.000318468
  21690180.128 6   -642191.758 6   -487401.93848  21690179.19848
  22271610.261 6  -1043344.809 6   -718004.71549  22271611.29649
  22865730.253 5    -39311.016 5    -28510.93447  22865728.62447
  20569545.417 6   -361429.699 6   -272143.36748  20569543.34348
  21468171.948 6   -312571.016 6   -222427.55949  21468173.44849
  20349488.167 7   -834096.508 7   -593576.12149  20349488.52649
  21947459.315 6   -361380.305 6   -256509.45748  21947457.86648
 20  5 16  0 37 18.9990000  0  7G04G08G14G16G26G27G31                0.000316040
  21689110.026 6   -647814.277 6   -491783.12148  21689109.13648
  22270258.269 6  -1050448.102 6   -723539.73849  22270259.53049
  22865658.925 5    -39682.352 5    -28800.28547  22865657.81547
  20568942.573 6   -364600.441 6   -274614.07848  20568940.24548
  21467759.480 6   -314736.633 6   -224115.05149  21467761.44849
  20348410.073 7   -839763.793 7   -597992.18849  20348410.17149
  21946987.589 6   -363859.719 6   -258441.47348  21946985.81548
 20  5 16  0 37 19.9990000  0  7G04G08G14G16G26G27G31                0.000313610
  21688040.339 6   -653436.891 6   -496164.37548  21688039.41748
  22268906.839 5  -1057551.703 5   -729075.01249  22268907.23349
  22865588.909 5    -40054.074 5    -29089.93447  22865587.37447
  20568338.878 6   -367771.598 6   -277085.10948  20568336.51148
  21467347.089 6   -316902.801 6   -225802.97349  21467349.42949
  20347331.198 7   -845431.066 7   -602408.24249  20347331.31949
  21946515.534 6   -366339.496 6   -260373.77048  21946513.96848
 20  5 16  0 37 20.9990000  0  7G04G08G14G16G26G27G31                0.000311180
  21686970.394 6   -659059.508 6   -500545.64148  21686969.17548
  22267554.519 5  -1064655.566 5   -734610.49249  22267555.44049
  22865517.534 5    -40426.168 5    -29379.87547  22865516.19447
  20567735.550 6   -370943.102 6   -279556.41848  20567733.20248
