     2.10           OBSERVATION DATA    Mixed(MIXED)        RINEX VERSION / TYPE
cnvtToRINEX 3.07.0  convertToRINEX OPR  19-May-20 12:31 UTC PGM / RUN BY / DATE 
----------------------------------------------------------- COMMENT             
GBA0                                                        MARKER NAME         
GBA0                                                        MARKER NUMBER       
GNSS Observer       Trimble                                 OBSERVER / AGENCY   
0440102809          5700                2.32                REC # / TYPE / VERS 
                    TRM39105.00                             ANT # / TYPE        
 -3050761.4151  4927685.9271  2654116.5852                  APPROX POSITION XYZ 
        0.0000        0.0000        0.0000                  ANTENNA: DELTA H/E/N
     1     1     0                                          WAVELENGTH FACT L1/2
     4    C1    L1    L2    P2                              # / TYPES OF OBSERV 
  2020     5    16     3    15    3.0000000     GPS         TIME OF FIRST OBS   
  2020     5    16     5     0   45.0000000     GPS         TIME OF LAST OBS    
     0                                                      RCV CLOCK OFFS APPL 
    18                                                      LEAP SECONDS        
    13                                                      # OF SATELLITES     
   G01  6343  6343  6343  6343                              PRN / # OF OBS      
   G03   834   790   809   809                              PRN / # OF OBS      
   G04   460   392   193   193                              PRN / # OF OBS      
   G07  6343  6343  6343  6343                              PRN / # OF OBS      
   G08  5402  5376  5376  5376                              PRN / # OF OBS      
   G09  3234  3194  3085  3085                              PRN / # OF OBS      
   G11  6343  6343  6343  6343                              PRN / # OF OBS      
   G16  4733  4704  4201  4201                              PRN / # OF OBS      
   G17   729   701   676   676                              PRN / # OF OBS      
   G22  1033   992   740   740                              PRN / # OF OBS      
   G27   525   398    34    34                              PRN / # OF OBS      
   G28  1604  1585  1274  1274                              PRN / # OF OBS      
   G30  5795  5781  5795  5795                              PRN / # OF OBS      
CARRIER PHASE MEASUREMENTS: PHASE SHIFTS REMOVED            COMMENT             
                                                            END OF HEADER       
 20  5 16  3 15  3.0000000  0  6G01G07G08G09G11G16                   0.000397833
  22564918.37516    -92153.72316    -32675.59859  22564918.82459
  22543775.09416    -61926.03116     -2086.00459  22543772.34859
  20785490.55517    -42392.10217    -24429.04759  20785490.34059
  23381817.83615    -24051.84415     -1678.21558  23381818.42258
  20663377.16416    -71089.77716    -22773.87558  20663374.45358
  23088321.54714     -9651.53114                
 20  5 16  3 15  4.0000000  0  6G01G07G08G09G11G16                   0.000395445
  22563543.219 6    -99376.289 6    -38303.57449  22563544.48849
  22542505.000 6    -68603.266 6     -7289.05949  22542501.81649
  20785006.961 7    -44934.180 7    -26409.88749  20785006.36749
  23381401.094 5    -26243.902 5     -3386.33248  23381401.37148
  20662383.453 6    -76310.148 6    -26841.68448  20662381.58248
  23087894.156 4    -11894.559 4                
 20  5 16  3 15  5.0000000  0  6G01G07G08G09G11G16                   0.000393053
  22562168.977 6   -106602.215 6    -43934.16449  22562170.50049
  22541233.094 6    -75283.770 6    -12494.62549  22541230.37549
  20784522.281 7    -47479.551 7    -28393.29349  20784521.92249
  23380983.406 5    -28439.203 5     -5096.95748  23380983.69948
  20661389.750 6    -81533.559 6    -30911.87148  20661387.25448
  23087466.977 4    -14141.035 4                
 20  5 16  3 15  6.0000000  0  6G01G07G08G09G11G16                   0.000390659
  22560792.898 6   -113831.262 6    -49567.18049  22560794.58249
  22539961.453 6    -81967.371 6    -17702.61149  22539958.47749
  20784037.406 7    -50027.980 7    -30379.08249  20784037.73849
  23380565.250 5    -30637.578 5     -6809.97348  23380565.46148
  20660395.203 6    -86759.809 6    -34984.27748  20660392.96148
  23087038.422 4    -16390.859 4                
 20  5 16  3 15  7.0000000  0  6G01G07G08G09G11G16                   0.000388262
  22559416.703 6   -121063.559 6    -55202.73449  22559418.05149
  22538689.180 6    -88654.145 6    -22913.12549  22538686.16049
  20783552.211 7    -52579.574 7    -32367.33649  20783551.49649
  23380146.008 5    -32839.117 5     -8525.46148  23380146.69148
  20659399.906 6    -91988.992 6    -39058.97348  20659397.93048
  23086609.781 4    -18644.039 4                
 20  5 16  3 15  8.0000000  0  6G01G07G08G09G11G16                   0.000385864
  22558039.656 6   -128298.875 6    -60840.63749  22558041.30949
  22537415.695 6    -95343.930 6    -28125.92249  22537413.19549
  20783065.953 7    -55134.141 7    -34357.91049  20783065.50049
  23379726.359 5    -35043.590 5    -10243.22748  23379727.17248
  20658404.516 6    -97220.949 6    -43135.82048  20658402.09448
  23086180.719 4    -20900.488 4      -987.33256  23086179.61756
 20  5 16  3 15  9.0000000  0  6G01G07G08G09G11G16                   0.000383471
  22556662.375 6   -135537.094 6    -66480.80549  22556664.08249
  22536142.664 6   -102036.555 6    -33340.94149  22536139.94549
  20782579.078 7    -57691.523 7    -36350.67249  20782578.53949
  23379306.570 5    -37250.883 5    -11963.20348  23379307.16448
  20657408.445 6   -102455.473 6    -47214.68048  20657406.33648
  23085750.672 4    -23159.910 4     -2747.90246  23085749.17646
 20  5 16  3 15 10.0000000  0  6G01G07G08G09G11G16                   0.000381069
  22555284.023 6   -142778.023 6    -72123.07849  22555285.77049
  22534867.672 6   -108731.777 6    -38557.99249  22534865.59049
  20782091.719 7    -60251.551 7    -38345.50849  20782091.71949
  23378885.883 5    -39460.793 5    -13685.20748  23378886.66848
  20656411.656 6   -107692.414 6    -51295.41848  20656409.39848
  23085319.641 4    -25422.234 4     -4510.75446  23085318.57446
 20  5 16  3 15 11.0000000  0  6G01G07G08G09G11G16                   0.000378666
  22553906.109 6   -150021.410 6    -77767.27049  22553907.85549
  22533593.813 6   -115429.465 6    -43776.97349  22533591.08649
  20781604.656 7    -62814.000 7    -40342.21949  20781604.17249
  23378464.969 5    -41673.090 5    -15409.07848  23378465.80948
  20655414.539 6   -112931.531 6    -55377.84448  20655412.60548
  23084888.313 3    -27687.234 3     -6275.69146  23084887.74246
 20  5 16  3 15 12.0000000  0  6G01G07G08G09G11G16                   0.000376261
  22552527.063 6   -157267.191 6    -83413.33649  22552528.87549
  22532318.430 6   -122129.477 6    -48997.75849  22532316.46949
  20781116.445 7    -65378.750 7    -42340.73449  20781115.82449
  23378043.227 5    -43887.688 5    -17134.75048  23378044.66848
  20654417.883 6   -118172.762 6    -59461.91848  20654415.02748
  23084457.555 4    -29954.746 4     -8042.59046  23084456.44946
 20  5 16  3 15 13.0000000  0  6G01G07G08G09G11G16                   0.000373854
  22551147.695 6   -164515.227 6    -89061.15249  22551149.49649
  22531043.234 6   -128831.691 6    -54220.26249  22531040.91449
  20780627.938 7    -67945.711 7    -44340.95349  20780627.40249
  23377621.844 5    -46104.488 5    -18862.13348  23377622.90648
  20653419.875 6   -123415.926 6    -63547.50048  20653417.59848
  23084024.992 4    -32224.641 4     -9811.34846  23084023.86346
 20  5 16  3 15 14.0000000  0  6G01G07G08G09G11G16                   0.000371445
  22549767.969 6   -171765.445 6    -94710.66448  22549769.56648
  22529767.633 6   -135536.047 6    -59444.43849  22529765.10549
  20780138.672 7    -70514.789 7    -46342.83649  20780138.64149
  23377199.773 5    -48323.383 5    -20591.14148  23377200.56348
  20652421.711 6   -128661.023 6    -67634.59048  20652419.38348
  23083592.859 4    -34496.957 4    -11581.98846  23083592.23846
 20  5 16  3 15 15.0000000  0  6G01G07G08G09G11G16                   0.000369036
  22548388.453 6   -179017.738 6   -100361.80149  22548389.67249
  22528491.430 6   -142242.434 6    -64670.19549  22528488.84449
  20779649.930 7    -73085.906 7    -48346.30549  20779649.39149
  23376776.531 5    -50544.281 5    -22321.71548  23376778.07848
  20651423.633 6   -133907.895 6    -71723.06348  20651421.28148
  23083160.250 4    -36771.500 4    -13354.36346  23083158.97346
 20  5 16  3 15 16.0000000  0  6G01G07G08G09G11G16                   0.000366623
  22547008.242 6   -186271.840 6   -106014.35549  22547009.38349
  22527214.438 6   -148950.582 6    -69897.32449  22527212.49649
  20779160.102 7    -75658.754 7    -50351.12549  20779159.72349
  23376353.945 5    -52766.918 5    -24053.64148  23376355.34848
  20650424.414 6   -139156.297 6    -75812.72348  20650422.32448
  23082726.836 4    -39048.054 4    -15128.30346  23082725.36746
 20  5 16  3 15 17.0000000  0  6G01G07G08G09G11G16                   0.000364212
  22545627.141 6   -193527.695 6   -111668.27049  22545628.55149
  22525938.039 6   -155660.441 6    -75125.78549  22525935.37149
  20778670.258 7    -78233.328 7    -52357.28549  20778669.72349
  23375930.438 5    -54991.246 5    -25786.88748  23375931.75048
  20649425.758 6   -144406.141 6    -79903.51248  20649423.25448
  23082293.375 4    -41326.441 4    -16903.65646  23082291.86346
 20  5 16  3 15 18.0000000  0  6G01G07G08G09G11G16                   0.000361797
  22544245.828 6   -200785.313 6   -117323.55949  22544247.81349
  22524661.070 6   -162371.988 6    -80355.55949  22524658.75049
  20778180.172 7    -80809.598 7    -54364.77049  20778179.54349
  23375506.711 5    -57217.211 5    -27521.41448  23375508.25848
  20648426.531 6   -149657.469 6    -83995.45348  20648423.76248
  23081859.594 4    -43606.883 4    -18680.61746  23081857.99646
 20  5 16  3 15 19.0000000  0  6G01G07G08G09G11G16                   0.000359379
  22542864.906 6   -208044.398 6   -122979.98049  22542866.34449
  22523382.930 6   -169084.953 6    -85586.44149  22523380.96549
  20777689.242 7    -83387.238 7    -56373.32049  20777689.00849
  23375083.008 5    -59444.598 5    -29257.04348  23375084.36348
  20647426.867 6   -154909.941 6    -88088.28948  20647424.16048
  23081425.703 4    -45888.824 4    -20458.75046  23081423.77346
 20  5 16  3 15 20.0000000  0  7G01G04G07G08G09G11G16                0.000356962
  22541482.906 6   -215304.809 6   -128637.44549  22541484.68449
  23531274.01614    -30686.61314    -11027.17656  23531274.19556
  22522105.563 6   -175799.219 6    -90818.33649  22522103.05549
  20777198.555 7    -85966.168 7    -58382.87949  20777198.58249
  23374659.211 5    -61673.223 5    -30993.63348  23374660.66848
  20646427.141 6   -160163.453 6    -92181.93848  20646424.33648
  23080990.844 4    -48172.305 4    -22238.09046  23080989.45346
 20  5 16  3 15 21.0000000  0  7G01G04G07G08G09G11G16                0.000354546
  22540101.266 6   -222566.336 6   -134295.77349  22540102.49249
  23531048.914 4    -31869.934 4    -11949.25446  23531049.41046
  22520827.578 6   -182514.539 6    -96051.05149  22520825.24249
  20776707.492 7    -88546.148 7    -60393.25449  20776707.64849
  23374234.477 5    -63902.938 5    -32731.07048  23374236.41848
  20645427.156 6   -165417.785 6    -96276.22348  20645424.68848
  23080556.953 4    -50457.035 4    -24018.40646  23080554.47746
 20  5 16  3 15 22.0000000  0  7G01G04G07G08G09G11G16                0.000352129
  22538718.836 6   -229829.133 6   -139955.08649  22538720.26249
  23530823.250 4    -33054.719 4    -12872.47346  23530823.55146
  22519549.648 6   -189231.035 6   -101284.68449  22519547.00449
  20776216.563 7    -91127.340 7    -62404.57049  20776216.01649
  23373810.156 5    -66133.777 5    -34469.39548  23373811.28148
  20644427.414 6   -170673.121 6   -100371.28548  20644424.75048
  23080121.242 4    -52743.223 4    -25799.85546  23080119.41046
 20  5 16  3 15 23.0000000  0  7G01G04G07G08G09G11G16                0.000349710
  22537337.117 6   -237093.000 6   -145615.23849  22537338.15249
  23530598.000 4    -34240.746 4    -13796.65246  23530597.87146
  22518271.172 6   -195948.605 6   -106519.14849  22518268.65249
  20775725.289 7    -93709.531 7    -64416.66849  20775725.07449
  23373386.250 5    -68365.648 5    -36208.53148  23373386.68448
  20643427.008 6   -175929.223 6   -104466.95348  20643424.48448
  23079685.680 4    -55030.691 4    -27582.31646  23079684.22346
 20  5 16  3 15 24.0000000  0  7G01G04G07G08G09G11G16                0.000347292
  22535954.453 6   -244357.965 6   -151276.25049  22535955.72349
  23530372.102 4    -35428.063 4    -14721.83246  23530372.14846
  22516992.656 6   -202667.184 6   -111754.39849  22516990.42649
  20775233.750 7    -96292.777 7    -66429.59049  20775233.82849
  23372960.523 5    -70598.523 5    -37948.43448  23372962.37148
  20642426.430 6   -181186.133 6   -108563.24648  20642423.89548
  23079250.219 4    -57319.383 4    -29365.71546  23079248.55146
 20  5 16  3 15 25.0000000  0  7G01G04G07G08G09G11G16                0.000344872
  22534571.609 6   -251623.934 6   -156938.04349  22534573.15249
  23530146.086 4    -36616.563 4    -15647.93446  23530146.08646
  22515713.914 6   -209386.730 6   -116990.41049  22515711.65249
  20774741.961 7    -98876.953 7    -68443.23849  20774741.85249
  23372536.094 5    -72832.340 5    -39689.07448  23372536.84048
  20641426.102 6   -186443.754 6   -112660.09048  20641423.85948
  23078814.477 4    -59609.246 4    -31150.02046  23078812.95346
 20  5 16  3 15 26.0000000  0  7G01G04G07G08G09G11G16                0.000342451
  22533188.945 6   -258890.820 6   -162600.55549  22533190.42649
  23529919.805 4    -37806.215 4    -16574.93046  23529919.62946
  22514434.875 6   -216107.168 6   -122227.11749  22514432.79749
  20774249.883 7   -101461.984 7    -70457.54749  20774249.41049
  23372110.703 5    -75067.004 5    -41430.37148  23372111.53148
  20640425.609 6   -191701.996 6   -116757.42248  20640422.93848
  23078378.297 4    -61900.215 4    -32935.19146  23078377.12946
 20  5 16  3 15 27.0000000  0  7G01G04G07G08G09G11G16                0.000340029
  22531806.180 6   -266158.488 6   -168263.67249  22531807.05949
  23529692.867 4    -38996.742 4    -17502.61746  23529693.09046
  22513156.023 6   -222828.305 6   -127464.36749  22513153.92649
  20773757.844 7   -104047.727 7    -72472.41049  20773757.61349
  23371684.703 5    -77302.367 5    -43172.21548  23371686.19548
  20639425.063 6   -196960.730 6   -120855.13748  20639422.31648
  23077942.352 4    -64192.109 4    -34721.07446  23077940.57046
 20  5 16  3 15 28.0000000  0  7G01G04G07G08G09G11G16                0.000337608
  22530423.227 6   -273426.949 6   -173927.40649  22530423.78549
  23529465.609 4    -40188.313 4    -18431.12146  23529466.20746
  22511876.695 6   -229550.211 6   -132702.21549  22511874.98849
  20773265.352 7   -106634.211 7    -74487.85549  20773265.60549
  23371259.891 5    -79538.441 5    -44914.61348  23371261.06348
  20638424.219 6   -202219.977 6   -124953.25048  20638421.50448
  23077506.109 4    -66484.974 4    -36507.72146  23077504.57846
 20  5 16  3 15 29.0000000  0  7G01G04G07G08G09G11G16                0.000335184
  22529039.594 6   -280696.152 6   -179591.71949  22529041.00049
  23529239.359 4    -41380.844 4    -19360.37946  23529239.61746
  22510597.719 6   -236272.816 6   -137940.60549  22510595.14849
  20772773.359 7   -109221.391 7    -76503.84049  20772772.98849
  23370833.469 5    -81775.188 5    -46657.53548  23370834.95748
  20637423.258 6   -207479.672 6   -129051.71948  20637420.51248
  23077069.773 4    -68778.793 4    -38295.11346  23077068.01246
 20  5 16  3 15 30.0000000  0  7G01G04G07G08G09G11G16                0.000332762
  22527656.430 6   -287966.121 6   -185256.63349  22527657.62949
  23529012.078 4    -42574.270 4    -20290.31646  23529012.71546
  22509318.227 6   -242996.094 6   -143179.52749  22509316.08649
  20772280.586 7   -111809.238 7    -78520.34849  20772280.27049
  23370407.898 5    -84012.621 5    -48400.99648  23370409.29748
  20636421.922 6   -212739.844 6   -133150.55148  20636419.89148
  23076633.094 5    -71073.473 5    -40083.17646  23076631.23846
 20  5 16  3 15 31.0000000  0  7G01G04G07G08G09G11G16                0.000330338
  22526272.570 6   -295236.715 6   -190922.03149  22526273.85249
  23528784.461 4    -43768.516 4    -21220.90246  23528784.95346
  22508038.734 6   -249719.980 6   -148418.91449  22508036.46149
  20771788.141 7   -114397.707 7    -80537.33649  20771788.05949
  23369981.789 5    -86250.648 5    -50144.92248  23369984.17248
  20635420.961 6   -218000.363 6   -137249.66048  20635418.53548
  23076196.383 5    -73368.977 5    -41871.88346  23076194.36346
 20  5 16  3 15 32.0000000  0  7G01G04G07G08G09G11G16                0.000327913
  22524889.047 6   -302507.949 6   -196587.92649  22524890.30549
  23528557.664 4    -44963.602 4    -22152.11746  23528557.71946
  22506759.203 6   -256444.445 6   -153658.76249  22506756.46949
  20771295.625 7   -116986.703 7    -82554.73849  20771295.00049
  23369556.375 5    -88489.199 5    -51889.25048  23369557.81348
  20634419.977 6   -223261.199 6   -141349.01648  20634417.99248
  23075759.547 5    -75665.297 5    -43661.22346  23075756.99246
 20  5 16  3 15 33.0000000  0  7G01G04G07G08G09G11G16                0.000325489
  22523505.344 6   -309779.516 6   -202254.08649  22523506.30549
  23528329.133 4    -46159.203 4    -23083.75846  23528330.55946
  22505479.852 6   -263169.184 6   -158898.81649  22505476.97349
  20770802.656 7   -119575.980 7    -84572.35549  20770803.20349
  23369130.313 5    -90727.996 5    -53633.77348  23369132.06648
  20633418.742 6   -228522.070 6   -145448.39548  20633415.87548
  23075322.398 4    -77962.102 4    -45450.93846  23075320.55146
 20  5 16  3 15 34.0000000  0  7G01G04G07G08G09G11G16                0.000323063
  22522121.273 6   -317051.754 6   -207920.75849  22522122.75049
  23528101.539 3    -47355.656 3    -24016.08646  23528102.48846
  22504199.469 6   -269894.551 6   -164139.36749  22504196.96549
  20770309.773 7   -122165.902 7    -86590.47349  20770309.96949
  23368704.148 5    -92967.410 5    -55378.78548  23368705.83248
  20632417.461 6   -233783.344 6   -149548.08648  20632415.43048
  23074885.477 4    -80259.734 4    -47241.29746  23074882.81346
 20  5 16  3 15 35.0000000  0  7G01G04G07G08G09G11G16                0.000320639
  22520737.180 6   -324324.430 6   -213587.78549  22520738.71149
  23527874.469 4    -48552.797 4    -24948.93446  23527874.79346
  22502919.328 6   -276620.332 6   -169380.23049  22502917.09449
  20769817.055 7   -124756.219 7    -88608.90249  20769816.69949
  23368277.523 5    -95207.191 5    -57124.07048  23368280.12948
  20631416.250 6   -239044.797 6   -153647.92648  20631413.85248
  23074447.570 4    -82558.023 4    -49032.16446  23074445.84046
 20  5 16  3 15 36.0000000  0  7G01G04G07G08G09G11G16                0.000318213
  22519353.195 6   -331597.516 6   -219255.10949  22519354.38749
  23527646.266 4    -49750.434 4    -25882.16446  23527647.37146
  22501639.797 6   -283346.422 6   -174621.34449  22501637.25449
  20769323.969 7   -127346.832 7    -90627.56649  20769323.66849
  23367851.773 5    -97447.313 5    -58869.61748  23367853.57848
  20630414.750 6   -244306.301 6   -157747.80548  20630412.66848
  23074010.578 4    -84856.805 4    -50823.41846  23074007.90646
 20  5 16  3 15 37.0000000  0  7G01G04G07G08G09G11G16                0.000315786
  22517969.008 6   -338870.898 6   -224922.68849  22517970.78949
  23527418.563 4    -50948.613 4    -26815.80146  23527419.07046
  22500359.789 6   -290072.766 6   -179862.66449  22500357.27749
  20768830.875 7   -129937.734 7    -92646.44949  20768830.98849
  23367425.414 6    -99687.648 6    -60615.33648  23367427.19948
  20629413.953 6   -249567.875 6   -161847.73448  20629411.30948
  23073573.211 4    -87156.098 4    -52615.08646  23073570.42646
 20  5 16  3 15 38.0000000  0  7G01G04G07G08G09G11G16                0.000313360
  22516584.734 6   -346144.777 6   -230590.65249  22516585.94549
  23527190.313 4    -52147.480 4    -27749.98046  23527190.84046
  22499079.727 6   -296799.605 6   -185104.35549  22499077.08649
  20768337.672 7   -132529.047 7    -94665.65649  20768337.59049
  23366999.039 5   -101928.402 5    -62361.38348  23367001.01248
  20628412.125 6   -254829.609 6   -165947.78148  20628409.93848
  23073135.367 4    -89456.043 4    -54407.25846  23073132.43046
 20  5 16  3 15 39.0000000  0  7G01G04G07G08G09G11G16                0.000310932
  22515201.117 6   -353418.996 6   -236258.87549  22515202.06349
  23526962.547 4    -53346.883 4    -28684.57046  23526962.43446
  22497799.555 6   -303526.711 6   -190346.25048  22497796.68848
  20767844.477 7   -135120.637 7    -96685.07049  20767844.85949
  23366572.445 5   -104169.453 5    -64107.64648  23366574.37148
  20627411.219 6   -260091.398 6   -170047.87548  20627408.98848
  23072697.789 4    -91756.531 4    -56199.84846  23072694.56346
 20  5 16  3 15 40.0000000  0  7G01G04G07G08G09G11G16                0.000308504
  22513816.641 6   -360693.555 6   -241927.36749  22513817.74649
  23526734.188 4    -54546.820 4    -29619.57846  23526734.07046
  22496519.469 6   -310254.074 6   -195588.33649  22496516.53549
  20767351.094 7   -137712.523 7    -98704.72349  20767351.26249
  23366145.648 5   -106410.734 5    -65854.09448  23366148.58648
  20626410.289 6   -265353.230 6   -174148.00448  20626407.56648
  23072259.203 4    -94057.496 4    -57992.80146  23072256.58646
 20  5 16  3 15 41.0000000  0  7G01G04G07G08G09G11G16                0.000306076
  22512431.688 6   -367968.242 6   -247595.94549  22512433.48449
  23526505.234 4    -55747.035 4    -30554.80146  23526505.80546
  22495238.891 6   -316981.559 6   -200830.52749  22495236.50049
  20766857.984 7   -140304.488 7   -100724.44149  20766857.85949
  23365719.648 5   -108652.113 5    -67600.62148  23365721.76648
  20625409.133 6   -270614.914 6   -178248.02348  20625406.44148
  23071821.461 4    -96358.746 4    -59785.97746  23071818.84046
 20  5 16  3 15 42.0000000  0  7G01G04G07G08G09G11G16                0.000303648
  22511047.078 6   -375243.289 6   -253264.82049  22511049.08249
  23526276.914 4    -56947.789 4    -31490.47346  23526277.34046
  22493958.930 6   -323709.293 6   -206072.93049  22493956.29349
  20766364.852 7   -142896.703 7   -102744.34849  20766364.87149
  23365292.883 5   -110893.746 5    -69347.36748  23365295.83648
  20624407.617 6   -275876.645 6   -182348.07048  20624404.86348
  23071383.492 4    -98660.488 4    -61579.54346  23071380.61346
 20  5 16  3 15 43.0000000  0  7G01G04G07G08G09G11G16                0.000301220
  22509662.922 6   -382518.582 6   -258933.87949  22509664.85949
  23526048.227 4    -58149.082 4    -32426.57046  23526048.52046
  22492678.430 6   -330437.289 6   -211315.52349  22492676.04349
  20765871.359 7   -145489.199 7   -104764.48049  20765871.55149
  23364866.148 5   -113135.566 5    -71094.25448  23364868.77748
  20623406.789 6   -281138.387 6   -186448.12948  20623403.59448
  23070945.570 4   -100962.742 4    -63373.50846  23070942.55146
 20  5 16  3 15 44.0000000  0  7G01G04G07G08G09G11G16                0.000298790
  22508278.891 6   -389794.270 6   -264603.26249  22508280.67249
  23525819.516 4    -59350.859 4    -33363.03546  23525819.44546
  22491398.461 6   -337165.598 6   -216558.36749  22491395.61349
  20765378.031 7   -148081.973 7   -106784.81649  20765378.04749
  23364439.383 5   -115377.688 5    -72841.37948  23364442.08248
  20622405.039 6   -286400.211 6   -190548.24248  20622402.49648
  23070507.570 4   -103265.473 4    -65167.84846  23070504.50046
 20  5 16  3 15 45.0000000  0  7G01G04G07G08G09G11G16                0.000296360
  22506894.000 6   -397070.375 6   -270272.95349  22506895.55549
  23525591.070 5    -60553.332 5    -34300.04346  23525591.27046
  22490117.930 6   -343894.324 6   -221801.55149  22490114.78149
  20764884.820 7   -150675.164 7   -108805.49249  20764884.14149
  23364013.156 5   -117620.230 5    -74588.82448  23364015.70348
  20621403.867 6   -291662.148 6   -194648.45748  20621400.95748
  23070069.063 4   -105568.855 4    -66962.69146  23070065.92246
 20  5 16  3 15 46.0000000  0  7G01G04G07G08G09G11G16                0.000293930
  22505509.352 6   -404346.621 6   -275942.75449  22505511.41449
  23525362.500 5    -61756.078 5    -35237.24246  23525362.34846
  22488837.484 6   -350623.105 6   -227044.75048  22488834.17648
  20764390.945 7   -153268.422 7   -110826.22349  20764391.19549
  23363586.469 5   -119862.766 5    -76336.23848  23363589.13748
  20620402.289 6   -296923.945 6   -198748.56348  20620399.89148
  23069631.109 4   -107872.500 4    -68757.74246  23069627.61746
 20  5 16  3 15 47.0000000  0  7G01G04G07G08G09G11G16                0.000291502
  22504124.617 5   -411622.887 5   -281612.56348  22504126.78548
  23525133.906 4    -62959.215 4    -36174.73846  23525133.18046
  22487557.398 6   -357351.969 6   -232288.01649  22487554.31349
  20763898.094 7   -155861.777 7   -112847.01649  20763897.77049
  23363159.195 5   -122105.426 5    -78083.75448  23363162.66448
  20619401.578 6   -302185.555 6   -202848.52348  20619398.31648
  23069192.250 5   -110176.465 5    -70553.05146  23069188.92646
 20  5 16  3 15 48.0000000  0  7G01G04G07G08G09G11G16                0.000289070
  22502739.258 5   -418899.434 5   -287282.58248  22502742.11748
  23524905.789 3    -64162.609 3    -37112.42246  23524904.64146
  22486276.953 6   -364080.922 6   -237531.36748  22486273.63348
  20763404.430 7   -158455.199 7   -114867.85249  20763404.00049
  23362731.828 5   -124348.141 5    -79831.32048  23362735.94148
  20618400.500 6   -307447.035 6   -206948.37148  20618397.41848
  23068753.367 5   -112480.777 5    -72348.64546  23068750.78946
 20  5 16  3 15 49.0000000  0  7G01G04G07G08G09G11G16                0.000286640
  22501355.250 5   -426175.988 5   -292952.61348  22501357.19948
  23524675.734 3    -65366.281 3    -38050.38345  23524675.87145
  22484996.266 6   -370809.891 6   -242774.71148  22484992.66848
  20762910.570 7   -161048.629 7   -116888.69149  20762909.78549
  23362305.922 5   -126590.828 5    -81578.87548  23362308.86748
  20617399.633 6   -312708.281 6   -211048.03948  20617396.05148
  23068315.422 5   -114785.293 5    -74144.36346  23068312.37146
 20  5 16  3 15 50.0000000  0  7G01G04G07G08G09G11G16                0.000284210
  22499970.500 5   -433452.715 5   -298622.78948  22499972.38348
  23524447.328 3    -66570.281 3    -38988.57445  23524446.59445
  22483715.633 6   -377538.875 6   -248018.07448  22483712.16848
  20762417.617 7   -163642.121 7   -118909.58649  20762416.64849
  23361878.914 6   -128833.504 6    -83326.43848  23361881.49248
  20616398.039 6   -317969.359 6   -215147.59048  20616394.98448
  23067876.492 5   -117090.098 5    -75940.31346  23067873.38746
 20  5 16  3 15 51.0000000  0  7G01G04G07G08G09G11G16                0.000281778
  22498586.023 5   -440729.711 5   -304293.17648  22498587.89548
  23524217.656 4    -67774.742 4    -39927.14145  23524217.53945
  22482434.813 6   -384268.168 6   -253261.67648  22482431.66848
  20761923.508 7   -166235.832 7   -120930.66449  20761922.75049
  23361452.242 6   -131076.469 6    -85074.22348  23361454.33248
  20615396.523 6   -323230.441 6   -219247.12948  20615394.01248
  23067437.406 5   -119395.336 5    -77736.57846  23067434.70346
 20  5 16  3 15 52.0000000  0  7G01G04G07G08G09G11G16                0.000279348
  22497200.781 5   -448006.738 5   -309963.59048  22497203.03548
  23523988.750 4    -68979.496 4    -40865.95345  23523988.44945
  22481154.258 6   -390997.461 6   -258505.27048  22481150.93448
  20761429.992 7   -168829.574 7   -122951.76249  20761429.53549
  23361025.219 6   -133319.414 6    -86821.97348  23361027.42648
  20614395.766 6   -328491.305 6   -223346.50848  20614392.80548
  23066998.781 5   -121700.813 5    -79533.05546  23066996.05546
 20  5 16  3 15 53.0000000  0  7G01G04G07G08G09G11G16                0.000276917
  22495816.375 5   -455283.914 5   -315634.11748  22495817.85948
  23523759.461 3    -70184.523 3    -41804.94145  23523758.91445
  22479873.547 6   -397726.816 6   -263748.91448  22479870.28548
  20760936.813 7   -171423.398 7   -124972.93449  20760936.04349
  23360598.703 6   -135562.441 6    -88569.78548  23360600.61348
  20613394.711 6   -333752.027 6   -227445.77348  20613391.58648
  23066560.180 5   -124006.590 5    -81329.75846  23066557.36746
 20  5 16  3 15 54.0000000  0  7G01G04G07G08G09G11G16                0.000274485
  22494431.375 5   -462561.125 5   -321304.68048  22494433.49648
  23523529.430 3    -71389.750 3    -42744.09845  23523529.63745
  22478592.484 6   -404456.141 6   -268992.54748  22478590.18448
  20760442.719 7   -174017.141 7   -126994.03149  20760442.19549
  23360171.914 6   -137805.375 6    -90317.53148  23360173.52048
  20612393.570 6   -339012.445 6   -231544.80148  20612390.70348
  23066121.016 5   -126312.500 5    -83126.58246  23066118.28146
 20  5 16  3 15 55.0000000  0  7G01G04G07G08G09G11G16                0.000272053
  22493047.031 5   -469838.430 5   -326975.30548  22493048.64848
  23523300.508 3    -72595.328 3    -43683.48845  23523299.90645
  22477312.258 6   -411185.570 6   -274236.26248  22477309.20348
  20759949.156 7   -176611.027 7   -129015.24249  20759948.58649
  23359744.688 6   -140048.418 6    -92065.35548  23359746.73848
  20611393.000 6   -344272.750 6   -235643.74248  20611389.46548
  23065682.078 5   -128618.801 5    -84923.71146  23065679.57046
 20  5 16  3 15 56.0000000  0  7G01G04G07G08G09G11G16                0.000269621
  22491661.352 5   -477115.973 5   -332646.11348  22491663.56648
  23523071.391 4    -73801.328 4    -44623.22745  23523071.34045
  22476032.023 6   -417915.137 6   -279480.08648  22476028.70348
  20759455.336 7   -179205.023 7   -131036.53549  20759454.93049
  23359318.320 6   -142291.574 6    -93813.27048  23359320.01648
  20610391.906 6   -349532.973 6   -239742.62148  20610389.02748
  23065243.414 5   -130925.461 5    -86721.12946  23065240.53546
 20  5 16  3 15 57.0000000  0  7G01G04G07G08G09G11G16                0.000267189
  22490276.969 5   -484393.648 5   -338317.03148  22490278.88348
  23522841.133 4    -75007.625 4    -45563.17645  23522841.60545
  22474751.102 6   -424644.766 6   -284723.96148  22474748.42248
  20758961.703 7   -181799.121 7   -133057.91449  20758961.34849
  23358891.305 6   -144534.820 6    -95561.24648  23358892.68048
  20609390.688 6   -354793.012 6   -243841.34848  20609387.58248
  23064804.078 5   -133232.371 5    -88518.71546  23064801.37546
 20  5 16  3 15 58.0000000  0  7G01G04G07G08G09G11G16                0.000264755
  22488891.750 4   -491671.469 4   -343988.05948  22488893.98048
  23522611.477 4    -76214.227 4    -46503.39545  23522611.96945
  22473470.672 6   -431374.500 6   -289967.92648  22473468.06348
  20758468.141 7   -184393.254 7   -135079.30549  20758467.71549
  23358464.438 6   -146778.086 6    -97309.23448  23358466.10248
  20608389.758 6   -360052.855 6   -247939.92248  20608386.78148
  23064366.266 5   -135539.609 5    -90316.55546  23064362.60546
 20  5 16  3 15 59.0000000  0  7G01G04G07G08G09G11G16                0.000262323
  22487507.352 4   -498949.359 4   -349659.15248  22487509.42648
  23522381.578 3    -77421.137 3    -47443.84045  23522382.22345
  22472190.727 6   -438104.281 6   -295211.92248  22472187.14548
  20757974.594 7   -186987.449 7   -137100.75449  20757973.63749
  23358037.586 6   -149021.383 6    -99057.24648  23358038.39848
  20607388.680 6   -365312.555 6   -252038.38348  20607386.25848
  23063927.320 5   -137847.090 5    -92114.57846  23063923.44946
 20  5 16  3 16  0.0000000  0  7G01G04G07G08G09G11G16                0.000259890
  22486121.750 5   -506227.309 5   -355330.27348  22486124.28548
  23522152.094 4    -78628.332 4    -48384.50445  23522152.43445
  22470909.516 6   -444834.074 6   -300455.91048  22470906.46148
  20757480.711 7   -189581.633 7   -139122.19149  20757480.37149
  23357610.586 6   -151264.707 6   -100805.30148  23357611.32848
  20606387.688 6   -370571.996 6   -256136.64548  20606384.84448
  23063487.594 5   -140154.805 5    -93912.81646  23063484.46546
 20  5 16  3 16  1.0000000  0  7G01G04G07G08G09G11G16                0.000257456
  22484737.383 5   -513505.340 5   -361001.46148  22484739.10948
  23521922.555 4    -79835.742 4    -49325.35545  23521923.05945
  22469628.422 6   -451563.910 6   -305699.94148  22469625.99648
  20756986.797 7   -192175.859 7   -141143.67249  20756986.47349
  23357183.695 6   -153508.027 6   -102553.34448  23357184.79748
  20605387.070 6   -375831.223 6   -260234.75048  20605384.16048
  23063048.648 5   -142462.805 5    -95711.26246  23063045.39146
 20  5 16  3 16  2.0000000  0  7G01G04G07G08G09G11G16                0.000255022
  22483352.359 5   -520783.320 5   -366672.60948  22483354.11348
  23521693.078 4    -81043.387 4    -50266.39545  23521693.03945
  22468347.914 6   -458293.648 6   -310943.86748  22468345.03148
  20756493.445 7   -194770.012 7   -143165.09849  20756493.11349
  23356756.328 6   -155751.262 6   -104301.32048  23356758.24648
  20604386.648 6   -381090.164 6   -264332.62948  20604383.31348
  23062608.953 5   -144770.941 5    -97509.82846  23062606.31346
 20  5 16  3 16  3.0000000  0  7G01G04G07G08G09G11G16                0.000252590
  22481966.938 4   -528061.375 4   -372343.81648  22481969.29348
  23521462.047 4    -82251.250 4    -51207.59445  23521463.53945
  22467067.047 6   -465023.359 6   -316187.78148  22467064.41848
  20755999.906 7   -197364.141 7   -145186.49249  20755998.97349
  23356329.984 6   -157994.453 6   -106049.25048  23356330.99648
  20603385.602 6   -386348.824 6   -268430.28548  20603382.48448
  23062170.242 5   -147079.258 5    -99308.51646  23062166.89146
 20  5 16  3 16  4.0000000  0  7G01G04G07G08G09G11G16                0.000250156
  22480582.313 4   -535339.531 4   -378015.12148  22480584.44548
  23521233.125 4    -83459.352 4    -52148.95345  23521233.77345
  22465786.641 6   -471753.145 6   -321431.77348  22465783.77748
  20755505.977 7   -199958.332 7   -147207.94149  20755505.04349
  23355903.117 6   -160237.652 6   -107797.18448  23355903.91848
  20602385.367 6   -391607.305 6   -272527.80148  20602382.11348
  23061731.250 4   -149387.836 4   -101107.41046  23061727.51246
 20  5 16  3 16  5.0000000  0  7G01G04G07G08G09G11G16                0.000247723
  22479197.172 4   -542617.617 4   -383686.35548  22479199.43848
  23521002.086 4    -84667.660 4    -53090.51645  23521003.75045
  22464505.969 6   -478482.820 6   -326675.66048  22464503.58248
  20755012.547 7   -202552.418 7   -149229.29349  20755011.74249
  23355476.789 6   -162480.738 6   -109545.03148  23355477.30548
  20601384.711 6   -396865.426 6   -276625.03148  20601381.39848
  23061291.758 4   -151696.555 4   -102906.39146  23061288.44546
 20  5 16  3 16  6.0000000  0  7G01G04G07G08G09G11G16                0.000245287
  22477812.531 4   -549895.789 4   -389357.65648  22477814.18848
  23520772.375 4    -85876.215 4    -54032.24645  23520773.72345
  22463225.398 6   -485212.535 6   -331919.58648  22463223.32048
  20754519.031 7   -205146.563 7   -151250.70349  20754517.84849
  23355049.305 6   -164723.898 6   -111292.94548  23355050.27348
  20600383.945 6   -402123.355 6   -280722.12548  20600380.52048
  23060852.258 5   -154005.555 5   -104705.58646  23060849.12146
 20  5 16  3 16  7.0000000  0  7G01G04G07G08G09G11G16                0.000242853
  22476427.219 4   -557173.895 4   -395028.90248  22476429.40248
  23520541.906 4    -87084.930 4    -54974.13745  23520543.85945
  22461944.758 6   -491942.148 6   -337163.43448  22461942.80148
  20754025.250 7   -207740.559 7   -153272.00449  20754024.81649
  23354622.242 6   -166966.879 6   -113040.72748  23354623.39848
  20599382.891 6   -407380.953 6   -284818.95348  20599380.37148
  23060413.313 5   -156314.613 5   -106504.84046  23060409.67646
 20  5 16  3 16  8.0000000  0  7G01G04G07G08G09G11G16                0.000240419
  22475042.445 4   -564452.027 4   -400700.17648  22475044.53548
  23520311.820 4    -88293.832 4    -55916.12945  23520313.67645
  22460663.922 6   -498671.730 6   -342407.26648  22460662.07048
  20753531.711 7   -210334.531 7   -155293.28149  20753530.98049
  23354195.469 6   -169209.863 6   -114788.51248  23354196.64848
  20598382.938 6   -412638.309 6   -288915.59847  20598379.98847
  23059974.125 5   -158623.891 5   -108304.28146  23059970.20346
 20  5 16  3 16  9.0000000  0  7G01G04G07G08G09G11G16                0.000237984
  22473657.750 4   -571730.359 4   -406371.60948  22473659.42248
  23520082.281 4    -89503.133 4    -56858.45345  23520083.44545
  22459383.859 6   -505401.430 6   -347651.19148  22459381.66048
  20753037.805 7   -212928.637 7   -157314.66049  20753037.25849
  23353768.609 6   -171452.918 6   -116536.35248  23353769.50448
  20597382.266 6   -417895.484 6   -293012.09048  20597379.49648
  23059534.234 5   -160933.504 5   -110103.98446  23059530.74646
 20  5 16  3 16 10.0000000  0  7G01G04G07G08G09G11G16                0.000235550
  22472272.813 4   -579008.770 4   -412043.10248  22472274.85948
  23519851.789 4    -90712.699 4    -57800.95345  23519853.52745
  22458103.070 6   -512131.156 6   -352895.14148  22458101.35248
  20752544.336 7   -215522.770 7   -159336.06649  20752543.57049
  23353342.008 6   -173695.969 6   -118284.19148  23353342.72748
  20596381.586 6   -423152.492 6   -297108.46148  20596379.34848
  23059094.703 5   -163243.379 5   -111903.90246  23059090.91446
 20  5 16  3 16 11.0000000  0  7G01G04G07G08G09G11G16                0.000233114
  22470887.438 4   -586287.129 4   -417714.54748  22470890.10548
  23519622.125 5    -91922.469 5    -58743.62945  23519623.23445
  22456822.000 6   -518860.848 6   -358139.05948  22456819.75848
  20752050.625 7   -218116.848 7   -161357.42649  20752050.01249
  23352915.453 6   -175938.988 6   -120032.00448  23352916.10948
  20595381.352 6   -428409.168 6   -301204.58248  20595378.66048
  23058654.383 5   -165553.402 5   -113703.93846  23058651.80546
 20  5 16  3 16 12.0000000  0  7G01G04G07G08G09G11G16                0.000230679
  22469502.383 4   -593565.574 4   -423386.06348  22469505.04348
  23519391.336 5    -93132.461 5    -59686.50445  23519392.63745
  22455541.555 6   -525590.484 6   -363382.93448  22455539.55948
  20751557.289 7   -220710.910 7   -163378.77749  20751556.29349
  23352488.164 6   -178181.977 6   -121779.78548  23352489.43448
  20594381.156 6   -433665.645 6   -305300.53948  20594378.50048
  23058215.359 5   -167863.648 5   -115504.13746  23058211.83646
 20  5 16  3 16 13.0000000  0  7G01G04G07G08G09G11G16                0.000228243
  22468117.406 5   -600843.832 5   -429057.43848  22468119.59048
  23519161.422 4    -94342.539 4    -60629.43045  23519162.53545
  22454261.313 6   -532319.973 6   -368626.68848  22454258.99648
  20751063.352 7   -223304.777 7   -165399.97349  20751062.25049
  23352061.375 6   -180424.801 6   -123527.44148  23352062.37948
  20593381.164 6   -438921.703 6   -309396.16848  20593378.35548
  23057775.664 5   -170173.965 5   -117304.37946  23057772.22346
 20  5 16  3 16 14.0000000  0  7G01G04G07G08G09G11G16                0.000225807
  22466732.523 6   -608122.180 6   -434728.87948  22466734.65248
  23518931.164 5    -95552.719 5    -61572.39845  23518931.84845
  22452980.969 6   -539049.340 6   -373870.37548  22452978.04348
  20750570.211 7   -225898.566 7   -167421.12149  20750569.52349
  23351635.547 6   -182667.488 6   -125274.98048  23351635.97348
  20592380.734 6   -444177.453 6   -313491.56348  20592377.88348
  23057335.820 5   -172484.324 5   -119104.65246  23057332.70746
 20  5 16  3 16 15.0000000  0  7G01G04G07G08G09G11G16                0.000223372
  22465346.945 6   -615400.465 6   -440400.24649  22465349.37549
  23518700.523 5    -96763.152 5    -62515.53945  23518701.98045
  22451699.844 6   -545778.711 6   -379114.05548  22451697.54748
  20750076.617 7   -228492.340 7   -169442.25049  20750075.85249
  23351208.773 6   -184910.129 6   -127022.49648  23351208.81348
  20591380.945 6   -449432.887 6   -317586.69948  20591378.03948
  23056895.641 5   -174794.941 5   -120905.12546  23056892.63746
 20  5 16  3 16 16.0000000  0  7G01G04G07G08G09G11G16                0.000220936
  22463962.344 6   -622678.730 6   -446071.59849  22463963.78149
  23518470.680 5    -97973.797 5    -63458.84045  23518471.58245
  22450419.531 6   -552508.008 6   -384357.66448  22450416.96548
  20749582.766 7   -231086.043 7   -171463.32449  20749582.81349
  23350782.195 6   -187152.699 6   -128769.96148  23350782.49648
  20590381.078 6   -454688.043 6   -321681.62948  20590378.26248
  23056456.617 5   -177105.691 5   -122705.70746  23056453.32046
 20  5 16  3 16 17.0000000  0  7G01G04G07G08G09G11G16                0.000218500
  22462577.258 6   -629956.891 6   -451742.88349  22462579.13349
  23518240.492 5    -99184.555 5    -64402.28145  23518241.20345
  22449138.797 6   -559237.176 6   -389601.16848  22449136.81348
  20749089.359 7   -233679.586 7   -173484.26649  20749089.26249
  23350355.000 6   -189395.137 6   -130517.31648  23350355.85948
  20589381.117 6   -459942.797 6   -325776.23848  20589378.35948
  23056016.063 5   -179416.559 5   -124506.38346  23056013.42246
 20  5 16  3 16 18.0000000  0  7G01G04G07G08G09G11G16                0.000216064
  22461192.219 6   -637235.063 6   -457414.18449  22461193.41449
  23518010.008 5   -100395.480 5    -65345.89545  23518010.68445
  22447858.688 6   -565966.273 6   -394844.61748  22447856.00448
  20748595.750 7   -236273.082 7   -175505.17249  20748595.16049
  23349928.734 6   -191637.453 6   -132264.58248  23349929.37948
  20588381.070 6   -465197.277 6   -329870.64148  20588378.55948
  23055576.344 4   -181727.570 4   -126307.16846  23055573.64546
 20  5 16  3 16 19.0000000  0  7G01G04G07G08G09G11G16                0.000213629
  22459807.344 6   -644513.211 6   -463085.47349  22459808.83249
  23517779.961 5   -101606.551 5    -66289.60545  23517780.09445
  22446578.344 6   -572695.281 6   -400087.99648  22446575.55148
  20748102.000 7   -238866.496 7   -177526.00849  20748101.92649
  23349501.727 6   -193879.703 6   -134011.78548  23349501.86348
  20587381.219 6   -470451.445 6   -333964.80548  20587378.46548
  23055137.313 4   -184038.727 4   -128108.07846  23055134.14846
 20  5 16  3 16 20.0000000  0  7G01G04G07G08G09G11G16                0.000211191
  22458422.117 6   -651791.516 6   -468756.87949  22458423.43849
  23517549.070 5   -102818.035 5    -67233.63745  23517549.52745
  22445297.078 6   -579424.469 6   -405331.52048  22445294.90248
  20747608.328 7   -241460.047 7   -179546.95749  20747608.15649
  23349074.672 6   -196122.059 6   -135759.07848  23349075.12948
  20586381.000 6   -475705.496 6   -338058.86748  20586378.54748
  23054696.359 4   -186350.234 4   -129909.25046  23054694.34046
 20  5 16  3 16 21.0000000  0  7G01G04G07G08G09G11G16                0.000208755
  22457037.164 6   -659069.734 6   -474428.22349  22457038.39549
  23517318.891 5   -104029.605 5    -68177.73045  23517318.35945
  22444016.891 6   -586153.480 6   -410574.90648  22444014.62148
  20747115.188 7   -244053.469 7   -181567.80149  20747114.77049
  23348647.852 6   -198364.262 6   -137506.25048  23348648.94148
  20585381.688 6   -480959.180 6   -342152.65248  20585378.90648
  23054257.016 4   -188661.832 4   -131710.49646  23054254.01246
 20  5 16  3 16 22.0000000  0  7G01G04G07G08G09G11G16                0.000206318
  22455651.992 6   -666347.848 6   -480099.48049  22455653.60549
  23517088.789 5   -105241.305 5    -69121.91045  23517088.01245
  22442736.789 6   -592882.340 6   -415818.16848  22442733.87548
  20746621.828 7   -246646.727 7   -183588.52049  20746620.93849
  23348221.523 6   -200606.324 6   -139253.31348  23348222.13348
  20584381.914 6   -486212.453 6   -346246.10548  20584379.43448
  23053816.781 4   -190973.453 4   -133511.76246  23053814.47746
 20  5 16  3 16 23.0000000  0  7G01G04G07G08G09G11G16                0.000203882
  22454267.273 6   -673625.887 6   -485770.68049  22454268.50049
  23516857.477 5   -106453.113 5    -70066.16045  23516856.93845
  22441456.188 6   -599611.066 6   -421061.32848  22441453.40248
  20746128.258 7   -249239.867 7   -185609.14849  20746127.64849
  23347794.008 5   -202848.207 5   -141000.23448  23347795.03148
  20583382.273 6   -491465.367 6   -350339.27748  20583379.72748
  23053377.516 4   -193285.207 4   -135313.12946  23053374.03546
 20  5 16  3 16 24.0000000  0  7G01G04G07G08G09G11G16                0.000201445
  22452882.281 6   -680903.820 6   -491441.80549  22452883.76249
  23516627.203 5   -107665.023 5    -71010.52345  23516626.39845
  22440176.367 6   -606339.668 6   -426304.39548  22440173.04748
  20745634.820 7   -251832.855 7   -187629.66049  20745634.21549
  23347367.367 5   -205089.957 5   -142747.05148  23347368.78148
  20582382.547 6   -496717.914 6   -354432.17248  20582380.43448
  23052937.273 4   -195597.023 4   -137114.53546  23052934.48846
 20  5 16  3 16 25.0000000  0  7G01G04G07G08G09G11G16                0.000199007
  22451497.078 6   -688181.523 6   -497112.73849  22451498.83649
  23516396.203 5   -108876.883 5    -71954.86345  23516395.57845
  22438895.867 6   -613067.984 6   -431547.24648  22438892.99248
  20745141.289 7   -254425.555 7   -189649.94549  20745141.40649
  23346940.961 5   -207331.433 5   -144493.65748  23346942.12148
  20581383.344 6   -501969.922 6   -358524.65248  20581380.65648
  23052497.539 4   -197908.773 4   -138915.91046  23052494.62146
 20  5 16  3 16 26.0000000  0  7G01G04G07G08G09G11G16                0.000196571
  22450112.250 6   -695459.344 6   -502783.76649  22450113.77749
  23516165.523 5   -110089.055 5    -72899.42645  23516165.21545
  22437615.133 6   -619796.344 6   -436790.12948  22437612.68448
  20744648.336 7   -257018.313 7   -191670.27749  20744647.76649
  23346514.695 5   -209572.922 5   -146240.27748  23346515.78148
  20580383.805 6   -507221.770 6   -362617.00448  20580381.00048
  23052057.664 4   -200220.828 4   -140717.51246  23052054.65246
 20  5 16  3 16 27.0000000  0  7G01G04G07G08G09G11G16                0.000194134
  22448727.539 6   -702737.055 6   -508454.71549  22448728.79349
  23515934.992 5   -111301.352 5    -73844.08245  23515934.35245
  22436334.750 6   -626524.539 6   -442032.87948  22436332.02348
  20744154.758 7   -259610.926 7   -193690.49649  20744154.40249
  23346088.477 5   -211814.227 5   -147986.74648  23346089.26248
  20579384.711 6   -512473.195 6   -366709.02048  20579382.24248
  23051618.008 4   -202532.934 4   -142519.15646  23051614.87946
 20  5 16  3 16 28.0000000  0  7G01G04G07G08G09G11G16                0.000191696
  22447342.766 6   -710014.457 6   -514125.41049  22447344.44949
  23515704.281 5   -112513.508 5    -74788.60945  23515703.07445
  22435054.219 6   -633252.375 6   -447275.34448  22435051.95348
  20743661.563 7   -262203.168 7   -195710.42249  20743661.05549
  23345661.984 5   -214055.207 5   -149732.96148  23345662.64848
  20578385.734 6   -517724.043 6   -370800.59848  20578382.94548
  23051177.953 4   -204844.902 4   -144320.70346  23051174.88746
 20  5 16  3 16 29.0000000  0  7G01G04G07G08G09G11G16                0.000189259
  22445957.578 6   -717291.918 6   -519796.16449  22445959.30549
  23515474.047 5   -113725.961 5    -75733.38345  23515472.49245
  22433774.219 6   -639980.258 6   -452517.85248  22433772.00448
  20743168.352 7   -264795.473 7   -197730.40249  20743167.65249
  23345235.430 5   -216296.160 5   -151479.16448  23345236.28548
  20577386.336 6   -522974.664 6   -374891.98848  20577384.39548
  23050737.570 4   -207157.121 4   -146122.43846  23050734.96546
 20  5 16  3 16 30.0000000  0  7G01G04G07G08G09G11G16                0.000186821
  22444572.516 6   -724569.164 6   -525466.74648  22444573.95348
  23515242.844 5   -114938.332 5    -76678.10245  23515241.49645
  22432493.906 6   -646707.840 6   -457760.12148  22432491.85248
  20742674.703 7   -267387.457 7   -199750.12949  20742674.39849
  23344809.148 5   -218536.816 5   -153225.12948  23344809.54748
  20576386.945 6   -528224.770 6   -378982.97748  20576384.93448
  23050297.375 4   -209469.242 4   -147924.09046  23050295.43846
 20  5 16  3 16 31.0000000  0  7G01G04G07G08G09G11G16                0.000184383
  22443187.953 6   -731846.395 6   -531137.31349  22443189.21949
  23515012.445 5   -116150.988 5    -77623.00045  23515011.08245
  22431213.945 6   -653435.371 6   -463002.35248  22431211.19948
  20742181.570 7   -269979.430 7   -201769.85249  20742180.85249
  23344382.539 5   -220777.449 5   -154971.08648  23344382.96948
  20575388.031 6   -533474.582 6   -383073.74248  20575385.54748
  23049857.383 5   -211781.582 5   -149725.90646  23049854.97346
 20  5 16  3 16 32.0000000  0  7G01G04G07G08G09G11G16                0.000181946
  22441803.125 6   -739123.633 6   -536807.89149  22441804.43449
  23514781.633 5   -117363.758 5    -78568.00845  23514779.63345
  22429933.281 6   -660162.867 6   -468244.55548  22429931.21548
  20741688.539 7   -272571.324 7   -203789.50449  20741688.14149
  23343956.195 5   -223017.973 5   -156716.95348  23343955.91048
  20574388.828 6   -538724.121 6   -387164.28548  20574386.84448
  23049416.953 4   -214094.063 4   -151527.83646  23049415.10246
 20  5 16  3 16 33.0000000  0  7G01G04G07G08G09G11G16                0.000179508
  22440418.344 6   -746400.727 6   -542478.34849  22440419.88749
  23514551.063 5   -118576.672 5    -79513.15645  23514548.80945
  22428653.359 6   -666890.180 6   -473486.61748  22428651.26648
  20741195.406 7   -275163.016 7   -205809.00849  20741195.24249
  23343529.742 5   -225258.281 5   -158462.65648  23343529.90648
  20573390.391 6   -543973.246 6   -391254.50448  20573388.12948
  23048977.016 4   -216406.586 4   -153329.80546  23048975.03546
 20  5 16  3 16 34.0000000  0  7G01G04G07G08G09G11G16                0.000177071
  22439034.227 6   -753677.652 6   -548148.68049  22439035.28549
  23514320.102 5   -119789.574 5    -80458.27345  23514318.27045
  22427373.094 6   -673617.273 6   -478728.50448  22427371.42248
  20740702.086 7   -277754.516 7   -207828.35549  20740701.82849
  23343103.789 5   -227498.430 5   -160208.23448  23343103.64548
  20572391.547 6   -549221.867 6   -395344.34848  20572388.92248
  23048537.484 4   -218719.098 4   -155131.77746  23048534.98046
 20  5 16  3 16 35.0000000  0  7G01G04G07G08G09G11G16                0.000174631
  22437649.219 6   -760954.293 6   -553818.78549  22437650.39149
  23514089.844 5   -121002.391 5    -81403.32445  23514087.31345
  22426092.930 6   -680344.012 6   -483970.12948  22426091.19948
  20740209.125 7   -280345.688 7   -209847.44949  20740209.11749
  23342677.445 5   -229738.195 5   -161953.50048  23342677.30548
  20571392.828 6   -554469.953 6   -399433.77048  20571390.60248
  23048096.953 4   -221031.508 4   -156933.65646  23048095.27046
 20  5 16  3 16 36.0000000  0  7G01G04G07G08G09G11G16                0.000172194
  22436265.289 6   -768230.863 6   -559488.84049  22436265.59049
  23513859.063 5   -122215.383 5    -82348.54345  23513856.34445
  22424813.023 6   -687070.703 6   -489211.71148  22424811.09848
  20739716.141 7   -282936.793 7   -211866.48849  20739715.58649
  23342251.469 5   -231977.887 5   -163698.71148  23342251.05948
  20570394.094 6   -559717.703 6   -403522.92648  20570391.87148
  23047656.695 4   -223344.035 4   -158735.63346  23047654.62946
 20  5 16  3 16 37.0000000  0  7G01G04G07G08G09G11G16                0.000169756
  22434880.102 6   -775507.383 6   -565158.85549  22434880.96549
  23513627.406 5   -123428.449 5    -83293.81345  23513625.53545
  22423532.930 6   -693797.203 6   -494453.14148  22423530.66048
  20739223.164 7   -285527.727 7   -213885.40649  20739222.96549
  23341825.297 5   -234217.383 5   -165443.77048  23341825.42648
  20569395.570 6   -564965.074 6   -407611.78148  20569393.28148
  23047217.219 4   -225656.688 4   -160537.70346  23047214.94546
 20  5 16  3 16 38.0000000  0  7G01G04G07G08G09G11G16                0.000167316
  22433495.125 6   -782783.793 6   -570828.78549  22433496.40649
  23513397.297 5   -124641.668 5    -84239.16045  23513394.30145
  22422252.766 6   -700523.590 6   -499694.47348  22422250.57848
  20738730.070 7   -288118.559 7   -215904.23049  20738729.53549
  23341398.297 5   -236456.772 5   -167188.73748  23341398.98448
  20568397.039 6   -570212.066 6   -411700.34448  20568394.39548
  23046776.969 4   -227969.367 4   -162339.79746  23046774.85946
 20  5 16  3 16 39.0000000  0  7G01G04G07G08G09G11G16                0.000164879
  22432110.469 6   -790060.102 6   -576498.63749  22432112.25049
  23513166.438 5   -125854.996 5    -85184.59445  23513163.82045
  22420973.523 6   -707249.848 6   -504935.71548  22420971.24648
  20738236.875 7   -290709.254 7   -217922.95349  20738236.53149
  23340972.641 5   -238695.961 5   -168933.54748  23340972.53548
  20567398.688 6   -575458.691 6   -415788.62148  20567396.24248
  23046336.992 4   -230282.158 4   -164141.97046  23046334.89546
 20  5 16  3 16 40.0000000  0  7G01G04G07G08G09G11G16                0.000162441
  22430725.883 6   -797336.332 6   -582168.42649  22430727.47749
  23512936.367 5   -127068.402 5    -86130.11345  23512932.24245
  22419692.906 6   -713975.934 6   -510176.81648  22419691.21148
  20737744.016 7   -293299.785 7   -219941.54749  20737743.26249
  23340547.086 5   -240935.051 5   -170678.28548  23340547.39148
  20566400.422 6   -580704.910 6   -419876.58248  20566397.91448
  23045896.781 4   -232595.039 4   -165944.20746  23045894.99246
 20  5 16  3 16 41.0000000  0  7G01G04G07G08G09G11G16                0.000160002
  22429341.211 6   -804612.410 6   -587838.10249  22429342.71149
  23512705.242 5   -128281.906 5    -87075.69145  23512701.75845
  22418413.148 6   -720701.820 6   -515417.77348  22418411.13348
  20737251.344 7   -295890.137 7   -221960.00049  20737250.73449
  23340120.711 5   -243173.910 5   -172422.84048  23340121.44948
  20565401.969 6   -585950.707 6   -423964.21948  20565399.76648
  23045456.555 4   -234907.930 4   -167746.46546  23045454.85946
 20  5 16  3 16 42.0000000  0  7G01G04G07G08G09G11G16                0.000157564
  22427956.813 6   -811888.391 6   -593507.68849  22427957.89149
  23512473.648 5   -129495.477 5    -88021.35545  23512470.35545
  22417133.484 6   -727427.578 6   -520658.63348  22417131.10948
  20736758.297 7   -298480.348 7   -223978.34849  20736757.93449
  23339694.773 5   -245412.613 5   -174167.27348  23339695.79348
  20564403.781 6   -591196.141 6   -428051.57848  20564401.53148
  23045016.328 4   -237220.922 4   -169548.78946  23045014.56646
 20  5 16  3 16 43.0000000  0  7G01G04G07G08G09G11G16                0.000155125
  22426572.008 6   -819164.273 6   -599177.20749  22426573.36749
  23512242.602 5   -130709.195 5    -88967.14145  23512239.59445
  22415853.328 6   -734153.203 6   -525899.37548  22415851.61348
  20736265.336 7   -301070.426 7   -225996.59449  20736265.06649
  23339268.305 5   -247651.148 5   -175911.61348  23339269.22748
  20563405.508 6   -596441.219 6   -432138.65648  20563402.99248
  23044576.188 4   -239533.973 4   -171351.16046  23044574.38746
 20  5 16  3 16 44.0000000  0  7G01G04G07G08G09G11G16                0.000152685
  22425187.273 6   -826440.227 6   -604846.78148  22425188.76248
  23512011.656 5   -131923.195 5    -89913.11745  23512008.91845
  22414573.867 6   -740878.797 6   -531140.10548  22414571.72348
  20735772.195 7   -303660.516 7   -228014.84849  20735771.71549
  23338842.117 5   -249889.664 5   -177655.92648  23338843.40648
  20562407.938 6   -601686.020 6   -436225.50848  20562404.96948
  23044136.102 4   -241847.270 4   -173153.73446  23044134.01246
 20  5 16  3 16 45.0000000  0  7G01G04G07G08G09G11G16                0.000150248
  22423804.242 5   -833715.996 5   -610516.21148  22423804.42648
  23511780.250 5   -133137.273 5    -90859.16445  23511777.63345
  22413293.914 6   -747604.266 6   -536380.74248  22413291.64548
  20735279.656 7   -306250.461 7   -230032.98449  20735279.37149
  23338416.945 6   -252128.070 6   -179400.15248  23338417.87148
  20561409.547 6   -606930.445 6   -440312.07848  20561407.78548
  23043696.227 5   -244160.652 5   -174956.37946  23043693.56646
 20  5 16  3 16 46.0000000  0  7G01G04G07G08G09G11G16                0.000147808
  22422419.250 5   -840991.598 5   -616185.50848  22422420.27048
  23511549.289 5   -134351.293 5    -91805.18445  23511546.18845
  22412014.391 6   -754329.418 6   -541621.14848  22412011.68448
  20734786.742 7   -308840.098 7   -232050.88749  20734786.19549
  23337990.484 6   -254366.137 6   -181144.12548  23337991.79748
  20560411.852 6   -612174.332 6   -444398.21948  20560409.83648
  23043257.602 4   -246473.934 4   -176758.96546  23043253.61746
 20  5 16  3 16 47.0000000  0  7G01G04G07G08G09G11G16                0.000145369
  22421033.969 6   -848267.016 6   -621854.67248  22421035.52048
  23511318.883 5   -135565.258 5    -92751.10245  23511315.30145
  22410734.125 6   -761054.301 6   -546861.31348  22410732.16848
  20734293.898 7   -311429.457 7   -234068.56649  20734293.77049
  23337565.414 5   -256603.973 5   -182887.89148  23337565.05948
  20559414.086 6   -617417.723 6   -448483.98448  20559411.84848
  23042815.297 4   -248787.125 4   -178561.43846  23042813.57046
 20  5 16  3 16 48.0000000  0  7G01G04G07G08G09G11G16                0.000142929
  22419649.727 6   -855542.234 6   -627523.67649  22419651.28149
  23511087.891 5   -136779.320 5    -93697.10945  23511084.52045
  22409454.586 6   -767779.008 6   -552101.32448  22409452.61348
  20733801.352 7   -314018.633 7   -236086.10949  20733801.05549
  23337138.781 5   -258841.574 5   -184631.47348  23337139.15648
  20558416.586 6   -622660.691 6   -452569.40648  20558413.84048
  23042374.578 4   -251100.383 4   -180363.96146  23042373.10246
 20  5 16  3 16 49.0000000  0  7G01G04G07G08G09G11G16                0.000140490
  22418265.602 6   -862817.371 6   -633192.60949  22418266.89549
  23510856.336 5   -137993.500 5    -94643.20745  23510852.97745
  22408175.336 6   -774503.551 6   -557341.21548  22408173.37948
  20733308.836 7   -316607.699 7   -238103.55949  20733308.39849
  23336713.914 5   -261079.000 5   -186374.91048  23336712.98048
  20557418.945 6   -627903.293 6   -456654.55548  20557416.59848
  23041934.750 4   -253413.680 4   -182166.52746  23041933.11746
 20  5 16  3 16 50.0000000  0  7G01G04G07G08G09G11G16                0.000138052
  22416880.992 6   -870092.418 6   -638861.48449  22416882.10949
  23510625.859 5   -139207.821 5    -95589.43645  23510622.25045
  22406895.391 6   -781227.992 6   -562581.03148  22406893.27748
  20732815.984 7   -319196.605 7   -240120.89549  20732815.69549
  23336287.547 5   -263316.309 5   -188118.26648  23336287.57848
  20556421.102 6   -633145.480 6   -460739.37148  20556418.32448
  23041494.445 4   -255727.141 4   -183969.21146  23041492.83246
 20  5 16  3 16 51.0000000  0  7G01G04G07G08G09G11G16                0.000135611
  22415496.758 6   -877367.418 6   -644530.30949  22415498.31349
  23510394.930 5   -140422.262 5    -96535.78545  23510391.04745
  22405615.641 6   -787952.305 6   -567820.75048  22405613.96548
  20732323.188 7   -321785.469 7   -242138.18449  20732323.02349
  23335862.406 5   -265553.543 5   -189861.57048  23335861.65648
  20555423.016 6   -638387.359 6   -464823.95348  20555420.89848
  23041053.922 4   -258040.684 4   -185771.98446  23041052.49246
 20  5 16  3 16 52.0000000  0  7G01G04G07G08G09G11G16                0.000133171
  22414112.320 6   -884642.223 6   -650198.98449  22414113.53149
