     2.10           OBSERVATION DATA    GPS(GPS)            RINEX VERSION / TYPE
cnvtToRINEX 3.07.0  convertToRINEX OPR  19-May-20 12:31 UTC PGM / RUN BY / DATE 
----------------------------------------------------------- COMMENT             
GBA0                                                        MARKER NAME         
GBA0                                                        MARKER NUMBER       
GNSS Observer       Trimble                                 OBSERVER / AGENCY   
0220324777          5700                2.32                REC # / TYPE / VERS 
                    TRM39105.00                             ANT # / TYPE        
 -3050437.0650  4927956.6729  2653974.6599                  APPROX POSITION XYZ 
       -0.0460        0.0000        0.0000                  ANTENNA: DELTA H/E/N
     1     1     0                                          WAVELENGTH FACT L1/2
     4    C1    L1    L2    P2                              # / TYPES OF OBSERV 
  2020     5    16     1    37   50.0000000     GPS         TIME OF FIRST OBS   
  2020     5    16     3     9   18.0000000     GPS         TIME OF LAST OBS    
     0                                                      RCV CLOCK OFFS APPL 
    18                                                      LEAP SECONDS        
     9                                                      # OF SATELLITES     
   G01  2579  2578  2579  2579                              PRN / # OF OBS      
   G04  5460  5460  5460  5460                              PRN / # OF OBS      
   G08  5489  5489  5489  5489                              PRN / # OF OBS      
   G09  5354  5334  5346  5346                              PRN / # OF OBS      
   G11  5489  5484  5463  5463                              PRN / # OF OBS      
   G16  5489  5489  5489  5489                              PRN / # OF OBS      
   G26  4686  4643  4639  4639                              PRN / # OF OBS      
   G27  5489  5489  5489  5489                              PRN / # OF OBS      
   G31  1905  1899  1860  1860                              PRN / # OF OBS      
CARRIER PHASE MEASUREMENTS: PHASE SHIFTS REMOVED            COMMENT             
                                                            END OF HEADER       
 20  5 16  1 37 50.0000000  0  5G08G11G16G27G31                      0.000069931
  20760548.39116    -34468.40216    -10186.55559  20760547.42659
  23531537.25015    -60215.52715    -16241.52057  23531533.68857
  21479486.89116      5381.73016      2628.69957  21479482.81357
  20116674.21917     -6436.20717     -3287.48459  20116672.66059
  23464472.32015     21310.98815                
 20  5 16  1 37 51.0000000  0  5G08G11G16G27G31                      0.000069357
  20760070.625 6    -36978.340 6    -12142.35549  20760069.91449
  23530713.672 6    -64542.938 6    -19613.49646  23530709.96946
  21479546.313 6      5693.648 6      2871.75047  21479542.29347
  20116600.758 7     -6821.855 7     -3587.99649  20116599.41849
  23464756.484 5     22803.709 5       963.66857  23464756.11757
 20  5 16  1 37 52.0000000  0  5G08G11G16G27G31                      0.000068781
  20759592.859 6    -39490.453 6    -14099.84849  20759591.79749
  23529889.656 5    -68872.984 5    -22987.54346  23529886.07446
  21479605.445 6      6002.934 6      3112.75847  21479600.97747
  20116527.047 7     -7209.609 7     -3890.14149  20116525.71149
  23465039.602 5     24293.988 5      2124.89547  23465039.71147
 20  5 16  1 37 53.0000000  0  5G08G11G16G27G31                      0.000068203
  20759113.781 6    -42004.816 6    -16059.09049  20759113.29349
  23529065.297 5    -73205.754 5    -26363.71947  23529061.79347
  21479663.906 6      6309.434 6      3351.58247  21479659.82047
  20116452.547 7     -7599.574 7     -4194.00449  20116451.29349
  23465323.141 5     25781.715 5      3284.14847  23465322.73847
 20  5 16  1 37 54.0000000  0  5G08G11G16G27G31                      0.000067625
  20758635.422 6    -44521.258 6    -18019.94949  20758634.27349
  23528240.328 6    -77541.070 6    -29741.89847  23528236.43047
  21479721.570 6      6613.438 6      3588.46547  21479717.27047
  20116378.102 7     -7991.539 7     -4499.43049  20116376.48849
  23465605.156 5     27267.090 5      4441.58647  23465605.25047
 20  5 16  1 37 55.0000000  0  5G08G11G16G27G31                      0.000067043
  20758156.219 6    -47039.719 6    -19982.38349  20758155.50049
  23527415.125 6    -81878.887 6    -33122.03147  23527411.01647
  21479779.070 6      6914.930 6      3823.39147  21479774.51647
  20116303.055 7     -8385.465 7     -4806.38349  20116301.60549
  23465887.641 5     28750.211 5      5597.27347  23465887.62147
 20  5 16  1 37 56.0000000  0  5G08G11G16G27G31                      0.000066462
  20757676.289 6    -49559.945 6    -21946.19949  20757675.87949
  23526589.633 6    -86218.918 6    -36503.85947  23526585.25847
  21479835.680 6      7214.180 6      4056.57447  21479831.72747
  20116227.867 6     -8781.078 6     -5114.66449  20116226.54749
  23466169.617 5     30231.285 5      6751.35547  23466169.80547
 20  5 16  1 37 57.0000000  0  5G08G11G16G27G31                      0.000065878
  20757196.406 6    -52081.688 6    -23911.18849  20757195.64849
  23525763.031 6    -90560.969 6    -39887.27746  23525759.03946
  21479892.328 6      7511.430 6      4288.21547  21479888.44947
  20116152.430 6     -9178.164 6     -5424.07449  20116150.72749
  23466451.188 5     31710.500 5      7904.00047  23466451.49647
 20  5 16  1 37 58.0000000  0  5G08G11G16G27G31                      0.000065294
  20756715.828 6    -54604.938 6    -25877.35249  20756715.26649
  23524936.492 6    -94904.961 6    -43272.20746  23524932.41046
  21479948.484 6      7806.723 6      4518.32047  21479944.55947
  20116076.703 6     -9576.660 6     -5734.59049  20116074.73449
  23466732.602 5     33188.008 5      9055.31347  23466732.20747
 20  5 16  1 37 59.0000000  0  5G08G11G16G27G31                      0.000064707
  20756235.367 6    -57129.727 6    -27844.72349  20756235.47749
  23524109.555 6    -99250.977 6    -46658.71547  23524105.60547
  21480003.930 6      8099.965 6      4746.82047  21480000.31647
  20116000.555 6     -9976.656 6     -6046.28149  20115999.12549
  23467013.391 5     34663.707 5     10205.21147  23467013.01247
 20  5 16  1 38  0.0000000  0  5G08G11G16G27G31                      0.000064119
  20755754.805 6    -59655.727 6    -29813.04349  20755754.63749
  23523281.867 6   -103598.653 6    -50046.51847  23523278.19947
  21480059.414 6      8391.547 6      4974.02047  21480055.68447
  20115924.250 6    -10377.801 6     -6358.85549  20115922.70749
  23467293.938 5     36137.902 5     11353.92247  23467293.90647
 20  5 16  1 38  1.0000000  0  5G08G11G16G27G31                      0.000063532
  20755273.773 6    -62183.027 6    -31782.36749  20755273.71549
  23522454.258 6   -107948.129 6    -53435.72747  23522450.98847
  21480115.250 6      8681.316 6      5199.81347  21480111.18447
  20115847.367 6    -10780.188 6     -6672.40249  20115846.13349
  23467574.180 5     37610.492 5     12501.38747  23467573.90247
 20  5 16  1 38  2.0000000  0  5G08G11G16G27G31                      0.000062943
  20754793.195 6    -64711.410 6    -33752.53149  20754792.37949
  23521626.031 5   -112299.172 5    -56826.14846  23521622.59446
  21480169.680 6      8969.547 6      5424.40247  21480165.80947
  20115770.969 6    -11183.590 6     -6986.74649  20115769.27049
  23467853.711 5     39081.789 5     13647.85547  23467853.76647
 20  5 16  1 38  3.0000000  0  5G08G11G16G27G31                      0.000062351
  20754311.719 6    -67240.969 6    -35723.61349  20754311.27749
  23520797.766 5   -116651.855 5    -60217.83646  23520794.65646
  21480224.281 6      9256.117 6      5647.69547  21480220.40647
  20115693.664 7    -11588.098 7     -7301.94549  20115692.14849
  23468133.852 5     40551.605 5     14793.16447  23468133.60247
 20  5 16  1 38  4.0000000  0  5G08G11G16G27G31                      0.000061762
  20753830.008 6    -69771.395 6    -37695.38349  20753829.40649
  23519969.406 5   -121005.871 5    -63610.56346  23519965.75046
  21480278.117 6      9541.277 6      5869.89847  21480274.51647
  20115616.773 7    -11993.445 7     -7617.80149  20115615.58249
  23468413.438 5     42020.246 5     15937.54347  23468412.97747
 20  5 16  1 38  5.0000000  0  5G08G11G16G27G31                      0.000061169
  20753348.039 6    -72302.492 6    -39667.66449  20753347.75049
  23519140.820 5   -125361.082 5    -67004.24246  23519137.05946
  21480331.828 6      9825.340 6      6091.24647  21480328.46947
  20115539.453 7    -12399.414 7     -7934.14149  20115537.87549
  23468691.930 5     43487.945 5     17081.20747  23468692.19547
 20  5 16  1 38  6.0000000  0  5G08G11G16G27G31                      0.000060575
  20752866.492 6    -74834.254 6    -41640.46149  20752866.07449
  23518311.227 5   -129717.434 5    -70398.79346  23518307.77346
  21480386.664 6     10108.238 6      6311.69547  21480382.28147
  20115462.102 7    -12805.980 7     -8250.94949  20115460.25849
  23468972.000 5     44954.684 5     18224.11347  23468971.16047
 20  5 16  1 38  7.0000000  0  5G08G11G16G27G31                      0.000059982
  20752384.672 6    -77366.813 6    -43613.88349  20752384.13349
  23517482.555 5   -134075.125 5    -73794.39546  23517479.45346
  21480439.820 6     10389.836 6      6531.11747  21480435.89147
  20115384.727 7    -13213.301 7     -8568.34049  20115382.91849
  23469250.484 5     46420.305 5     19366.15247  23469250.34847
 20  5 16  1 38  8.0000000  0  5G08G11G16G27G31                      0.000059387
  20751902.719 6    -79899.871 6    -45587.69949  20751902.26649
  23516652.828 5   -138433.590 5    -77190.60246  23516649.44546
  21480492.953 6     10670.512 6      6749.82847  21480489.49647
  20115306.914 7    -13620.996 7     -8886.02049  20115305.41849
  23469528.211 5     47885.266 5     20507.70347  23469528.94947
 20  5 16  1 38  9.0000000  0  5G08G11G16G27G31                      0.000058792
  20751420.484 6    -82433.344 6    -47561.82849  20751420.12949
  23515822.906 5   -142793.086 5    -80587.62946  23515820.11346
  21480546.906 6     10950.223 6      6967.76647  21480542.55147
  20115229.266 7    -14029.137 7     -9204.04749  20115227.80949
  23469808.000 5     49349.469 5     21648.62947  23469807.36747
 20  5 16  1 38 10.0000000  0  5G08G11G16G27G31                      0.000058197
  20750938.344 6    -84967.281 6    -49536.32849  20750937.70349
  23514993.938 6   -147153.467 6    -83985.35247  23514990.09447
  21480600.258 6     11229.012 6      7185.00447  21480595.71147
  20115151.539 7    -14437.613 7     -9522.34849  20115149.78549
  23470086.977 5     50812.926 5     22788.97747  23470085.84047
 20  5 16  1 38 11.0000000  0  5G08G11G16G27G31                      0.000057600
  20750456.477 6    -87501.738 6    -51511.23449  20750455.55549
  23514164.086 5   -151514.859 5    -87383.83246  23514160.05946
  21480652.617 6     11506.816 6      7401.48047  21480648.45347
  20115073.914 7    -14846.586 7     -9841.03149  20115072.35949
  23470365.148 5     52275.609 5     23928.72347  23470364.48847
 20  5 16  1 38 12.0000000  0  5G08G11G16G27G31                      0.000057003
  20749974.094 6    -90036.578 6    -53486.43049  20749973.27049
  23513333.453 5   -155877.086 5    -90782.95346  23513330.17646
  21480705.688 6     11783.773 6      7617.30147  21480701.48847
  20114996.258 7    -15255.828 7    -10159.92649  20114994.39549
  23470643.781 5     53737.645 5     25067.97347  23470642.65247
 20  5 16  1 38 13.0000000  0  5G08G11G16G27G31                      0.000056404
  20749491.125 6    -92571.789 6    -55461.92249  20749490.69149
  23512503.664 6   -160240.145 6    -94182.73846  23512500.02046
  21480758.102 6     12059.848 6      7832.42247  21480753.67647
  20114917.906 7    -15665.422 7    -10479.08249  20114916.36349
  23470921.555 5     55199.047 5     26206.72747  23470920.63347
 20  5 16  1 38 14.0000000  0  6G08G11G16G26G27G31                   0.000055803
  20749009.148 6    -95107.191 6    -57437.56649  20749008.63749
  23511673.758 4   -164603.920 4    -97583.08446  23511669.14146
  21480810.563 6     12335.188 6      8046.96547  21480806.20347
  22877605.90616     28063.57016     14856.99257  22877606.96957
  20114839.984 6    -16075.219 6    -10798.40649  20114838.46149
  23471199.414 4     56659.852 4     27345.03147  23471198.93447
 20  5 16  1 38 15.0000000  0  6G08G11G16G26G27G31                   0.000055204
  20748526.719 6    -97643.000 6    -59413.51249  20748526.12549
  23510843.93811                   -100983.97356  23510838.91856
  21480862.414 6     12609.695 6      8260.86347  21480858.82447
  22877754.539 6     28842.496 6     15463.91047  22877755.93847
  20114761.820 6    -16485.254 6    -11117.90649  20114760.07849
  23471477.22711                     28482.96956  23471476.42256
 20  5 16  1 38 16.0000000  0  6G08G11G16G26G27G31                   0.000054594
  20748044.102 6   -100178.941 6    -61389.57849  20748043.21149
  23510011.703 5                                
  21480914.305 6     12883.699 6      8474.36747  21480910.96947
  22877903.242 6     29620.914 6     16070.44947  22877903.51247
  20114683.578 6    -16895.328 6    -11437.44949  20114682.16449
  23471757.969 1                     29620.49246  23471754.46146
 20  5 16  1 38 17.0000000  0  6G08G11G16G26G27G31                   0.000053995
  20747561.453 6   -102715.180 6    -63365.87149  20747560.64549
  23509180.477 5                                
  21480966.445 6     13156.887 6      8687.23447  21480962.87147
  22878051.109 6     30398.367 6     16676.24647  22878051.26647
  20114605.313 6    -17305.656 6    -11757.19149  20114604.53549
  23472037.51611                     30757.70756  23472032.00856
 20  5 16  1 38 18.0000000  0  5G08G11G16G26G27                      0.000053394
  20747078.766 6   -105251.410 6    -65342.15249  20747078.35949
  23508349.984 5                                
  21481018.445 6     13429.539 6      8899.69547  21481014.91047
  22878198.633 6     31175.262 6     17281.62147  22878198.99247
  20114527.711 6    -17715.969 6    -12076.91849  20114526.68449
 20  5 16  1 38 19.0000000  0  6G04G08G11G16G26G27                   0.000052794
  21428240.18815    -17245.39115     -8636.72356  21428238.42656
  20746596.125 6   -107787.613 6    -67318.40649  20746595.23449
  23507519.180 5                                
  21481070.148 6     13701.793 6      9111.84447  21481066.56347
  22878346.328 6     31951.676 6     17886.62947  22878346.64847
  20114449.555 6    -18126.164 6    -12396.55149  20114448.20749
 20  5 16  1 38 20.0000000  0  7G04G08G09G11G16G26G27                0.000052193
  21428145.797 5    -17738.621 5     -9021.05546  21428144.64546
  20746113.477 6   -110323.910 6    -69294.74249  20746112.86749
  23066068.75813    -79162.38713    -43219.93856  23066067.77356
  23506687.633 5   -190800.695 5                
  21481121.555 6     13973.410 6      9323.50847  21481118.05147
  22878493.938 6     32727.430 6     18491.12147  22878494.12147
  20114371.289 6    -18536.410 6    -12716.22749  20114369.96949
 20  5 16  1 38 21.0000000  0  7G04G08G09G11G16G26G27                0.000051603
  21428052.195 5    -18232.031 5     -9405.52746  21428050.24646
  20745630.773 6   -112860.469 6    -71271.27749  20745629.91849
  23065616.766 3    -81534.883 3    -45068.65246  23065616.23846
  23505856.555 4   -195168.879 4                
  21481172.867 6     14244.309 6      9534.60547  21481169.73047
  22878641.078 6     33502.344 6     19094.94147  22878641.80147
  20114292.961 6    -18946.895 6    -13036.08249  20114291.98049
 20  5 16  1 38 22.0000000  0  7G04G08G09G11G16G26G27                0.000051003
  21427958.211 5    -18725.449 5     -9790.01246  21427956.37946
  20745147.914 6   -115397.082 6    -73247.86349  20745147.23849
  23065165.875 3    -83907.445 3    -46917.40246  23065164.95746
  23505025.008 5   -199537.660 5                
  21481223.859 6     14514.664 6      9745.27347  21481221.25847
  22878789.148 6     34276.625 6     19698.26247  22878789.09447
  20114215.250 6    -19357.340 6    -13355.91449  20114214.10549
 20  5 16  1 38 23.0000000  0  7G04G08G09G11G16G26G27                0.000050400
  21427864.406 5    -19218.664 5    -10174.33646  21427862.85946
  20744665.359 6   -117933.539 6    -75224.32849  20744664.71949
  23064715.023 3    -86279.836 3    -48766.02046  23064713.42246
  23504194.109 5   -203906.695 5                
  21481275.680 6     14784.695 6      9955.68047  21481272.59847
  22878935.922 6     35050.508 6     20301.29347  22878936.04747
  20114136.953 6    -19767.570 6    -13675.57449  20114135.82849
 20  5 16  1 38 24.0000000  0  7G04G08G09G11G16G26G27                0.000049799
  21427771.094 5    -19711.809 5    -10558.61346  21427769.12546
  20744182.586 6   -120469.984 6    -77200.78949  20744182.07449
  23064263.031 3    -88652.156 3    -50614.57446  23064261.70746
  23503362.461 5   -208276.211 5                
  21481327.344 6     15054.250 6     10165.72747  21481324.02047
  22879082.391 5     35823.902 5     20903.95746  22879082.96946
  20114058.984 6    -20177.719 6    -13995.16849  20114057.89149
 20  5 16  1 38 25.0000000  0  7G04G08G09G11G16G26G27                0.000049196
  21427676.656 5    -20204.723 5    -10942.69546  21427674.83246
  20743700.156 6   -123006.297 6    -79177.13749  20743699.21549
  23063812.164 3    -91024.363 3    -52463.07046  23063810.26246
  23502530.188 5   -212646.078 5                
  21481378.234 6     15323.492 6     10375.52047  21481375.44947
  22879230.008 5     36596.871 5     21506.27046  22879230.33246
  20113981.094 6    -20587.711 6    -14314.64549  20113979.81649
 20  5 16  1 38 26.0000000  0  7G04G08G09G11G16G26G27                0.000048594
  21427583.063 5    -20697.570 5    -11326.74246  21427581.37546
  20743217.688 6   -125542.523 6    -81153.41449  20743217.09849
  23063359.391 2    -93396.566 2    -54311.52046  23063358.75846
  23501698.523 4   -217016.320 4                
  21481429.023 6     15592.301 6     10584.97747  21481426.63747
  22879377.172 6     37369.375 6     22108.20347  22879376.91847
  20113903.359 6    -20997.563 6    -14634.01649  20113902.10249
 20  5 16  1 38 27.0000000  0  7G04G08G09G11G16G26G27                0.000047989
  21427489.516 5    -21190.324 5    -11710.70346  21427487.63346
  20742734.711 6   -128078.777 6    -83129.71149  20742733.98849
  23062908.461 3    -95768.664 3    -56159.89546  23062907.26246
  23500866.672 4   -221387.086 4                
  21481479.992 6     15860.613 6     10794.06647  21481477.37147
  22879524.484 6     38141.277 6     22709.66847  22879523.98447
  20113824.930 6    -21407.348 6    -14953.32449  20113823.79349
 20  5 16  1 38 28.0000000  0  7G04G08G09G11G16G26G27                0.000047386
  21427395.148 5    -21682.996 5    -12094.60246  21427393.80546
  20742252.133 6   -130614.992 6    -85105.98849  20742251.62549
  23062457.047 3    -98140.785 3    -58008.30146  23062455.62146
  23500035.391 5   -225758.254 5                
  21481531.094 6     16128.500 6     11002.80947  21481528.25047
  22879670.492 6     38912.684 6     23310.74647  22879670.76247
  20113747.273 6    -21817.047 6    -15272.57449  20113746.06349
 20  5 16  1 38 29.0000000  0  7G04G08G09G11G16G26G27                0.000046782
  21427302.063 5    -22175.320 5    -12478.23446  21427299.94146
  20741769.578 6   -133150.926 6    -87082.03949  20741768.79349
  23062005.914 3   -100512.625 3    -59856.49646  23062004.32846
  23499203.758 5   -230129.602 5                
  21481582.227 6     16396.176 6     11211.38747  21481579.39847
  22879817.203 6     39683.805 6     23911.62547  22879817.70747
  20113669.742 6    -22226.398 6    -15591.55149  20113667.93449
 20  5 16  1 38 30.0000000  0  7G04G08G09G11G16G26G27                0.000046179
  21427208.297 5    -22667.371 5    -12861.64546  21427206.52746
  20741287.406 6   -135686.629 6    -89057.91049  20741286.55549
  23061554.352 3   -102884.191 3    -61704.46546  23061552.86746
  23498371.625 5   -234501.258 5                
  21481633.477 6     16663.586 6     11419.75847  21481630.18847
  22879963.969 6     40454.590 6     24512.23047  22879964.13747
  20113591.883 6    -22635.465 6    -15910.30549  20113590.09849
 20  5 16  1 38 31.0000000  0  7G04G08G09G11G16G26G27                0.000045574
  21427115.070 5    -23159.113 5    -13244.81647  21427112.89847
  20740804.742 6   -138222.102 6    -91033.60549  20740804.07849
  23061102.828 3   -105255.480 3    -63552.23446  23061101.84446
  23497540.359 4   -238873.103 4                
  21481684.172 6     16930.793 6     11627.96547  21481681.30947
  22880110.391 6     41225.098 6     25112.62947  22880110.59447
  20113513.789 6    -23044.250 6    -16228.84049  20113512.12149
 20  5 16  1 38 32.0000000  0  7G04G08G09G11G16G26G27                0.000044970
  21427020.766 5    -23650.715 5    -13627.87946  21427019.13746
  20740322.453 6   -140757.477 6    -93009.21949  20740321.35249
  23060651.773 3   -107626.707 3    -65399.96146  23060650.43846
  23496708.023 4   -243245.273 4                
  21481734.641 6     17197.582 6     11835.84847  21481731.55547
  22880257.055 6     41995.098 6     25712.63347  22880257.03147
  20113435.945 6    -23452.863 6    -16547.24249  20113434.41049
 20  5 16  1 38 33.0000000  0  7G04G08G09G11G16G26G27                0.000044365
  21426927.078 5    -24142.207 5    -14010.85946  21426926.11746
  20739840.023 6   -143292.797 6    -94984.79349  20739839.22749
  23060200.258 3   -109997.848 3    -67247.60946  23060199.32846
  23495875.320 4   -247617.879 4                
  21481785.039 6     17463.961 6     12043.42247  21481782.40247
  22880403.563 6     42764.598 6     26312.24247  22880403.28547
  20113358.141 6    -23861.359 6    -16865.54749  20113356.98849
 20  5 16  1 38 34.0000000  0  7G04G08G09G11G16G26G27                0.000043760
  21426833.813 5    -24633.195 5    -14393.44146  21426832.53546
  20739357.352 6   -145827.695 6    -96960.04349  20739356.48449
  23059749.195 3   -112368.613 3    -69094.96546  23059747.78146
  23495044.000 5   -251990.598 5                
  21481836.008 6     17730.242 6     12250.91047  21481833.07047
  22880549.859 6     43533.984 6     26911.76647  22880550.26247
  20113280.586 6    -24269.422 6    -17183.51649  20113279.38349
 20  5 16  1 38 35.0000000  0  7G04G08G09G11G16G26G27                0.000043156
  21426740.828 5    -25124.086 5    -14775.95346  21426738.96546
  20738874.758 6   -148362.520 6    -98935.23049  20738874.19949
  23059297.938 3   -114739.246 3    -70942.20346  23059296.50846
  23494211.305 5   -256363.684 5                
  21481886.820 6     17996.117 6     12458.09047  21481883.64847
  22880696.813 6     44302.879 6     27510.91447  22880696.30147
  20113202.703 6    -24677.320 6    -17501.36749  20113201.72749
 20  5 16  1 38 36.0000000  0  7G04G08G09G11G16G26G27                0.000042549
  21426647.281 5    -25614.652 5    -15158.22346  21426645.55546
  20738392.773 6   -150897.090 6   -100910.22349  20738392.09049
  23058847.391 3   -117109.652 3    -72789.27046  23058845.61346
  23493379.477 5   -260736.965 5                
  21481937.367 6     18261.793 6     12665.11747  21481934.45747
  22880842.586 6     45071.500 6     28109.84446  22880842.60946
  20113125.102 6    -25084.898 6    -17818.95749  20113123.85249
 20  5 16  1 38 37.0000000  0  7G04G08G09G11G16G26G27                0.000041945
  21426553.508 6    -26104.887 6    -15540.22346  21426552.10246
  20737910.023 6   -153431.363 6   -102884.98449  20737909.79749
  23058396.023 3   -119479.730 3    -74636.08246  23058394.53546
  23492547.164 5   -265110.480 5                
  21481987.398 6     18527.281 6     12871.98847  21481985.02347
  22880989.141 6     45839.852 6     28708.55546  22880988.86346
  20113047.398 6    -25492.148 6    -18136.29349  20113046.75049
 20  5 16  1 38 38.0000000  0  7G04G08G09G11G16G26G27                0.000041338
  21426460.766 5    -26594.898 5    -15922.05146  21426458.91446
  20737427.930 6   -155965.539 6   -104859.66049  20737427.59849
  23057945.398 3   -121849.730 3    -76482.83246  23057944.00846
  23491715.750 5   -269484.234 5                
  21482038.242 6     18792.465 6     13078.62547  21482035.14147
  22881135.484 6     46607.879 6     29307.02047  22881135.01647
  20112970.063 7    -25899.234 7    -18453.50049  20112968.84849
 20  5 16  1 38 39.0000000  0  7G04G08G09G11G16G26G27                0.000040733
  21426367.383 5    -27084.598 5    -16303.62946  21426365.78546
  20736945.914 6   -158499.398 6   -106834.08649  20736945.41849
  23057493.719 3   -124219.398 3    -78329.36346  23057492.97346
  23490883.570 6   -273858.266 6                
  21482088.609 6     19057.387 6     13285.06347  21482085.47347
  22881281.039 5     47375.461 5     29905.16847  22881281.40247
  20112892.930 7    -26305.961 7    -18770.41849  20112891.64549
 20  5 16  1 38 40.0000000  0  8G04G08G09G11G16G26G27G31             0.000040127
  21426274.180 5    -27573.941 5    -16684.93846  21426272.62946
  20736463.945 6   -161033.000 6   -108808.32049  20736463.30549
  23057043.227 3   -126588.813 3    -80175.69546  23057041.57446
  23490051.031 6   -278232.430 6                
  21482138.719 6     19322.121 6     13491.34847  21482135.95347
  22881427.109 5     48142.887 5     30503.19947  22881427.53147
  20112815.602 7    -26712.348 7    -19087.08649  20112814.75049
  23478408.00016                                
 20  5 16  1 38 41.0000000  0  8G04G08G09G11G16G26G27G31             0.000039520
  21426181.289 5    -28062.918 5    -17065.96946  21426179.91846
  20735981.430 7   -163566.270 7   -110782.30149  20735981.45349
  23056593.117 3   -128957.840 3    -82021.69146  23056590.95746
  23489218.164 6   -282606.773 6                
  21482189.266 6     19586.703 6     13697.51247  21482186.35247
  22881573.273 5     48910.000 5     31100.95347  22881574.22747
  20112738.023 7    -27118.324 7    -19403.43049  20112737.32449
  23478684.742 6                     33255.16658  23478682.79358
 20  5 16  1 38 42.0000000  0  8G04G08G09G11G16G26G27G31             0.000038914
  21426088.023 5    -28551.590 5    -17446.75446  21426086.75046
  20735499.438 7   -166099.289 7   -112756.09049  20735498.99249
  23056142.086 3   -131326.594 3    -83867.46946  23056140.19946
  23488385.563 6   -286981.355 6   -122104.13357  23488381.73857
  21482240.031 6     19851.027 6     13903.48047  21482236.82447
  22881718.938 5     49676.848 5     31698.48847  22881720.00047
  20112661.320 7    -27524.031 7    -19719.57449  20112659.75449
  23478962.156 6                     34389.35447  23478960.24647
 20  5 16  1 38 43.0000000  0  8G04G08G09G11G16G26G27G31             0.000038307
  21425995.484 5    -29040.035 5    -17827.37146  21425993.62546
  20735018.039 7   -168632.145 7   -114729.75049  20735017.25849
  23055691.148 3   -133695.199 3    -85713.12946  23055689.53946
  23487552.969 6   -291356.238 6   -125513.14547  23487549.76647
  21482290.023 6     20115.066 6     14109.21947  21482287.03147
  22881865.086 5     50443.324 5     32295.73847  22881866.41847
  20112584.203 7    -27929.484 7    -20035.51249  20112582.39549
  23479239.211 6      7880.805 6     35523.48247  23479237.61347
 20  5 16  1 38 44.0000000  0  8G04G08G09G11G16G26G27G31             0.000037701
  21425902.336 5    -29528.039 5    -18207.62946  21425900.70346
  20734536.023 7   -171164.590 7   -116703.08249  20734535.27349
  23055240.523 2   -136063.441 2    -87558.50446  23055239.60246
  23486720.578 6   -295731.184 6   -128922.20347  23486716.87147
  21482339.883 6     20379.008 6     14314.89147  21482337.22347
  22882009.844 5     51209.629 5     32892.85547  22882011.80147
  20112507.023 7    -28334.492 7    -20351.10249  20112505.65249
  23479515.617 6      9336.379 6     36657.64847  23479514.72747
 20  5 16  1 38 45.0000000  0  8G04G08G09G11G16G26G27G31             0.000037092
  21425810.008 5    -30015.660 5    -18587.59846  21425807.73446
  20734053.883 6   -173696.816 6   -118676.24249  20734053.40649
  23054789.914 2   -138431.379 2    -89403.64846  23054788.80146
  23485887.875 6   -300106.320 6   -132331.39547  23485884.48047
  21482390.172 6     20642.750 6     14520.40647  21482387.32847
  22882156.055 4     51975.652 4     33489.74647  22882157.89847
  20112429.805 7    -28739.172 7    -20666.44149  20112428.28949
  23479793.195 6     10791.930 6     37791.86747  23479791.69947
 20  5 16  1 38 46.0000000  0  8G04G08G09G11G16G26G27G31             0.000036486
  21425717.453 5    -30502.863 5    -18967.23446  21425715.10946
  20733572.156 7   -176228.582 7   -120649.04749  20733571.54349
  23054338.977 2   -140798.891 2    -91248.45746  23054338.74246
  23485055.445 5   -304481.496 5   -135740.61347  23485052.02747
  21482441.188 6     20906.410 6     14725.85247  21482437.32447
  22882302.477 4     52741.512 4     34086.51247  22882303.75047
  20112353.063 7    -29143.371 7    -20981.40249  20112351.44149
  23480069.930 6     12247.648 6     38926.21147  23480068.65647
 20  5 16  1 38 47.0000000  0  8G04G08G09G11G16G26G27G31             0.000035879
  21425624.969 4    -30989.738 4    -19346.62146  21425622.62146
  20733090.664 6   -178760.113 6   -122621.66449  20733090.05149
  23053889.188 3   -143166.121 3    -93093.05146  23053888.07846
  23484223.109 6   -308856.918 6   -139150.02747  23484219.21547
  21482491.313 6     21169.840 6     14931.11747  21482487.86347
  22882448.469 5     53507.113 5     34683.07047  22882449.43047
  20112276.219 7    -29547.254 7    -21296.11349  20112274.82049
  23480347.500 6     13703.328 6     40060.51247  23480345.37147
 20  5 16  1 38 48.0000000  0  8G04G08G09G11G16G26G27G31             0.000035271
  21425531.883 5    -31476.195 5    -19725.68046  21425530.07446
  20732608.680 6   -181291.301 6   -124594.02049  20732608.12149
  23053438.367 3   -145533.020 3    -94937.38746  23053437.08246
  23483389.648 6   -313232.457 6   -142559.53947  23483386.46547
  21482541.234 6     21433.137 6     15136.28547  21482537.58647
  22882593.359 5     54272.484 5     35279.46947  22882595.00047
  20112199.484 7    -29950.734 7    -21610.51649  20112197.90649
  23480624.117 6     15159.074 6     41194.85947  23480622.48847
 20  5 16  1 38 49.0000000  0  8G04G08G09G11G16G26G27G31             0.000034664
  21425439.664 5    -31962.414 5    -20104.54346  21425437.74646
  20732127.141 6   -183822.281 6   -126566.21149  20732126.62549
  23052988.055 3   -147899.699 3    -96781.55546  23052986.66446
  23482557.039 6   -317608.266 6   -145969.24247  23482554.27047
  21482591.891 6     21696.176 6     15341.26247  21482587.71147
  22882738.836 5     55037.539 5     35875.61347  22882740.77047
  20112122.836 7    -30353.957 7    -21924.71549  20112120.95349
  23480900.672 5     16614.734 5     42329.14147  23480899.89847
 20  5 16  1 38 50.0000000  0  8G04G08G09G11G16G26G27G31             0.000034056
  21425347.672 5    -32448.203 5    -20483.08646  21425344.84846
  20731645.492 6   -186352.863 6   -128538.10249  20731644.91049
  23052538.078 3   -150265.945 3    -98625.38746  23052536.70346
  23481724.516 6   -321984.180 6   -149379.05147  23481721.49247
  21482641.313 6     21959.078 6     15546.12947  21482637.44547
  22882884.617 5     55802.363 5     36471.57047  22882886.14847
  20112045.852 7    -30756.734 7    -22238.57049  20112044.57049
  23481178.266 5     18070.520 5     43463.51247  23481176.84847
 20  5 16  1 38 51.0000000  0  8G04G08G09G11G16G26G27G31             0.000033449
  21425255.422 5    -32933.500 5    -20861.24246  21425252.78946
  20731164.109 6   -188883.082 6   -130509.70349  20731163.50049
  23052086.992 3   -152631.859 3   -100468.95746  23052086.30946
  23480892.109 6   -326360.145 6   -152788.89846  23480888.53946
  21482691.539 6     22221.902 6     15750.92247  21482687.77747
  22883030.227 5     56567.086 5     37067.46547  22883031.63347
  20111969.688 7    -31159.090 7    -22552.10249  20111967.89149
  23481455.164 5     19526.387 5     44597.94947  23481454.13747
 20  5 16  1 38 52.0000000  0  8G04G08G09G11G16G26G27G31             0.000032841
  21425162.328 5    -33418.691 5    -21239.32446  21425160.45346
  20730682.156 6   -191413.191 6   -132481.21949  20730681.85949
  23051637.914 3   -154997.637 3   -102312.42646  23051636.07446
  23480059.297 6   -330736.492 6   -156199.04746  23480055.74646
  21482741.711 6     22484.332 6     15955.41847  21482737.56347
  22883175.961 5     57331.273 5     37662.94147  22883177.45747
  20111893.258 7    -31561.293 7    -22865.50449  20111891.46149
  23481732.336 5     20982.090 5     45732.25847  23481730.94147
 20  5 16  1 38 53.0000000  0  8G04G08G09G11G16G26G27G31             0.000032232
  21425070.398 5    -33903.492 5    -21617.08646  21425068.10946
  20730201.375 7   -193942.984 7   -134452.48849  20730200.47349
  23051187.648 3   -157363.102 3   -104155.64546  23051186.59846
  23479226.188 6   -335113.004 6   -159609.32047  23479222.73047
  21482790.930 6     22746.629 6     16159.80947  21482787.44547
  22883321.484 5     58095.270 5     38258.26247  22883322.73047
  20111816.547 7    -31963.113 7    -23178.60549  20111814.74649
  23482009.242 5     22437.809 5     46866.57847  23482008.42247
 20  5 16  1 38 54.0000000  0  8G04G08G09G11G16G26G27G31             0.000031624
  21424978.828 5    -34387.898 5    -21994.53946  21424976.16846
  20729719.758 7   -196472.430 7   -136423.47349  20729718.78549
  23050737.992 3   -159728.160 3   -105998.55546  23050736.22346
  23478393.508 6   -339489.605 6   -163019.65247  23478390.26647
  21482840.281 6     23008.738 6     16364.04347  21482837.11347
  22883466.617 5     58859.066 5     38853.43047  22883468.42247
  20111740.063 7    -32364.516 7    -23491.38349  20111738.72749
  23482285.977 5     23893.621 5     48000.98047  23482285.31647
 20  5 16  1 38 55.0000000  0  8G04G08G09G11G16G26G27G31             0.000031015
  21424885.742 5    -34871.941 5    -22371.71546  21424883.97346
  20729238.500 6   -199001.555 6   -138394.20349  20729237.77349
  23050287.445 3   -162092.977 3   -107841.27746  23050286.42246
  23477560.453 6   -343866.430 6   -166430.16847  23477557.63747
  21482890.258 6     23270.707 6     16568.17247  21482887.35547
  22883611.969 5     59622.613 5     39448.40246  22883613.55946
  20111664.070 7    -32765.602 7    -23803.92249  20111662.12549
  23482563.734 5     25349.441 5     49135.38347  23482562.34047
 20  5 16  1 38 56.0000000  0  8G04G08G09G11G16G26G27G31             0.000030407
  21424794.242 5    -35355.578 5    -22748.59046  21424791.74246
  20728756.773 6   -201530.332 6   -140364.69149  20728756.67249
  23049837.250 3   -164457.418 3   -109683.69946  23049836.65246
  23476727.570 6   -348243.348 6   -169840.74647  23476724.56347
  21482940.383 6     23532.512 6     16772.17647  21482936.98847
  22883756.898 5     60385.914 5     40043.17646  22883759.00446
  20111587.820 7    -33166.258 7    -24116.12549  20111585.68449
  23482840.797 5     26805.348 5     50269.85247  23482839.46147
 20  5 16  1 38 57.0000000  0  8G04G08G09G11G16G26G27G31             0.000029799
  21424701.977 5    -35838.809 5    -23125.13746  21424699.62146
  20728276.438 6   -204058.727 6   -142334.87149  20728275.78149
  23049387.883 3   -166821.496 3   -111525.84446  23049386.69546
  23475894.875 6   -352620.355 6   -173251.39147  23475891.47747
  21482990.148 6     23794.250 6     16976.12547  21482987.03547
  22883901.938 5     61149.074 5     40637.84446  22883903.43046
  20111511.625 7    -33566.461 7    -24427.96949  20111509.97749
  23483117.531 6     28261.352 6     51404.39547  23483115.99247
 20  5 16  1 38 58.0000000  0  8G04G08G09G11G16G26G27G31             0.000029188
  21424610.039 4    -36321.566 4    -23501.31346  21424608.07846
  20727795.258 6   -206586.793 6   -144304.80149  20727794.39849
  23048937.734 4   -169185.160 4   -113367.66046  23048937.00446
  23475062.242 6   -356997.469 6   -176662.12547  23475058.63347
  21483040.313 6     24055.867 6     17179.98847  21483036.56347
  22884047.320 5     61912.066 5     41232.37546  22884048.50846
  20111435.281 6    -33966.258 6    -24739.50049  20111433.65649
  23483394.805 6     29717.465 6     52539.03147  23483393.44947
 20  5 16  1 38 59.0000000  0  8G04G08G09G11G16G26G27G31             0.000028580
  21424518.117 5    -36803.965 5    -23877.20346  21424516.80546
  20727314.195 6   -209114.508 6   -146274.44549  20727313.48849
  23048488.305 4   -171548.457 4   -115209.19946  23048487.29346
  23474229.383 6   -361374.703 6   -180072.96546  23474225.75846
  21483089.711 6     24317.301 6     17383.70347  21483086.74247
  22884191.609 5     62674.789 5     41826.69147  22884194.03547
  20111359.258 7    -34365.672 7    -25050.73449  20111357.47749
  23483672.156 6     31173.602 6     53673.68447  23483670.03947
 20  5 16  1 39  0.0000000  0  8G04G08G09G11G16G26G27G31             0.000027971
  21424427.078 5    -37285.902 5    -24252.73846  21424424.63346
  20726833.406 6   -211641.844 6   -148243.79749  20726832.62149
  23048038.305 4   -173911.449 4   -117050.48446  23048038.02046
  23473395.117 6   -365752.059 6   -183483.88747  23473392.60547
  21483139.633 6     24578.656 6     17587.35547  21483136.36747
  22884336.055 5     63437.355 5     42420.89146  22884339.14546
  20111283.719 7    -34764.656 7    -25361.63349  20111282.00449
  23483949.117 6     32629.797 6     54808.37947  23483947.21147
 20  5 16  1 39  1.0000000  0  8G04G08G09G11G16G26G27G31             0.000027361
  21424334.797 5    -37767.449 5    -24627.97346  21424333.24246
  20726352.109 6   -214168.793 6   -150212.84849  20726351.54349
  23047589.313 4   -176273.984 4   -118891.43046  23047588.26646
  23472562.594 6   -370129.496 6   -186894.87946  23472559.33646
  21483189.516 6     24839.910 6     17790.92647  21483186.08647
  22884481.609 5     64199.711 5     43014.94946  22884484.31346
  20111207.547 7    -35163.184 7    -25672.17649  20111206.14849
  23484226.047 6     34086.164 6     55943.21147  23484224.60247
 20  5 16  1 39  2.0000000  0  8G04G08G09G11G16G26G27G31             0.000026752
  21424243.453 5    -38248.508 5    -25002.82846  21424241.66046
  20725871.469 6   -216695.340 6   -152181.58249  20725871.06649
  23047138.859 3   -178636.117 3   -120732.04346  23047138.87146
  23471729.906 6   -374506.965 6   -190305.89547  23471726.57847
  21483238.734 6     25101.082 6     17994.43847  21483235.33247
  22884627.086 5     64962.008 5     43608.96146  22884629.15246
  20111132.070 7    -35561.238 7    -25982.34449  20111130.27749
  23484503.422 6     35542.641 6     57078.12947  23484501.62947
 20  5 16  1 39  3.0000000  0  8G04G08G09G11G16G26G27G31             0.000026142
  21424151.039 4    -38729.133 4    -25377.33646  21424149.92246
  20725390.930 6   -219221.551 6   -154150.05949  20725390.47349
  23046690.156 4   -180997.922 4   -122572.41046  23046689.45346
  23470896.250 6   -378884.598 6   -193717.03146  23470893.50446
  21483288.930 6     25362.117 6     18197.85247  21483285.27047
  22884771.922 4     65724.035 4     44202.75846  22884774.03546
  20111056.258 7    -35958.914 7    -26292.22349  20111054.55549
  23484780.516 6     36999.188 6     58213.10247  23484778.74247
 20  5 16  1 39  4.0000000  0  8G04G08G09G11G16G26G27G31             0.000025532
  21424060.516 4    -39209.422 4    -25751.59046  21424058.74646
  20724910.086 7   -221747.438 7   -156118.27749  20724909.60249
  23046240.508 4   -183359.418 4   -124412.54747  23046239.57847
  23470063.758 6   -383262.344 6   -197128.25846  23470060.67246
  21483338.086 6     25623.004 6     18401.12947  21483334.78147
  22884917.422 4     66485.848 4     44796.37946  22884919.20746
  20110980.531 7    -36356.203 7    -26601.80149  20110979.06649
  23485057.711 6     38455.773 6     59348.10547  23485055.92247
 20  5 16  1 39  5.0000000  0  8G04G08G09G11G16G26G27G31             0.000024923
  21423969.039 4    -39689.309 4    -26125.54346  21423967.29746
  20724429.820 6   -224272.973 6   -158086.22349  20724428.82049
  23045791.055 4   -185720.512 4   -126252.35547  23045790.82447
  23469230.672 6   -387640.258 6   -200539.60946  23469227.59446
  21483388.195 6     25883.727 6     18604.28947  21483384.65647
  22885062.156 4     67247.434 4     45389.81646  22885064.00446
  20110904.820 7    -36753.117 7    -26911.08249  20110903.19149
  23485334.914 6     39912.402 6     60483.13747  23485333.46947
 20  5 16  1 39  6.0000000  0  8G04G08G09G11G16G26G27G31             0.000024313
  21423878.172 5    -40168.750 5    -26499.13346  21423876.23446
  20723949.328 6   -226798.074 6   -160053.83649  20723948.16449
  23045341.891 4   -188081.176 4   -128091.83646  23045341.86346
  23468396.859 6   -392018.207 6   -203950.99246  23468394.29346
  21483437.758 6     26144.398 6     18807.40647  21483434.30147
  22885207.031 4     68008.879 4     45983.15247  22885208.68447
  20110829.844 7    -37149.535 7    -27219.97749  20110828.07449
  23485612.445 5     41369.211 5     61618.31347  23485610.50047
 20  5 16  1 39  7.0000000  0  8G04G08G09G11G16G26G27G31             0.000023703
  21423786.547 5    -40647.699 5    -26872.33246  21423784.86746
  20723468.734 6   -229322.801 6   -162021.16049  20723467.73849
  23044892.891 3   -190441.508 3   -129931.05146  23044892.94146
  23467564.055 6   -396396.250 6   -207362.46146  23467561.28546
  21483487.781 6     26404.969 6     19010.44947  21483484.07047
  22885351.359 4     68770.176 4     46576.37146  22885353.46146
  20110754.273 7    -37545.512 7    -27528.53549  20110752.56649
  23485889.484 5     42826.113 5     62753.56347  23485887.86747
 20  5 16  1 39  8.0000000  0  8G04G08G09G11G16G26G27G31             0.000023092
  21423695.422 4    -41126.281 4    -27245.24246  21423693.62946
  20722988.023 6   -231847.199 6   -163988.22349  20722987.62549
  23044442.922 4   -192801.453 4   -131769.96946  23044443.52046
  23466731.094 6   -400774.410 6   -210774.02046  23466728.24246
  21483536.906 6     26665.395 6     19213.37147  21483533.58247
  22885496.281 4     69531.250 4     47169.41446  22885498.17246
  20110679.016 7    -37941.117 7    -27836.79749  20110677.22349
  23486166.523 6     44283.059 6     63888.84047  23486164.91047
 20  5 16  1 39  9.0000000  0  8G04G08G09G11G16G26G27G31             0.000022482
  21423604.805 4    -41604.410 4    -27617.81346  21423602.29346
  20722508.016 6   -234371.219 6   -165954.99649  20722507.21549
  23043994.805 3   -195161.012 3   -133608.58646  23043994.49646
  23465898.313 6   -405152.633 6   -214185.61746  23465894.98046
  21483586.625 6     26925.738 6     19416.23447  21483583.42647
  22885641.211 4     70292.191 4     47762.35946  22885642.73446
  20110604.047 7    -38336.262 7    -28144.70349  20110602.07849
  23486443.797 6     45740.109 6     65024.19947  23486442.15247
 20  5 16  1 39 10.0000000  0  8G04G08G09G11G16G26G27G31             0.000021872
  21423514.000 4    -42082.098 4    -27990.04346  21423511.60246
  20722027.781 6   -236894.859 6   -167921.46949  20722026.98049
  23043545.820 3   -197520.148 3   -135446.88346  23043545.59046
  23465065.547 6   -409530.961 6   -217597.30946  23465061.88346
  21483636.172 6     27185.957 6     19619.00847  21483632.75047
  22885786.172 4     71052.949 4     48355.14846  22885787.55546
  20110528.594 7    -38730.961 7    -28452.26249  20110527.24649
  23486721.750 6     47197.277 6     66159.65647  23486719.51247
 20  5 16  1 39 11.0000000  0  8G04G08G09G11G16G26G27G31             0.000021261
  21423422.961 4    -42559.402 4    -28361.97346  21423421.02046
  20721547.242 6   -239418.129 6   -169887.65649  20721546.80949
  23043096.969 3   -199878.965 3   -137284.91846  23043096.85246
  23464231.578 6   -413909.402 6   -221009.07846  23464228.51646
  21483685.992 6     27446.055 6     19821.68447  21483682.27747
  22885931.703 4     71813.488 4     48947.76646  22885932.58646
  20110453.734 7    -39125.262 7    -28759.50849  20110451.74249
  23486998.688 6     48654.535 6     67295.18447  23486996.95347
 20  5 16  1 39 12.0000000  0  8G04G08G09G11G16G26G27G31             0.000020651
  21423331.844 4    -43036.375 4    -28733.64846  21423329.97346
  20721067.555 6   -241941.121 6   -171853.61749  20721066.56649
  23042648.805 3   -202237.473 3   -139122.71947  23042648.31347
  23463398.109 6   -418288.047 6   -224421.00446  23463395.73846
  21483735.172 6     27705.922 6     20024.17647  21483731.44947
  22886076.016 4     72573.742 4     49540.16046  22886076.87946
  20110378.734 7    -39519.234 7    -29066.49649  20110376.84049
  23487275.852 6     50111.770 6     68430.69147  23487274.48047
 20  5 16  1 39 13.0000000  0  8G04G08G09G11G16G26G27G31             0.000020041
  21423241.641 5    -43512.723 5    -29104.81646  21423239.46146
  20720587.703 6   -244463.590 6   -173819.18049  20720586.69549
  23042199.492 3   -204595.410 3   -140960.06647  23042199.42647
  23462564.922 6   -422666.613 6   -227832.87146  23462562.28546
  21483784.742 6     27965.848 6     20226.71947  21483781.55547
  22886220.656 4     73333.992 4     50132.56646  22886221.75846
  20110304.102 7    -39912.621 7    -29373.03149  20110302.09449
  23487553.352 6     51569.277 6     69566.40647  23487551.48847
 20  5 16  1 39 14.0000000  0  8G04G08G09G11G16G26G27G31             0.000019430
  21423150.680 4    -43988.641 4    -29475.64146  21423148.96946
  20720107.578 6   -246985.668 6   -175784.43049  20720106.80949
  23041750.594 3   -206952.992 3   -142797.14547  23041750.96547
  23461731.742 6   -427045.273 6   -231244.82446  23461729.33646
  21483833.695 6     28225.672 6     20429.18047  21483830.66847
  22886364.984 4     74094.023 4     50724.79346  22886366.11346
  20110229.008 7    -40305.555 7    -29679.21149  20110227.48449
  23487830.578 6     53026.867 6     70702.19547  23487828.89547
 20  5 16  1 39 15.0000000  0  8G04G08G09G11G16G26G27G31             0.000018818
  21423060.328 4    -44464.133 4    -29846.16446  21423058.54746
  20719627.594 6   -249507.371 6   -177749.38749  20719626.91849
  23041301.742 3   -209310.188 3   -144633.91847  23041302.09847
  23460898.609 6   -431424.008 6   -234656.81346  23460895.56646
  21483883.102 6     28485.398 6     20631.56347  21483879.96147
  22886510.617 5     74853.961 5     51316.96547  22886511.14547
  20110154.289 7    -40698.070 7    -29985.06649  20110152.76649
  23488107.953 6     54484.574 6     71838.07047  23488106.19547
 20  5 16  1 39 16.0000000  0  8G04G08G09G11G16G26G27G31             0.000018208
  21422970.289 5    -44939.145 5    -30216.30946  21422968.39846
  20719147.789 6   -252028.656 6   -179714.02349  20719147.23449
  23040853.695 3   -211666.934 3   -146470.34846  23040853.75446
  23460065.320 6   -435802.789 6   -238068.85546  23460062.02746
  21483932.070 6     28745.078 6     20833.90647  21483929.57847
  22886654.125 4     75613.723 4     51908.98046  22886655.91046
  20110079.844 7    -41090.098 7    -30290.54349  20110077.98049
  23488386.070 6     55942.410 6     72974.04747  23488383.48047
 20  5 16  1 39 17.0000000  0  8G04G08G09G11G16G26G27G31             0.000017597
  21422880.070 5    -45413.766 5    -30586.14546  21422878.11746
  20718667.992 6   -254549.605 6   -181678.40249  20718667.30949
  23040404.734 3   -214023.344 3   -148306.51246  23040405.80146
  23459231.805 6   -440181.715 6   -241481.00446  23459228.73846
  21483981.883 6     29004.590 6     21036.12547  21483978.66047
  22886799.367 5     76373.262 5     52500.82046  22886800.07446
  20110005.125 7    -41481.730 7    -30595.71149  20110003.35549
  23488663.047 6     57400.309 6     74110.06347  23488660.93447
 20  5 16  1 39 18.0000000  0  8G04G08G09G11G16G26G27G31             0.000016985
  21422789.219 5    -45888.043 5    -30955.71546  21422787.45346
  20718188.484 6   -257070.250 6   -183642.54749  20718187.91849
  23039955.336 2   -216379.453 2   -150142.44946  23039957.03146
  23458398.703 6   -444560.773 6   -244893.25046  23458395.80146
  21484031.906 6     29263.949 6     21238.22747  21484028.29347
  22886943.734 5     77132.555 5     53092.47347  22886944.61747
  20109930.914 7    -41873.012 7    -30900.60949  20109929.30949
  23488940.008 6     58858.242 6     75246.10947  23488938.46947
 20  5 16  1 39 19.0000000  0  8G04G08G09G11G16G26G27G31             0.000016373
  21422699.563 5    -46361.895 5    -31324.95346  21422697.45746
  20717708.711 6   -259590.566 6   -185606.43449  20717708.13749
  23039508.883 2   -218735.203 2   -151978.10246  23039508.75446
  23457565.625 6   -448940.031 6   -248305.64846  23457562.44146
  21484080.680 6     29523.160 6     21440.20347  21484077.24647
  22887088.344 5     77891.629 5     53683.95347  22887088.91847
  20109856.656 7    -42263.879 7    -31205.17649  20109854.71149
  23489218.109 6     60316.227 6     76382.19947  23489216.00847
 20  5 16  1 39 20.0000000  0  8G04G08G09G11G16G26G27G31             0.000015762
  21422609.328 5    -46835.406 5    -31693.91846  21422606.77346
  20717229.383 6   -262110.559 6   -187570.05949  20717228.48849
  23039059.602 2   -221090.633 2   -153813.50846  23039061.02046
  23456731.961 6   -453319.363 6   -251718.11746  23456728.82846
  21484130.180 6     29782.188 6     21642.03947  21484126.78547
  22887233.219 5     78650.465 5     54275.26247  22887233.45747
  20109782.164 7    -42654.387 7    -31509.47349  20109780.58249
  23489495.359 6     61774.246 6     77518.32047  23489493.56347
 20  5 16  1 39 21.0000000  0  8G04G08G09G11G16G26G27G31             0.000015150
  21422519.336 5    -47308.379 5    -32062.46146  21422517.00846
  20716749.891 6   -264630.094 6   -189533.33249  20716749.39849
  23038611.688 2   -223445.574 2   -155648.52347  23038612.71947
  23455898.969 6   -457698.738 6   -255130.62546  23455895.78546
  21484179.625 6     30041.203 6     21843.87547  21484176.26647
  22887376.938 5     79409.238 5     54866.50447  22887378.02347
  20109707.859 7    -43044.367 7    -31813.34849  20109706.63749
  23489772.992 6     63232.465 6     78654.59047  23489770.86347
 20  5 16  1 39 22.0000000  0  8G04G08G09G11G16G26G27G31             0.000014538
  21422429.102 5    -47780.898 5    -32430.66446  21422427.16446
  20716270.422 6   -267149.230 6   -191496.29349  20716269.89549
  23038163.453 2   -225800.133 2   -157483.24646  23038164.53946
  23455065.492 6   -462078.211 6   -258543.20746  23455062.25446
  21484228.750 6     30300.125 6     22045.63347  21484225.26247
  22887520.984 5     80167.777 5     55457.57047  22887522.37147
  20109634.031 7    -43433.938 7    -32116.91449  20109632.22749
  23490050.547 6     64690.750 6     79790.90647  23490048.39147
 20  5 16  1 39 23.0000000  0  8G04G08G09G11G16G26G27G31             0.000013926
  21422339.484 5    -48253.020 5    -32798.56346  21422337.34846
  20715791.281 6   -269668.000 6   -193458.96949  20715790.46549
  23037716.352 3   -228154.320 3   -159317.67646  23037716.46546
  23454231.836 6   -466457.742 6   -261955.83647  23454228.99647
  21484278.219 6     30558.918 6     22247.28947  21484274.68447
  22887665.195 5     80926.215 5     56048.56346  22887666.85546
  20109559.609 7    -43823.082 7    -32420.14149  20109558.25049
  23490327.594 6     66149.188 6     80927.35247  23490326.25047
 20  5 16  1 39 24.0000000  0  8G04G08G09G11G16G26G27G31             0.000013315
  21422250.344 5    -48724.570 5    -33166.01246  21422247.78146
  20715311.734 6   -272186.238 6   -195421.23849  20715311.06349
  23037268.547 2   -230507.918 2   -161151.64547  23037268.83647
  23453398.625 6   -470837.223 6   -265368.41847  23453395.30147
  21484327.320 6     30817.766 6     22448.98847  21484323.95347
  22887809.586 5     81684.609 5     56639.52047  22887810.96147
  20109485.734 7    -44211.617 7    -32722.89549  20109484.08649
  23490605.156 6     67607.836 6     82063.95347  23490603.65247
 20  5 16  1 39 25.0000000  0  8G04G08G09G11G16G26G27G31             0.000012703
  21422160.211 5    -49195.754 5    -33533.18046  21422157.95746
  20714832.531 6   -274704.188 6   -197383.27749  20714831.90649
  23036820.734 3   -232861.328 3   -162985.47747  23036820.79347
  23452564.969 6   -475216.906 6   -268781.16047  23452562.23447
  21484376.242 6     31076.398 6     22650.52747  21484372.71547
  22887953.516 5     82442.707 5     57230.23447  22887954.93047
  20109411.883 7    -44599.828 7    -33025.39549  20109410.13749
  23490882.703 6     69066.488 6     83200.57447  23490881.00047
 20  5 16  1 39 26.0000000  0  8G04G08G09G11G16G26G27G31             0.000012091
  21422070.656 5    -49666.547 5    -33900.02746  21422068.35546
  20714353.703 6   -277221.770 6   -199345.03149  20714353.23849
  23036373.375 2   -235214.316 2   -164818.97347  23036373.39547
  23451731.727 5   -479596.711 5   -272193.98046  23451728.50446
  21484425.547 6     31334.914 6     22851.96947  21484422.00447
  22888097.320 5     83200.602 5     57820.81346  22888099.46946
  20109337.977 7    -44987.609 7    -33327.56349  20109336.24649
  23491160.727 6     70525.242 6     84337.26647  23491159.03547
 20  5 16  1 39 27.0000000  0  8G04G08G09G11G16G26G27G31             0.000011478
  21421981.102 5    -50136.895 5    -34266.52746  21421978.72346
  20713874.570 7   -279739.016 7   -201306.52349  20713873.95349
  23035925.305 3   -237566.914 3   -166652.16047  23035925.62547
  23450897.930 6   -483976.590 6   -275606.87546  23450894.81646
  21484474.727 6     31593.277 6     23053.28147  21484470.94547
  22888241.813 5     83958.297 5     58411.22747  22888243.69547
  20109264.438 7    -45375.004 7    -33629.42649  20109262.77349
  23491438.211 6     71984.063 6     85474.00847  23491436.30947
 20  5 16  1 39 28.0000000  0  8G04G08G09G11G16G26G27G31             0.000010866
  21421891.844 5    -50606.680 5    -34632.58646  21421889.74246
  20713395.797 6   -282255.691 6   -203267.57049  20713395.16849
  23035477.820 3   -239918.934 3   -168484.90647  23035478.12547
  23450065.117 6   -488356.367 6   -279019.69146  23450061.63746
  21484524.242 6     31851.758 6     23254.69947  21484520.26647
  22888386.281 5     84716.027 5     59001.66447  22888388.29747
  20109190.211 7    -45761.785 7    -33930.81649  20109189.49249
  23491715.453 6     73443.172 6     86610.96147  23491714.23847
 20  5 16  1 39 29.0000000  0  8G04G08G09G11G16G26G27G31             0.000010254
  21421802.477 5    -51075.957 5    -34998.25446  21421800.31646
  20712916.844 6   -284771.938 6   -205228.28949  20712916.22749
  23035029.859 3   -242270.602 3   -170317.37146  23035030.48046
  23449231.609 6   -492736.219 6   -282432.56646  23449228.30946
  21484573.289 6     32110.148 6     23456.04347  21484569.35947
  22888530.742 5     85473.629 5     59592.00447  22888532.61747
  20109117.094 7    -46148.086 7    -34231.82449  20109115.52749
  23491993.430 6     74902.422 6     87748.02347  23491991.92247
 20  5 16  1 39 30.0000000  0  8G04G08G09G11G16G26G27G31             0.000009642
  21421713.445 5    -51544.723 5    -35363.52346  21421710.85246
  20712438.266 6   -287287.742 6   -207188.64849  20712437.73049
  23034582.422 3   -244621.738 3   -172149.43847  23034583.00447
  23448398.070 6   -497116.074 6   -285845.43447  23448394.89547
  21484622.227 6     32368.504 6     23657.36347  21484618.89847
  22888673.938 5     86231.098 5     60182.23447  22888676.44947
  20109043.789 7    -46533.863 7    -34532.43049  20109042.18049
  23492271.531 6     76361.824 6     88885.21947  23492269.75847
 20  5 16  1 39 31.0000000  0  8G04G08G09G11G16G26G27G31             0.000009029
  21421624.094 5    -52013.039 5    -35728.45346  21421621.89846
  20711959.438 6   -289803.125 6   -209148.69149  20711959.05149
  23034135.328 3   -246972.496 3   -173981.19547  23034135.91447
  23447564.336 6   -501495.984 6   -289258.35947  23447561.05147
  21484670.992 6     32626.793 6     23858.62147  21484668.06347
  22888818.438 5     86988.438 5     60772.36347  22888820.94147
  20108970.492 7    -46919.215 7    -34832.70349  20108969.02749
  23492549.805 6     77821.355 6     90022.51647  23492547.30547
 20  5 16  1 39 32.0000000  0  8G04G08G09G11G16G26G27G31             0.000008415
  21421535.484 5    -52480.738 5    -36092.90246  21421533.37146
  20711480.961 6   -292317.980 6   -211108.32049  20711480.48849
  23033688.242 3   -249322.680 3   -175812.50847  23033688.16847
  23446730.977 6   -505875.816 6   -292671.21547  23446727.76247
  21484720.680 6     32885.176 6     24059.95747  21484717.33247
  22888963.273 5     87745.754 5     61362.48047  22888965.09447
  20108897.211 7    -47303.918 7    -35132.47749  20108896.02049
  23492826.922 6     79281.168 6     91160.03947  23492825.22347
 20  5 16  1 39 33.0000000  0  8G04G08G09G11G16G26G27G31             0.000007803
  21421446.234 5    -52947.879 5    -36456.91846  21421444.19146
  20711002.766 6   -294832.316 6   -213067.53549  20711001.97349
  23033241.109 3   -251672.352 3   -177643.43047  23033241.56347
  23445897.258 6   -510255.641 6   -296084.07047  23445894.39847
  21484769.578 6     33143.539 6     24261.27747  21484766.44147
  22889107.555 5     88502.999 5     61952.54047  22889109.48847
  20108824.016 7    -47688.102 7    -35431.84449  20108822.63749
  23493105.133 6     80741.203 6     92297.73447  23493102.98447
 20  5 16  1 39 34.0000000  0  8G04G08G09G11G16G26G27G31             0.000007191
  21421357.375 5    -53414.629 5    -36820.62146  21421355.06646
  20710524.313 6   -297346.324 6   -215026.50449  20710523.54349
  23032793.688 3   -254021.656 3   -179474.05547  23032794.09847
  23445063.797 6   -514635.563 6   -299496.99646  23445060.80146
  21484818.758 6     33401.781 6     24462.51247  21484815.50847
  22889251.727 5     89260.086 5     62542.48447  22889253.19547
  20108751.109 7    -48071.859 7    -35730.87149  20108749.99249
  23493382.828 6     82201.289 6     93435.46547  23493380.58247
 20  5 16  1 39 35.0000000  0  8G04G08G09G11G16G26G27G31             0.000006578
  21421268.109 5    -53881.008 5    -37184.03146  21421266.68046
  20710045.930 6   -299859.973 6   -216985.19549  20710044.84849
  23032346.883 3   -256370.602 3   -181304.39847  23032347.23447
  23444230.594 6   -519015.605 6   -302910.00846  23444227.34846
  21484867.594 6     33659.871 6     24663.61747  21484864.68847
  22889395.445 5     90016.969 5     63132.26647  22889397.59847
  20108678.313 7    -48455.238 7    -36029.61349  20108676.56349
  23493660.625 6     83661.461 6     94573.25847  23493658.42247
 20  5 16  1 39 36.0000000  0  8G04G08G09G11G16G26G27G31             0.000005964
  21421180.156 5    -54346.969 5    -37547.12146  21421177.87946
  20709567.633 6   -302373.352 6   -218943.67249  20709567.12949
  23031900.266 3   -258719.297 3   -183134.54347  23031900.35947
  23443396.969 5   -523395.820 5   -306323.15646  23443394.18846
  21484917.234 6     33917.762 6     24864.57047  21484913.31347
  22889539.578 5     90773.566 5     63721.81647  22889541.69547
  20108605.375 7    -48838.281 7    -36328.08249  20108604.09049
  23493938.805 6     85121.621 6     95711.04347  23493936.24647
 20  5 16  1 39 37.0000000  0  8G04G08G09G11G16G26G27G31             0.000005352
  21421090.797 5    -54812.547 5    -37909.91046  21421089.39546
  20709089.508 6   -304886.340 6   -220901.84449  20709088.52049
  23031453.211 3   -261067.570 3   -184964.35947  23031453.85947
  23442563.594 6   -527776.137 6   -309736.38746  23442560.30146
  21484966.258 6     34175.590 6     25065.47747  21484962.72347
  22889683.359 5     91529.973 5     64311.22347  22889685.35947
  20108532.609 7    -49220.852 7    -36626.19549  20108530.88749
  23494216.484 6     86581.906 6     96848.92247  23494214.56647
 20  5 16  1 39 38.0000000  0  8G04G08G09G11G16G26G27G31             0.000004738
