     2.10           OBSERVATION DATA    Mixed(MIXED)        RINEX VERSION / TYPE
cnvtToRINEX 3.07.0  convertToRINEX OPR  19-May-20 12:30 UTC PGM / RUN BY / DATE 
----------------------------------------------------------- COMMENT             
98N0                                                        MARKER NAME         
98N0                                                        MARKER NUMBER       
GNSS Observer       Trimble                                 OBSERVER / AGENCY   
0220379195          5700                2.32                REC # / TYPE / VERS 
                    TRM39105.00                             ANT # / TYPE        
 -3050828.9091  4927926.0461  2653578.1144                  APPROX POSITION XYZ 
       -0.0460        0.0000        0.0000                  ANTENNA: DELTA H/E/N
     1     1     0                                          WAVELENGTH FACT L1/2
     4    C1    L1    L2    P2                              # / TYPES OF OBSERV 
  2020     5    16     5    12   45.0000000     GPS         TIME OF FIRST OBS   
  2020     5    16     6    21   23.0000000     GPS         TIME OF LAST OBS    
     0                                                      RCV CLOCK OFFS APPL 
    18                                                      LEAP SECONDS        
    10                                                      # OF SATELLITES     
   G01  4119  4119  4119  4119                              PRN / # OF OBS      
   G03  4119  4119  4119  4119                              PRN / # OF OBS      
   G07  4119  4119  4119  4119                              PRN / # OF OBS      
   G08  4119  4119  4109  4109                              PRN / # OF OBS      
   G11  4119  4113  4097  4097                              PRN / # OF OBS      
   G17  4097  4097  4097  4097                              PRN / # OF OBS      
   G19   574   574   574   574                              PRN / # OF OBS      
   G22  4119  4119  4119  4119                              PRN / # OF OBS      
   G28  4119  4119  4119  4119                              PRN / # OF OBS      
   G30  4119  4119  4119  4119                              PRN / # OF OBS      
CARRIER PHASE MEASUREMENTS: PHASE SHIFTS REMOVED            COMMENT             
                                                            END OF HEADER       
 20  5 16  5 12 45.0000000  0  8G01G03G07G08G11G22G28G30             0.000218805
  20177107.79717    -19560.50017     -7554.00459  20177109.41459
  23479676.07015    -82857.23815    -27108.80159  23479680.66459
  20954396.67216    -13029.33616     -4921.05559  20954395.29759
  23090964.51614     -3951.02314     -1202.30557  23090965.25057
  21171752.71116     -1354.20716      -736.07058  21171750.17258
  22729474.44516    -44750.47316    -18271.85958  22729472.14558
  23815307.22715    -64935.28515     -3677.11757  23815305.50457
  21733826.82816    -43685.87516    -13242.60559  21733827.18059
 20  5 16  5 12 46.0000000  0  8G01G03G07G08G11G22G28G30             0.000217459
  20176802.172 7    -21166.938 7     -8805.78549  20176803.88749
  23478752.961 5    -87711.605 5    -30891.42249  23478757.05149
  20954192.234 6    -14103.457 6     -5758.03149  20954190.85549
  23090916.297 4     -4202.934 4     -1398.60247  23090917.38347
  21171721.852 6     -1516.500 6      -862.53948  21171719.33248
  22728776.125 6    -48419.406 6    -21130.77048  22728774.18448
  23814424.508 5    -69571.242 5     -7289.56346  23814423.25046
  21733244.875 6    -46742.289 6    -15624.22749  21733245.12549
 20  5 16  5 12 47.0000000  0  8G01G03G07G08G11G22G28G30             0.000216110
  20176496.188 7    -22774.398 7    -10058.35249  20176498.21949
  23477829.078 5    -92567.578 5    -34675.28949  23477832.56349
  20953987.594 6    -15178.652 6     -6595.85249  20953986.52349
  23090868.555 4     -4456.566 4     -1596.22347  23090869.40247
  21171690.414 6     -1680.168 6      -990.07848  21171688.01648
  22728077.992 6    -52089.648 6    -23990.69948  22728075.69948
  23813542.109 5    -74208.934 5    -10903.34446  23813540.69546
  21732663.406 6    -49799.781 6    -18006.68449  21732663.96149
 20  5 16  5 12 48.0000000  0  8G01G03G07G08G11G22G28G30             0.000214762
  20176190.563 7    -24382.691 7    -11311.56349  20176192.26249
  23476904.531 5    -97424.969 5    -38460.26249  23476908.43049
  20953782.641 6    -16254.730 6     -7434.35549  20953781.26649
  23090819.320 4     -4711.738 4     -1795.04747  23090820.85947
  21171659.023 6     -1845.070 6     -1118.57048  21171656.72748
  22727379.203 6    -55761.059 6    -26851.54748  22727377.15648
  23812658.992 5    -78848.227 5    -14518.37947  23812658.10247
  21732080.969 6    -52858.160 6    -20389.84049  21732081.87149
 20  5 16  5 12 49.0000000  0  8G01G03G07G08G11G22G28G30             0.000213411
  20175884.352 7    -25991.734 7    -12565.35549  20175886.17249
  23475979.594 5   -102283.715 5    -42246.29749  23475983.78549
  20953577.531 6    -17331.594 6     -8273.46949  20953576.59849
  23090770.984 4     -4968.336 4     -1995.00447  23090771.92647
  21171627.727 6     -2011.105 6     -1247.94948  21171624.77048
  22726680.320 6    -59433.480 6    -29713.18448  22726678.22348
  23811776.422 5    -83488.977 5    -18134.55147  23811774.68447
  21731498.945 6    -55917.324 6    -22773.60249  21731499.44949
 20  5 16  5 12 50.0000000  0  8G01G03G07G08G11G22G28G30             0.000212061
  20175577.789 7    -27601.383 7    -13819.62549  20175579.84049
  23475054.930 5   -107143.676 5    -46033.27349  23475059.22749
  20953372.539 6    -18409.094 6     -9113.08249  20953371.31349
  23090721.484 4     -5226.262 4     -2195.98047  23090722.73047
  21171595.828 6     -2178.074 6     -1378.05148  21171593.49648
  22725981.422 6    -63106.797 6    -32575.51248  22725979.09048
  23810892.289 5    -88131.121 5    -21751.80947  23810891.42247
  21730916.898 6    -58977.141 6    -25157.88349  21730917.53549
 20  5 16  5 12 51.0000000  0  8G01G03G07G08G11G22G28G30             0.000210709
  20175271.578 7    -29211.566 7    -15074.31349  20175273.22349
  23474130.023 5   -112004.785 5    -49821.14849  23474133.90249
  20953167.523 6    -19487.188 6     -9953.15249  20953166.29349
  23090672.039 4     -5485.383 4     -2397.89147  23090673.27347
  21171563.820 6     -2346.027 6     -1508.93048  21171561.28548
  22725282.055 6    -66780.953 6    -35438.48848  22725279.59848
  23810009.125 5    -92774.516 5    -25370.03146  23810008.08246
  21730334.219 6    -62037.535 6    -27542.60549  21730334.85949
 20  5 16  5 12 52.0000000  0  8G01G03G07G08G11G22G28G30             0.000209356
  20174964.820 7    -30822.156 7    -16329.31349  20174966.95749
  23473204.477 5   -116866.859 5    -53609.77349  23473208.97349
  20952962.313 6    -20565.719 6    -10793.57049  20952961.28949
  23090622.789 4     -5745.652 4     -2600.69547  23090623.38747
  21171531.664 6     -2514.707 6     -1640.37148  21171529.57848
  22724582.922 6    -70455.801 6    -38302.00448  22724580.64848
  23809125.789 5    -97419.020 5    -28989.12947  23809124.16847
  21729752.078 6    -65098.391 6    -29927.68449  21729752.82449
 20  5 16  5 12 53.0000000  0  8G01G03G07G08G11G22G28G30             0.000208002
  20174658.500 7    -32432.941 7    -17584.47749  20174660.28149
  23472279.516 5   -121729.742 5    -57399.03149  23472283.24649
  20952757.203 6    -21644.504 6    -11634.18449  20952755.99249
  23090572.992 4     -6006.793 4     -2804.17647  23090573.64547
  21171499.555 6     -2684.016 6     -1772.30148  21171497.62148
  22723883.438 6    -74131.160 6    -41165.91848  22723880.87948
  23808241.719 5   -102064.566 5    -32609.04347  23808239.90247
  21729169.438 6    -68159.516 6    -32312.98049  21729170.18049
 20  5 16  5 12 54.0000000  0  8G01G03G07G08G11G22G28G30             0.000206650
  20174351.813 7    -34043.953 7    -18839.81349  20174353.87149
  23471353.539 5   -126593.426 5    -61188.91049  23471357.92649
  20952551.867 6    -22723.535 6    -12474.99249  20952550.52049
  23090523.680 4     -6268.879 4     -3008.41147  23090523.80547
  21171466.992 6     -2853.883 6     -1904.66048  21171464.37148
  22723184.195 6    -77807.043 6    -44030.23847  22723181.18047
  23807357.711 5   -106711.008 5    -36229.64147  23807355.75447
  21728586.930 6    -71220.863 6    -34698.44949  21728587.66449
 20  5 16  5 12 55.0000000  0  8G01G03G07G08G11G22G28G30             0.000205296
  20174045.617 7    -35655.031 7    -20095.19949  20174047.06649
  23470428.086 5   -131457.781 5    -64979.31649  23470432.12549
  20952346.609 6    -23802.680 6    -13315.88749  20952345.25849
  23090473.672 4     -6531.715 4     -3213.21947  23090473.92647
  21171434.977 6     -3024.227 6     -2037.39548  21171432.33248
  22722483.852 6    -81483.281 6    -46894.83647  22722481.94147
  23806473.141 5   -111358.246 5    -39850.86347  23806471.41047
  21728004.156 6    -74282.359 6    -37084.03149  21728005.19949
 20  5 16  5 12 56.0000000  0  8G01G03G07G08G11G22G28G30             0.000203941
  20173738.711 7    -37266.051 7    -21350.54349  20173740.78149
  23469502.180 5   -136322.668 5    -68770.13749  23469506.41849
  20952141.289 6    -24881.816 6    -14156.77049  20952140.02049
  23090423.547 4     -6795.188 4     -3418.52747  23090423.91447
  21171402.516 6     -3194.859 6     -2170.36348  21171399.79348
  22721784.852 6    -85159.738 6    -49759.60947  22721782.11747
  23805588.375 5   -116006.184 5    -43472.63747  23805586.98447
  21727421.648 6    -77343.813 6    -39469.58249  21727422.59449
 20  5 16  5 12 57.0000000  0  8G01G03G07G08G11G22G28G30             0.000202585
  20173432.203 7    -38876.824 7    -22605.69149  20173433.98849
  23468576.164 5   -141187.910 5    -72561.23049  23468580.56349
  20951935.992 6    -25960.738 6    -14997.48849  20951934.54349
  23090373.531 4     -7059.086 4     -3624.16447  23090373.31347
  21171369.695 6     -3365.637 6     -2303.43448  21171367.23448
  22721085.477 6    -88836.219 6    -52624.40247  22721082.68047
  23804704.000 5   -120654.613 5    -47094.78947  23804702.28547
  21726839.641 6    -80405.066 6    -41854.97749  21726840.08649
 20  5 16  5 12 58.0000000  0  8G01G03G07G08G11G22G28G30             0.000201231
  20173125.617 7    -40487.273 7    -23860.58649  20173127.46549
  23467651.133 5   -146053.414 5    -76352.53549  23467654.44949
  20951730.484 6    -27039.383 6    -15837.98849  20951729.43849
  23090322.438 4     -7323.383 4     -3830.10547  23090323.22347
  21171337.484 6     -3536.465 6     -2436.54748  21171334.62948
  22720385.781 6    -92512.715 6    -55489.20747  22720383.10547
  23803819.383 5   -125303.477 5    -50717.27747  23803817.48847
  21726256.461 6    -83466.051 6    -44240.16449  21726257.27049
 20  5 16  5 12 59.0000000  0  8G01G03G07G08G11G22G28G30             0.000199877
  20172819.414 7    -42097.316 7    -25115.16849  20172821.39549
  23466724.414 5   -150919.145 5    -80144.01649  23466728.57849
  20951525.492 6    -28117.684 6    -16678.22349  20951523.93049
  23090273.492 4     -7587.992 4     -4036.30147  23090272.88347
  21171304.719 6     -3707.273 6     -2569.64848  21171302.41048
  22719686.063 6    -96189.074 6    -58353.90647  22719683.80147
  23802934.266 5   -129952.660 5    -54340.01647  23802933.18447
  21725674.305 6    -86526.688 6    -46625.06649  21725675.10549
 20  5 16  5 13  0.0000000  0  8G01G03G07G08G11G22G28G30             0.000198521
  20172513.047 7    -43706.895 7    -26369.38349  20172515.03549
  23465798.352 5   -155784.953 5    -83935.55549  23465802.31349
  20951320.602 6    -29195.555 6    -17518.12949  20951318.93449
  23090221.984 4     -7852.777 4     -4242.62547  23090222.37547
  21171272.461 7     -3877.996 7     -2702.68048  21171269.99248
  22718986.617 6    -99865.297 6    -61218.49247  22718984.05947
  23802049.633 5   -134602.113 5    -57962.97347  23802048.27747
  21725092.250 6    -89586.906 6    -49009.65649  21725092.64549
 20  5 16  5 13  1.0000000  0  8G01G03G07G08G11G22G28G30             0.000197166
  20172207.000 7    -45315.887 7    -27623.14549  20172209.06349
  23464872.969 5   -160650.816 5    -87727.13349  23464876.75049
  20951115.273 6    -30272.871 6    -18357.60249  20951113.74249
  23090171.445 4     -8117.719 4     -4449.07047  23090171.94547
  21171239.625 6     -4048.551 6     -2835.58248  21171237.15248
  22718287.242 6   -103541.215 6    -64082.84448  22718284.27748
  23801165.078 5   -139251.738 5    -61586.05547  23801163.42247
  21724509.641 6    -92646.555 6    -51393.80149  21724509.90249
 20  5 16  5 13  2.0000000  0  8G01G03G07G08G11G22G28G30             0.000195810
  20171900.930 7    -46924.242 7    -28876.41049  20171902.75849
  23463947.000 5   -165516.609 5    -91518.66049  23463950.94949
  20950910.742 6    -31349.609 6    -19196.62149  20950908.76649
  23090121.492 4     -8382.661 4     -4655.50947  23090121.79747
  21171207.695 6     -4218.785 6     -2968.22748  21171205.04748
  22717587.430 6   -107216.766 6    -66946.91448  22717585.21948
  23800279.914 5   -143901.469 5    -65209.22747  23800278.82047
  21723927.320 6    -95705.617 6    -53777.49249  21723928.19149
 20  5 16  5 13  3.0000000  0  8G01G03G07G08G11G22G28G30             0.000194456
  20171595.008 7    -48531.855 7    -30129.09049  20171596.90649
  23463020.742 5   -170382.266 5    -95310.09049  23463024.77749
  20950705.641 6    -32425.641 6    -20035.09049  20950704.55949
  23090070.836 4     -8647.594 4     -4861.96147  23090070.80147
  21171175.352 6     -4388.660 6     -3100.60548  21171172.69948
  22716888.500 6   -110891.879 6    -69810.64147  22716885.75847
  23799395.484 5   -148551.199 5    -68832.38347  23799393.86747
  21723345.258 6    -98763.996 6    -56160.64549  21723346.41449
 20  5 16  5 13  4.0000000  0  8G01G03G07G08G11G22G28G30             0.000193100
  20171289.313 7    -50138.680 7    -31381.16049  20171291.19949
  23462094.914 5   -175247.727 5    -99101.35249  23462099.12549
  20950501.289 6    -33500.934 6    -20872.97749  20950499.73049
  23090020.352 4     -8912.504 4     -5068.37947  23090020.56347
  21171142.773 6     -4558.172 6     -3232.69148  21171140.46148
  22716189.352 6   -114566.523 6    -72674.00047  22716186.60547
  23798510.945 5   -153200.867 5    -72455.50047  23798508.89847
  21722763.898 6   -101821.645 6    -58543.22349  21722764.59849
 20  5 16  5 13  5.0000000  0  8G01G03G07G08G11G22G28G30             0.000191746
  20170983.773 7    -51744.613 7    -32632.54749  20170985.85549
  23461168.977 5   -180112.895 5   -102892.38749  23461173.28949
  20950296.523 6    -34575.383 6    -21710.20749  20950295.21949
  23089970.102 4     -9177.145 4     -5274.58647  23089970.38747
  21171110.930 6     -4727.129 6     -3364.35248  21171108.65248
  22715490.117 6   -118240.539 6    -75536.86748  22715487.39148
  23797625.898 5   -157850.391 5    -76078.50846  23797624.05146
  21722181.836 6   -104878.430 6    -60925.13349  21722182.96949
 20  5 16  5 13  6.0000000  0  8G01G03G07G08G11G22G28G30             0.000190392
  20170677.930 7    -53349.602 7    -33883.18449  20170680.23449
  23460243.461 5   -184977.688 5   -106683.12949  23460247.52349
  20950092.344 6    -35648.926 6    -22546.73849  20950090.93849
  23089919.523 4     -9441.555 4     -5480.62547  23089920.36747
  21171078.961 7     -4895.531 7     -3495.57448  21171076.65648
  22714790.500 6   -121913.898 6    -78399.22748  22714788.12548
  23796740.898 5   -162499.699 5    -79701.34847  23796739.35247
  21721600.203 6   -107934.309 6    -63306.33649  21721601.03149
 20  5 16  5 13  7.0000000  0  9G01G03G07G08G11G17G22G28G30          0.000189035
  20170373.086 7    -54953.594 7    -35133.04349  20170374.98049
  23459317.594 5   -189842.094 5   -110473.57049  23459321.63349
  20949888.086 7    -36721.516 7    -23382.51649  20949886.85549
  23089869.305 4     -9705.641 4     -5686.41847  23089869.71947
  21171046.977 6     -5063.320 6     -3626.31348  21171044.53148
  24146000.38315   -127499.39115    -62449.30558  24145999.90658
  22714091.250 6   -125586.566 6    -81261.04348  22714089.41048
  23795856.258 5   -167148.781 5    -83324.02047  23795854.56347
  21721019.094 6   -110989.258 6    -65686.81649  21721019.73849
 20  5 16  5 13  8.0000000  0  9G01G03G07G08G11G17G22G28G30          0.000187681
  20170067.836 7    -56556.551 7    -36382.10249  20170069.69549
  23458392.039 5   -194706.066 5   -114263.68049  23458396.32449
  20949684.055 6    -37793.098 6    -24217.52049  20949682.83649
  23089819.773 4     -9969.398 4     -5891.94547  23089819.98847
  21171015.023 6     -5230.445 6     -3756.54348  21171012.77048
  24145318.984 5   -131082.578 5    -65241.39848  24145318.46948
  22713393.492 6   -129258.480 6    -84122.26648  22713390.68848
  23794971.484 5   -171797.527 5    -86946.41447  23794970.08647
  21720437.883 6   -114043.180 6    -68066.50049  21720438.66849
 20  5 16  5 13  9.0000000  0  9G01G03G07G08G11G17G22G28G30          0.000186327
  20169762.883 7    -58158.379 7    -37630.28149  20169764.62149
  23457466.477 5   -199569.457 5   -118053.32849  23457470.57849
  20949480.320 6    -38863.586 6    -25051.66849  20949479.41049
  23089768.844 4    -10232.746 4     -6097.16047  23089769.33247
  21170983.547 6     -5396.813 6     -3886.17648  21170981.00048
  24144636.883 5   -134665.211 5    -68033.05548  24144636.52348
  22712694.734 6   -132929.566 6    -86982.85548  22712692.25848
  23794087.484 5   -176445.887 5    -90568.51647  23794085.52747
  21719856.898 6   -117096.039 6    -70445.35549  21719857.71149
 20  5 16  5 13 10.0000000  0  9G01G03G07G08G11G17G22G28G30          0.000184973
  20169458.445 7    -59759.016 7    -38877.53149  20169460.43849
  23456541.633 5   -204432.324 5   -121842.57449  23456545.17249
  20949277.156 6    -39932.953 6    -25884.94149  20949275.62149
  23089718.883 4    -10495.633 4     -6302.00447  23089719.32847
  21170952.000 7     -5562.398 7     -4015.20348  21170948.91448
  24143955.148 5   -138247.160 5    -70824.19548  24143955.09848
  22711996.336 6   -136599.777 6    -89842.75847  22711993.82447
  23793202.922 5   -181093.828 5    -94190.28947  23793201.29747
  21719276.250 6   -120147.766 6    -72823.32449  21719277.21949
 20  5 16  5 13 11.0000000  0  9G01G03G07G08G11G17G22G28G30          0.000183619
  20169154.016 7    -61358.516 7    -40123.89549  20169155.71549
  23455615.914 5   -209294.594 5   -125631.35549  23455620.02349
  20949073.789 6    -41001.223 6    -26717.35949  20949072.39149
  23089669.344 5    -10758.070 5     -6506.50447  23089669.74247
  21170920.719 6     -5727.207 6     -4143.62948  21170918.31648
  24143273.789 5   -141828.539 5    -73614.88348  24143273.60948
  22711298.047 6   -140269.098 6    -92701.96947  22711295.76247
  23792318.352 5   -185741.363 5    -97811.74247  23792316.80147
  21718695.820 6   -123198.379 6    -75200.42649  21718696.42249
 20  5 16  5 13 12.0000000  0  9G01G03G07G08G11G17G22G28G30          0.000182266
  20168849.664 7    -62956.813 7    -41369.32849  20168851.89849
  23454690.945 5   -214156.262 5   -129419.66849  23454694.60949
  20948870.688 7    -42068.332 7    -27548.87949  20948869.48449
  23089619.273 5    -11019.957 5     -6710.55547  23089619.84847
  21170889.258 6     -5891.191 6     -4271.41848  21170886.75048
  24142592.836 5   -145409.219 5    -76405.02348  24142592.54348
  22710599.352 6   -143937.527 6    -95560.48847  22710597.24647
  23791434.008 5   -190388.438 5   -101432.83647  23791432.35247
  21718115.711 6   -126247.848 6    -77576.63749  21718116.72349
 20  5 16  5 13 13.0000000  0  9G01G03G07G08G11G17G22G28G30          0.000180914
  20168546.031 7    -64553.875 7    -42613.78949  20168548.07049
  23453766.125 5   -219017.309 5   -133207.49649  23453769.80549
  20948667.922 7    -43134.270 7    -28379.47749  20948666.58249
  23089570.000 5    -11281.332 5     -6914.22747  23089569.87947
  21170858.367 6     -6054.332 6     -4398.54348  21170855.67248
  24141910.570 5   -148989.188 5    -79194.60948  24141911.09848
  22709902.086 6   -147605.027 6    -98418.27747  22709899.49647
  23790550.031 5   -195035.020 5   -105053.54747  23790548.50047
  21717535.219 6   -129296.121 6    -79951.91049  21717536.13349
 20  5 16  5 13 14.0000000  0  9G01G03G07G08G11G17G22G28G30          0.000179562
  20168242.242 7    -66149.625 7    -43857.23049  20168244.19149
  23452841.047 5   -223877.656 5   -136994.77749  23452844.61349
  20948465.305 7    -44198.898 7    -29209.05949  20948463.66049
  23089520.469 5    -11542.082 5     -7117.42647  23089520.88347
  21170827.094 6     -6216.527 6     -4524.93048  21170824.77748
  24141229.656 5   -152568.375 5    -81983.59048  24141230.21148
  22709204.164 6   -151271.473 6   -101275.25047  22709201.56347
  23789665.555 5   -199681.020 5   -108673.81647  23789664.68047
  21716955.789 6   -132343.113 6    -82326.19149  21716956.67649
 20  5 16  5 13 15.0000000  0  9G01G03G07G08G11G17G22G28G30          0.000178209
  20167938.797 7    -67744.160 7    -45099.72349  20167941.08649
  23451916.336 5   -228737.328 5   -140781.53549  23451919.94149
  20948262.688 7    -45262.355 7    -30037.73049  20948261.77049
  23089470.203 4    -11802.336 4     -7320.23046  23089471.16846
  21170796.492 6     -6377.875 6     -4650.65248  21170794.02748
  24140549.008 5   -156146.895 5    -84772.04348  24140549.25848
  22708506.688 6   -154936.984 6   -104131.49647  22708504.40247
  23788782.156 5   -204326.547 5   -112293.70747  23788780.39547
  21716376.148 6   -135388.949 6    -84699.57449  21716376.73449
 20  5 16  5 13 16.0000000  0  9G01G03G07G08G11G17G22G28G30          0.000176857
  20167635.773 7    -69337.375 7    -46341.19549  20167637.56349
  23450991.516 5   -233596.277 5   -144567.72749  23450995.52049
  20948060.617 7    -46324.563 7    -30865.42249  20948059.39549
  23089421.391 4    -12061.949 4     -7522.51646  23089421.89846
  21170766.336 6     -6538.297 6     -4775.65248  21170763.60948
  24139868.367 4   -159724.617 4    -87559.87548  24139868.91848
  22707809.492 6   -158601.535 6   -106986.98447  22707806.71147
  23787897.375 5   -208971.469 5   -115913.12146  23787896.60246
  21715796.797 6   -138433.508 6    -87071.96149  21715797.48049
 20  5 16  5 13 17.0000000  0  9G01G03G07G08G11G17G22G28G30          0.000175507
  20167332.781 7    -70929.273 7    -47581.63349  20167334.94949
  23450066.820 5   -238454.508 5   -148353.35549  23450070.81649
  20947858.516 6    -47385.492 6    -31692.12149  20947857.48449
  23089372.023 4    -12320.969 4     -7724.36346  23089372.67646
  21170735.984 6     -6697.770 6     -4899.91848  21170733.39148
  24139187.539 5   -163301.543 5    -90347.08248  24139187.60948
  22707112.477 6   -162264.996 6   -109841.62547  22707109.73447
  23787014.016 5   -213615.820 5   -119532.09447  23787012.36347
  21715217.719 6   -141476.793 6    -89443.35249  21715218.36749
 20  5 16  5 13 18.0000000  0  9G01G03G07G08G11G17G22G28G30          0.000174156
  20167030.000 7    -72519.785 7    -48820.99249  20167031.92649
  23449142.547 5   -243311.957 5   -152138.37149  23449146.66049
  20947657.039 7    -48445.070 7    -32517.76649  20947656.06649
  23089323.758 4    -12579.281 4     -7925.65646  23089323.32446
  21170705.648 6     -6856.262 6     -5023.41448  21170703.09448
  24138507.242 5   -166877.613 5    -93133.62948  24138507.19148
  22706415.633 6   -165927.375 6   -112695.43047  22706412.96147
  23786130.602 5   -218259.527 5   -123150.57047  23786128.91447
  21714638.914 6   -144518.738 6    -91813.69949  21714639.44549
 20  5 16  5 13 19.0000000  0  9G01G03G07G08G11G17G22G28G30          0.000172806
  20166727.633 7    -74108.891 7    -50059.25849  20166729.74249
  23448218.500 5   -248168.586 5   -155922.75849  23448222.28949
  20947455.945 7    -49503.305 7    -33342.36749  20947454.62949
  23089274.492 4    -12836.914 4     -8126.41446  23089274.48046
  21170675.414 6     -7013.719 6     -5146.11348  21170673.29748
  24137826.414 5   -170452.809 5    -95919.49248  24137827.25448
  22705718.859 6   -169588.660 6   -115548.37947  22705716.35547
  23785246.664 5   -222902.633 5   -126768.58247  23785245.46147
  21714059.992 6   -147559.313 6    -94182.98049  21714060.79349
 20  5 16  5 13 20.0000000  0  9G01G03G07G08G11G17G22G28G30          0.000171457
  20166425.711 7    -75696.586 7    -51296.42649  20166427.73449
  23447294.563 5   -253024.375 5   -159706.48849  23447298.32049
  20947254.688 7    -50560.156 7    -34165.89149  20947253.42649
  23089225.086 4    -13093.777 4     -8326.56646  23089225.34446
  21170646.258 6     -7170.109 6     -5267.98448  21170643.50448
  24137146.883 5   -174027.105 5    -98704.66848  24137146.78548
  22705021.969 6   -173248.805 6   -118400.43448  22705019.76648
  23784363.852 5   -227544.988 5   -130386.00447  23784362.21147
  21713482.102 6   -150598.484 6    -96551.16849  21713482.68049
 20  5 16  5 13 21.0000000  0  9G01G03G07G08G11G17G22G28G30          0.000170107
  20166123.609 7    -77282.883 7    -52532.50049  20166125.69149
  23446370.625 5   -257879.387 5   -163489.61349  23446374.23849
  20947053.906 7    -51615.652 7    -34988.35549  20947052.58249
  23089176.227 4    -13349.965 4     -8526.18446  23089176.83646
  21170616.305 6     -7325.523 6     -5389.08648  21170614.16448
  24136466.477 5   -177600.609 5   -101489.21948  24136466.82848
  22704326.094 6   -176907.840 6   -121251.63747  22704323.63347
  23783479.875 5   -232186.711 5   -134002.92247  23783478.58247
  21712904.000 6   -153636.367 6    -98918.35249  21712904.34849
 20  5 16  5 13 22.0000000  0  9G01G03G07G08G11G17G22G28G30          0.000168758
  20165822.117 7    -78867.859 7    -53767.54349  20165823.77049
  23445447.016 5   -262733.672 5   -167272.17249  23445450.43049
  20946853.180 7    -52669.867 7    -35809.82049  20946851.59449
  23089127.492 4    -13605.488 4     -8725.28946  23089128.30146
  21170586.891 6     -7479.973 6     -5509.43448  21170584.42648
  24135786.852 5   -181173.242 5   -104273.08648  24135786.73848
  22703629.922 6   -180565.852 6   -124102.03548  22703627.29348
  23782596.711 5   -236827.832 5   -137619.36747  23782595.55947
  21712326.008 6   -156672.949 6   -101284.52049  21712326.91849
 20  5 16  5 13 23.0000000  0  9G01G03G07G08G11G17G22G28G30          0.000167410
  20165520.906 7    -80451.391 7    -55001.46549  20165522.78149
  23444523.172 5   -267587.066 5   -171054.03949  23444526.90249
  20946652.852 7    -53722.684 7    -36630.20749  20946651.83649
  23089078.961 4    -13860.297 4     -8923.83247  23089079.52347
  21170558.133 6     -7633.348 6     -5628.94148  21170555.70748
  24135107.313 5   -184745.023 5   -107056.28948  24135107.41048
  22702933.977 6   -184222.684 6   -126951.51247  22702931.68447
  23781713.992 5   -241468.270 5   -141235.28547  23781712.53947
  21711747.445 6   -159708.102 6   -103649.57049  21711748.71549
 20  5 16  5 13 24.0000000  0  9G01G03G07G08G11G17G22G28G30          0.000166063
  20165219.852 7    -82033.469 7    -56234.25849  20165221.85949
  23443599.578 5   -272439.656 5   -174835.27349  23443603.68849
  20946452.969 7    -54774.113 7    -37449.50849  20946451.62149
  23089030.750 4    -14114.398 4     -9121.83646  23089031.25046
  21170528.773 6     -7785.684 6     -5747.64848  21170525.84848
  24134427.672 5   -188315.813 5   -109838.72348  24134427.99248
  22702237.656 5   -187878.395 5   -129800.12147  22702235.32847
  23780831.141 5   -246108.016 5   -144850.69147  23780829.65647
  21711171.125 6   -162741.891 6   -106013.56349  21711171.98849
 20  5 16  5 13 25.0000000  0  9G01G03G07G08G11G17G22G28G30          0.000164715
  20164919.117 7    -83614.184 7    -57465.98049  20164920.83649
  23442676.836 5   -277291.414 5   -178615.85549  23442680.17649
  20946252.992 7    -55824.184 7    -38267.74649  20946251.57049
  23088982.586 4    -14367.727 4     -9319.22346  23088983.03546
  21170499.961 6     -7936.992 6     -5865.55948  21170497.57048
  24133748.328 5   -191885.809 5   -112620.53148  24133748.41048
  22701542.797 5   -191533.016 5   -132647.88348  22701540.20348
  23779947.938 5   -250747.102 5   -148465.56647  23779946.55147
  21710594.055 6   -165774.297 6   -108376.48049  21710595.11749
 20  5 16  5 13 26.0000000  0  9G01G03G07G08G11G17G22G28G30          0.000163368
  20164618.430 7    -85193.516 7    -58696.63349  20164620.57449
  23441753.883 5   -282142.387 5   -182395.83249  23441757.37949
  20946053.148 7    -56872.938 7    -39084.95749  20946052.45349
  23088934.352 4    -14620.438 4     -9516.13746  23088934.60246
  21170471.469 6     -8087.328 6     -5982.70348  21170468.63748
  24133069.633 5   -195454.982 5   -115401.70248  24133069.35948
  22700847.633 5   -195186.535 5   -135494.77748  22700845.39148
  23779065.008 5   -255385.555 5   -152079.94547  23779063.98447
  21710017.148 6   -168805.406 6   -110738.38349  21710018.00849
 20  5 16  5 13 27.0000000  0  9G01G03G07G08G11G17G22G28G30          0.000162022
  20164318.242 7    -86771.371 7    -59926.13349  20164319.91849
  23440830.297 5   -286992.484 5   -186175.13349  23440835.00049
  20945854.234 7    -57920.246 7    -39901.03949  20945853.05949
  23088886.320 3    -14872.328 3     -9712.41846  23088886.95346
  21170442.867 7     -8236.551 7     -6098.98048  21170440.52048
  24132390.078 5   -199023.164 5   -118182.10948  24132390.69548
  22700152.125 6   -198838.859 6   -138340.73848  22700150.18448
  23778183.234 5   -260023.273 5   -155693.76247  23778181.86347
  21709440.508 6   -171835.074 6   -113099.16049  21709441.45349
 20  5 16  5 13 28.0000000  0  9G01G03G07G08G11G17G22G28G30          0.000160677
  20164018.297 7    -88347.793 7    -61154.50849  20164019.98449
  23439908.273 5   -291841.734 5   -189953.77049  23439911.85949
  20945655.055 7    -58966.180 7    -40716.05149  20945653.86749
  23088838.734 4    -15123.520 4     -9908.15646  23088839.27046
  21170414.859 7     -8384.723 7     -6214.44548  21170412.28148
  24131711.461 5   -202590.445 5   -120961.81648  24131711.40648
  22699457.773 6   -202490.055 6   -141185.82848  22699455.21948
  23777300.336 5   -264660.285 5   -159307.01647  23777299.17247
  21708864.516 6   -174863.324 6   -115458.83249  21708865.36349
 20  5 16  5 13 29.0000000  0  9G01G03G07G08G11G17G22G28G30          0.000159330
  20163718.469 7    -89922.781 7    -62381.77749  20163720.22749
  23438985.188 5   -296690.180 5   -193731.77349  23438988.77349
  20945456.156 7    -60010.723 7    -41529.97749  20945455.05549
  23088791.961 4    -15373.938 4    -10103.28946  23088791.16446
  21170386.680 6     -8531.855 6     -6329.09848  21170384.48048
  24131032.672 5   -206156.816 5   -123740.80948  24131033.34448
  22698762.922 5   -206140.090 5   -144030.00047  22698760.77047
  23776418.477 5   -269296.605 5   -162919.73047  23776416.80947
  21708288.438 6   -177890.227 6   -117817.46149  21708289.00449
 20  5 16  5 13 30.0000000  0  9G01G03G07G08G11G17G22G28G30          0.000157986
  20163419.000 7    -91496.348 7    -63607.93449  20163420.50049
  23438062.859 5   -301537.754 5   -197509.10249  23438066.52049
  20945257.883 6    -61053.891 6    -42342.84049  20945256.57049
  23088744.375 4    -15623.685 4    -10297.89846  23088743.70746
  21170359.031 6     -8677.957 6     -6442.94548  21170356.60248
  24130354.078 5   -209722.320 5   -126519.11748  24130354.51248
  22698069.023 5   -209789.027 5   -146873.32047  22698066.75847
  23775536.383 5   -273932.270 5   -166531.93047  23775535.06347
  21707712.742 6   -180915.742 6   -120175.00849  21707713.39149
 20  5 16  5 13 31.0000000  0  9G01G03G07G08G11G17G22G28G30          0.000156641
  20163119.984 7    -93068.539 7    -64833.01649  20163122.14149
  23437140.414 5   -306384.543 5   -201285.82049  23437144.32449
  20945059.516 7    -62095.707 7    -43154.64849  20945058.19949
  23088696.953 3    -15872.684 3    -10491.91046  23088696.25846
  21170331.258 6     -8823.051 6     -6556.00448  21170329.12548
  24129675.695 5   -213286.984 5   -129296.77348  24129675.96148
  22697374.461 5   -213436.852 5   -149715.78547  22697372.27047
  23774654.102 5   -278567.270 5   -170143.62146  23774652.85946
  21707137.195 6   -183939.918 6   -122531.50449  21707137.66849
 20  5 16  5 13 32.0000000  0  9G01G03G07G08G11G17G22G28G30          0.000155298
  20162820.984 7    -94639.301 7    -66056.98849  20162822.76649
  23436218.688 5   -311230.520 5   -205061.89849  23436222.41049
  20944861.656 7    -63136.152 7    -43965.38749  20944860.35549
  23088648.547 4    -16121.000 4    -10685.40646  23088648.89546
  21170303.781 6     -8967.105 6     -6668.25848  21170301.48848
  24128998.281 5   -216850.742 5   -132073.72348  24128998.51648
  22696680.398 5   -217083.527 5   -152557.34847  22696678.08247
  23773771.883 5   -283201.598 5   -173754.78547  23773770.78947
  21706561.992 6   -186962.715 6   -124886.93449  21706563.00849
 20  5 16  5 13 33.0000000  0  9G01G03G07G08G11G17G22G28G30          0.000153954
  20162522.227 7    -96208.621 7    -67279.83649  20162524.50449
  23435296.297 5   -316075.609 5   -208837.28549  23435300.16049
  20944663.961 7    -64175.199 7    -44775.03549  20944662.75049
  23088602.141 4    -16368.512 4    -10878.29346  23088601.84846
  21170276.523 6     -9110.102 6     -6779.67648  21170274.56348
  24128319.344 5   -220413.551 5   -134849.93448  24128320.02748
  22695986.953 5   -220729.070 5   -155398.03547  22695984.41047
  23772890.805 5   -287835.215 5   -177365.39847  23772889.12947
  21705986.984 6   -189984.102 6   -127241.26649  21705987.83649
 20  5 16  5 13 34.0000000  0  9G01G03G07G08G11G17G22G28G30          0.000152611
  20162224.016 7    -97776.535 7    -68501.59049  20162225.89549
  23434374.648 5   -320919.879 5   -212612.03949  23434378.25849
  20944466.328 7    -65212.859 7    -45583.60549  20944464.89549
  23088554.898 3    -16615.293 3    -11070.58246  23088555.07846
  21170249.766 6     -9252.023 6     -6890.26248  21170246.89148
  24127641.656 5   -223975.508 5   -137625.47748  24127642.21148
  22695293.602 6   -224373.496 6   -158237.84847  22695290.81347
  23772008.938 5   -292468.152 5   -180975.47347  23772007.39147
  21705412.578 6   -193004.113 6   -129594.52349  21705413.07849
 20  5 16  5 13 35.0000000  0  9G01G03G07G08G11G17G22G28G30          0.000151268
  20161926.172 7    -99343.035 7    -69722.23449  20161927.89849
  23433452.656 5   -325763.359 5   -216386.17649  23433456.42649
  20944269.328 7    -66249.164 7    -46391.11749  20944267.96949
  23088507.805 4    -16861.465 4    -11262.40646  23088508.59446
  21170223.117 6     -9392.969 6     -7000.09848  21170220.62948
  24126963.359 5   -227536.582 5   -140400.33248  24126964.64548
  22694600.094 5   -228016.773 5   -161076.75847  22694597.77047
  23771127.813 5   -297100.418 5   -184585.03547  23771125.83647
  21704837.641 6   -196022.781 6   -131946.73449  21704838.67649
 20  5 16  5 13 36.0000000  0  9G01G03G07G08G11G17G22G28G30          0.000149927
  20161628.195 7   -100908.238 7    -70941.87149  20161630.00449
  23432531.297 5   -330606.109 5   -220159.74249  23432534.74249
  20944072.039 7    -67284.215 7    -47197.65249  20944070.45749
  23088461.484 4    -17107.000 4    -11453.72347  23088461.59047
  21170195.781 6     -9532.977 6     -7109.19948  21170193.77748
  24126286.789 5   -231096.895 5   -143174.60548  24126286.89548
  22693907.133 5   -231659.066 5   -163914.91847  22693904.97747
  23770245.711 5   -301732.063 5   -188194.10247  23770244.91047
  21704263.922 6   -199040.184 6   -134297.95749  21704264.49249
 20  5 16  5 13 37.0000000  0  9G01G03G07G08G11G17G22G28G30          0.000148584
  20161330.672 7   -102472.086 7    -72160.45349  20161332.62149
  23431609.867 5   -335448.070 5   -223932.69549  23431613.38749
  20943875.367 7    -68317.957 7    -48003.16449  20943874.26649
  23088415.344 4    -17351.793 4    -11644.47147  23088415.24247
  21170170.055 6     -9672.000 6     -7217.53548  21170167.41848
  24125609.375 5   -234656.348 5   -145948.20348  24125609.43048
  22693214.102 6   -235300.250 6   -166752.20747  22693211.80547
  23769364.297 5   -306363.195 5   -191802.78147  23769363.11747
  21703689.602 6   -202056.266 6   -136648.14849  21703690.44149
 20  5 16  5 13 38.0000000  0  9G01G03G07G08G11G17G22G28G30          0.000147243
  20161032.961 7   -104034.543 7    -73377.96549  20161035.10949
  23430688.078 5   -340289.273 5   -227705.06349  23430692.21149
  20943678.930 7    -69350.359 7    -48807.63749  20943677.94149
  23088368.172 2    -17595.984 2    -11834.74246  23088368.74246
  21170143.867 6     -9809.980 6     -7325.04348  21170141.07848
  24124931.977 5   -238214.953 5   -148721.13348  24124932.08648
  22692521.375 6   -238940.344 6   -169588.65247  22692519.37547
  23768483.305 6   -310993.594 6   -195410.89147  23768482.43047
  21703115.625 6   -205070.988 6   -138997.27749  21703116.81349
 20  5 16  5 13 39.0000000  0  9G01G03G07G08G11G17G22G28G30          0.000145903
  20160736.047 7   -105595.641 7    -74594.40649  20160737.77049
  23429767.828 5   -345129.668 5   -231476.78549  23429771.12549
  20943482.820 7    -70381.430 7    -49611.06649  20943481.56649
  23088321.766 2    -17839.480 2    -12024.47746  23088322.29346
  21170117.766 6     -9947.016 6     -7431.82048  21170115.14548
  24124255.203 5   -241772.746 5   -151493.44148  24124255.27348
  22691828.719 6   -242579.375 6   -172424.27047  22691826.55547
  23767602.570 5   -315623.406 5   -199018.53147  23767601.17247
  21702542.492 6   -208084.406 6   -141345.40649  21702543.24249
 20  5 16  5 13 40.0000000  0  9G01G03G07G08G11G17G22G28G30          0.000144564
  20160439.242 7   -107155.398 7    -75809.80549  20160441.47349
  23428846.102 5   -349969.328 5   -235247.94949  23428850.11749
  20943286.680 7    -71411.195 7    -50413.48049  20943285.36349
  23088275.789 3    -18082.355 3    -12213.71546  23088276.14546
  21170091.797 6    -10083.094 6     -7537.85948  21170089.46948
  24123578.055 5   -245329.711 5   -154265.09448  24123578.08648
  22691136.820 6   -246217.344 6   -175259.04747  22691133.96547
  23766721.734 5   -320252.617 5   -202625.69947  23766720.62147
  21701969.336 6   -211096.508 6   -143692.49649  21701969.79349
 20  5 16  5 13 41.0000000  0  9G01G03G07G08G11G17G22G28G30          0.000143223
  20160142.594 7   -108713.805 7    -77024.14549  20160144.94949
  23427925.391 5   -354808.219 5   -239018.50049  23427928.89849
  20943091.172 6    -72439.660 6    -51214.88349  20943089.56649
  23088229.844 2    -18324.496 2    -12402.38746  23088230.14546
  21170065.969 6    -10218.172 6     -7643.10948  21170063.57048
  24122901.156 5   -248885.855 5   -157036.12148  24122901.27048
  22690444.891 6   -249854.258 6   -178093.00447  22690442.33647
  23765840.695 6   -324881.199 6   -206232.38747  23765839.48847
  21701396.500 6   -214107.301 6   -146038.57449  21701397.28949
 20  5 16  5 13 42.0000000  0  9G01G03G07G08G11G17G22G28G30          0.000141884
  20159846.375 7   -110270.879 7    -78237.44149  20159848.55149
  23427005.203 5   -359646.363 5   -242788.48848  23427008.53148
  20942895.695 6    -73466.859 6    -52015.30149  20942893.71549
  23088184.180 2    -18566.145 2    -12590.70346  23088184.27746
  21170039.930 6    -10352.301 6     -7747.62148  21170037.82848
  24122224.547 5   -252441.250 5   -159806.55148  24122224.73448
  22689752.789 6   -253490.125 6   -180926.13747  22689750.20347
  23764960.219 5   -329509.211 5   -209838.62947  23764958.68447
  21700824.078 6   -217116.820 6   -148383.66049  21700824.25849
 20  5 16  5 13 43.0000000  0  9G01G03G07G08G11G17G22G28G30          0.000140545
  20159550.281 7   -111826.613 7    -79449.70349  20159551.99649
  23426084.609 5   -364483.762 5   -246557.89848  23426088.09848
  20942700.320 6    -74492.734 6    -52814.68449  20942698.80149
  23088137.813 4    -18806.996 4    -12778.39146  23088138.56646
  21170015.094 6    -10485.543 6     -7851.44548  21170012.70748
  24121548.211 5   -255995.773 5   -162576.28548  24121548.44148
  22689060.578 6   -257124.930 6   -183758.44547  22689058.73447
  23764079.500 5   -334136.598 5   -213444.37947  23764078.39547
  21700251.414 6   -220125.063 6   -150727.75849  21700251.82049
 20  5 16  5 13 44.0000000  0  9G01G03G07G08G11G17G22G28G30          0.000139206
  20159254.750 7   -113380.996 7    -80660.90649  20159256.59049
  23425163.688 5   -369320.418 5   -250326.72748  23425167.30548
  20942505.391 6    -75517.316 6    -53613.06649  20942504.04749
  23088092.688 4    -19047.301 4    -12965.67246  23088092.85946
  21169989.695 6    -10617.754 6     -7954.47748  21169987.07848
  24120871.797 5   -259549.531 5   -165345.44948  24120871.59448
  22688369.555 6   -260758.680 6   -186589.93447  22688367.28547
  23763199.117 5   -338763.391 5   -217049.66847  23763198.17647
  21699679.102 6   -223131.977 6   -153070.80549  21699679.68449
 20  5 16  5 13 45.0000000  0  9G01G03G07G08G11G17G22G28G30          0.000137867
  20158959.023 7   -114934.184 7    -81871.18049  20158961.10949
  23424243.859 5   -374156.438 5   -254095.05148  23424246.84848
  20942310.828 6    -76540.770 6    -54410.56349  20942309.41449
  23088046.906 3    -19287.020 3    -13152.46146  23088047.12146
  21169965.031 6    -10749.125 6     -8056.84448  21169962.36348
  24120196.398 5   -263102.578 5   -168114.06348  24120195.44148
  22687678.289 6   -264391.539 6   -189420.74247  22687676.09047
  23762318.750 5   -343389.664 5   -220654.55947  23762317.17247
  21699107.172 6   -226137.715 6   -155412.94549  21699107.45749
 20  5 16  5 13 46.0000000  0  9G01G03G07G08G11G17G22G28G30          0.000136530
  20158663.719 7   -116486.113 7    -83080.47349  20158665.86349
  23423323.711 5   -378991.801 5   -257862.85248  23423327.43048
  20942116.031 6    -77562.984 6    -55207.09449  20942114.20749
  23088001.406 3    -19526.203 3    -13338.83246  23088001.74246
  21169939.859 6    -10879.621 6     -8158.52348  21169937.38348
  24119519.906 5   -266654.910 5   -170882.10548  24119519.52348
  22686987.211 6   -268023.387 6   -192250.75047  22686985.19547
  23761438.148 5   -348015.496 5   -224259.10247  23761437.29347
  21698535.703 6   -229142.273 6   -157754.16049  21698536.03949
 20  5 16  5 13 47.0000000  0  9G01G03G07G08G11G17G22G28G30          0.000135193
  20158368.594 7   -118036.691 7    -84288.71949  20158370.95749
  23422403.273 5   -383826.402 5   -261630.06348  23422407.22348
  20941921.789 6    -78583.879 6    -56002.59449  20941920.33649
  23087956.102 2    -19764.754 2    -13524.70346  23087956.32846
  21169915.703 6    -11009.180 6     -8259.47348  21169912.78948
  24118843.875 5   -270206.418 5   -173649.49248  24118843.92248
  22686296.000 6   -271654.191 6   -195079.96547  22686294.37547
  23760558.055 5   -352640.684 5   -227863.13747  23760557.48447
  21697964.133 6   -232145.531 6   -160094.36749  21697964.54749
 20  5 16  5 13 48.0000000  0  9G01G03G07G08G11G17G22G28G30          0.000133856
  20158073.547 7   -119586.055 7    -85496.02049  20158075.36749
  23421483.672 5   -388660.324 5   -265396.75848  23421487.07848
  20941728.031 6    -79603.605 6    -56797.19549  20941726.19149
  23087910.172 2    -20002.734 2    -13710.12946  23087911.19546
  21169891.086 6    -11137.871 6     -8359.75448  21169888.75048
  24118167.563 5   -273757.203 5   -176416.33648  24118167.90648
  22685605.383 6   -275284.059 6   -197908.43847  22685603.36747
  23759678.070 5   -357265.355 5   -231466.78547  23759677.29747
  21697392.617 6   -235147.578 6   -162433.62549  21697393.48449
 20  5 16  5 13 49.0000000  0  9G01G03G07G08G11G17G22G28G30          0.000132519
  20157779.063 7   -121134.219 7    -86702.37949  20157781.12149
  23420563.805 5   -393493.723 5   -269163.05548  23420567.07848
  20941534.023 6    -80622.207 6    -57590.91449  20941532.64149
  23087865.117 1    -20240.316 1    -13895.28546  23087866.01646
  21169866.383 6    -11265.777 6     -8459.42248  21169863.94148
  24117492.664 5   -277307.445 5   -179182.77048  24117491.96548
  22684915.047 6   -278913.043 6   -200736.22347  22684913.13747
  23758798.070 5   -361889.605 5   -235070.10547  23758797.31347
  21696821.805 6   -238148.473 6   -164771.98049  21696822.54749
 20  5 16  5 13 50.0000000  0  9G01G03G07G08G11G17G22G28G30          0.000131182
  20157484.766 7   -122681.176 7    -87907.80149  20157486.68449
  23419643.992 5   -398326.457 5   -272928.81348  23419647.68448
  20941340.570 6    -81639.602 6    -58383.68049  20941338.79349
  23087819.828 2    -20477.316 2    -14079.96146  23087820.67246
  21169842.500 6    -11392.859 6     -8558.44948  21169839.84848
  24116817.734 5   -280856.906 5   -181948.57448  24116817.17648
  22684223.820 6   -282541.066 6   -203563.25047  22684222.23847
  23757918.313 5   -366513.398 5   -238673.05147  23757917.14147
  21696250.422 6   -241148.223 6   -167109.45349  21696251.64849
 20  5 16  5 13 51.0000000  0  9G01G03G07G08G11G17G22G28G30          0.000129847
  20157190.898 7   -124226.855 7    -89112.22349  20157192.43049
  23418724.719 5   -403158.500 5   -276694.03148  23418727.88748
  20941147.227 6    -82655.754 6    -59175.48449  20941145.50049
  23087775.750 2    -20713.719 2    -14264.15246  23087775.91446
  21169818.430 6    -11519.027 6     -8656.76248  21169816.14548
  24116142.219 5   -284405.652 5   -184713.83248  24116141.78548
  22683534.227 6   -286168.156 6   -206389.54747  22683531.81647
  23757038.719 5   -371136.625 5   -242275.57447  23757037.43447
  21695680.328 6   -244146.723 6   -169445.94949  21695680.73049
 20  5 16  5 13 52.0000000  0  9G01G03G07G08G11G17G22G28G30          0.000128511
  20156896.664 7   -125771.355 7    -90315.73049  20156898.50849
  23417806.195 5   -407989.922 5   -280458.77048  23417808.67248
  20940954.164 6    -83670.758 6    -59966.39849  20940952.94149
  23087730.898 1    -20949.633 1    -14447.98046  23087731.09046
  21169794.711 6    -11644.367 6     -8754.43448  21169791.93448
  24115467.031 5   -287953.695 5   -187478.54348  24115465.94548
  22682843.922 6   -289794.270 6   -209215.09047  22682841.98447
  23756159.438 5   -375759.383 5   -245877.72747  23756157.47747
  21695109.781 6   -247144.066 6   -171781.54749  21695110.53549
 20  5 16  5 13 53.0000000  0  9G01G03G07G08G11G17G22G28G30          0.000127176
  20156603.125 7   -127314.676 7    -91518.32049  20156605.11749
  23416886.117 5   -412820.789 5   -284223.08248  23416889.19948
  20940761.141 6    -84684.672 6    -60756.45749  20940759.65649
  23087685.977 2    -21185.133 2    -14631.50046  23087686.41446
  21169770.672 6    -11768.941 6     -8851.51248  21169768.30948
  24114792.094 5   -291501.148 5   -190242.78948  24114791.30948
  22682154.445 6   -293419.566 6   -212039.98847  22682151.96947
  23755279.555 5   -380381.766 5   -249479.57847  23755278.16847
  21694539.867 6   -250140.293 6   -174116.26649  21694540.56649
 20  5 16  5 13 54.0000000  0  9G01G03G07G08G11G17G22G28G30          0.000125839
  20156309.508 7   -128856.832 7    -92720.00449  20156311.48449
  23415967.188 5   -417651.031 5   -287986.90248  23415970.15648
  20940568.227 6    -85697.426 6    -61545.61749  20940566.47749
  23087640.789 2    -21420.109 2    -14814.59446  23087641.38746
  21169747.313 6    -11892.699 6     -8947.94548  21169744.89548
  24114116.898 5   -295047.922 5   -193006.51248  24114116.12148
  22681464.703 6   -297043.914 6   -214864.15247  22681462.63347
  23754400.359 5   -385003.664 5   -253081.05547  23754398.86747
  21693969.617 6   -253135.367 6   -176450.09049  21693970.46549
 20  5 16  5 13 55.0000000  0  9G01G03G07G08G11G17G22G28G30          0.000124506
  20156016.461 7   -130397.785 7    -93920.74649  20156018.47749
  23415047.734 5   -422480.727 5   -291750.29748  23415051.23048
  20940375.547 6    -86709.035 6    -62333.89149  20940374.03549
  23087595.578 2    -21654.645 2    -14997.34046  23087596.91446
  21169723.797 6    -12015.652 6     -9043.75048  21169721.51648
  24113442.227 5   -298594.039 5   -195769.71148  24113441.25048
  22680775.047 5   -300667.383 5   -217687.63747  22680772.75047
  23753520.688 6   -389625.117 6   -256682.18847  23753519.55147
  21693400.078 6   -256129.309 6   -178783.03149  21693400.94149
 20  5 16  5 13 56.0000000  0  9G01G03G07G08G11G17G22G28G30          0.000123171
  20155723.539 7   -131937.566 7    -95120.57449  20155725.51649
  23414128.906 5   -427309.816 5   -295513.20748  23414132.40248
  20940183.648 6    -87719.539 6    -63121.29349  20940182.21549
  23087550.844 2    -21888.652 2    -15179.67246  23087552.36346
  21169700.406 6    -12137.836 6     -9138.95748  21169697.71148
  24112767.805 5   -302139.539 5   -198532.44548  24112766.64548
  22680085.609 6   -304289.977 6   -220510.43847  22680083.23847
  23752641.289 6   -394246.133 6   -260282.97347  23752640.42647
  21692830.289 6   -259122.117 6   -181115.09049  21692831.17649
 20  5 16  5 13 57.0000000  0  9G01G03G07G08G11G17G22G28G30          0.000121838
  20155430.820 7   -133476.199 7    -96319.50449  20155432.46149
  23413209.914 5   -432138.297 5   -299275.65248  23413213.00448
  20939991.398 6    -88728.910 6    -63907.81649  20939989.85949
  23087506.594 2    -22122.152 2    -15361.64146  23087508.15646
  21169677.453 6    -12259.227 6     -9233.55148  21169675.19948
  24112093.313 5   -305684.387 5   -201294.66048  24112092.05148
  22679396.555 6   -307911.672 6   -223332.53547  22679394.22347
  23751761.805 5   -398866.707 5   -263883.43447  23751760.78547
  21692261.227 6   -262113.809 6   -183446.27749  21692262.12149
 20  5 16  5 13 58.0000000  0  9G01G03G07G08G11G17G22G28G30          0.000120504
  20155137.961 7   -135013.691 7    -97517.55149  20155139.99249
  23412291.227 5   -436966.254 5   -303037.69548  23412294.82048
  20939799.641 7    -89737.191 7    -64693.49649  20939798.33649
  23087461.961 2    -22355.250 2    -15543.28946  23087463.55146
  21169654.531 6    -12379.848 6     -9327.53548  21169651.50048
  24111418.594 5   -309228.645 5   -204056.41448  24111417.32048
  22678707.469 6   -311532.516 6   -226153.97748  22678704.88748
  23750883.320 6   -403486.898 6   -267483.57847  23750881.60247
  21691692.016 6   -265104.395 6   -185776.60949  21691692.63349
 20  5 16  5 13 59.0000000  0  9G01G03G07G08G11G17G22G28G30          0.000119171
  20154845.602 7   -136549.988 7    -98714.66449  20154847.82449
  23411372.391 5   -441793.582 5   -306799.24648  23411375.71548
  20939607.852 7    -90744.332 7    -65478.28549  20939606.29349
  23087417.695 2    -22587.848 2    -15724.50846  23087419.95346
  21169631.859 6    -12499.660 6     -9420.89848  21169629.33248
  24110744.031 5   -312772.273 5   -206817.68848  24110743.32048
  22678018.891 6   -315152.488 6   -228974.72747  22678016.37147
  23750003.516 6   -408106.645 6   -271083.38347  23750002.31647
  21691123.430 6   -268093.863 6   -188106.05949  21691123.75849
 20  5 16  5 14  0.0000000  0  9G01G03G07G08G11G17G22G28G30          0.000117838
  20154553.602 7   -138085.195 7    -99910.93049  20154555.60949
  23410453.867 5   -446620.402 5   -310560.43048  23410457.36748
  20939416.523 7    -91750.426 7    -66262.26649  20939415.08649
  23087374.352 1    -22820.063 1    -15905.45346  23087375.78946
  21169609.016 6    -12618.746 6     -9513.69148  21169606.65248
  24110070.234 5   -316315.285 5   -209578.49248  24110068.88348
  22677329.320 6   -318771.621 6   -231794.83247  22677327.55147
  23749125.383 5   -412726.043 5   -274682.91047  23749123.86347
  21690554.922 6   -271082.234 6   -190434.66849  21690555.74249
 20  5 16  5 14  1.0000000  0  9G01G03G07G08G11G17G22G28G30          0.000116505
  20154261.430 7   -139619.234 7   -101106.28949  20154263.72749
  23409535.531 5   -451446.680 5   -314321.17648  23409538.59048
  20939225.172 6    -92755.406 6    -67045.37149  20939223.84049
  23087330.648 1    -23051.844 1    -16086.05546  23087331.60246
  21169586.445 6    -12737.109 6     -9605.92648  21169584.28548
  24109396.281 5   -319857.703 5   -212338.81348  24109395.14848
  22676641.547 6   -322389.914 6   -234614.27747  22676639.34047
  23748246.164 6   -417345.020 6   -278282.11747  23748244.68447
  21689986.102 6   -274069.531 6   -192762.42649  21689986.70349
 20  5 16  5 14  2.0000000  0  9G01G03G07G08G11G17G22G28G30          0.000115171
  20153969.695 7   -141152.195 7   -102300.80149  20153971.91449
  23408617.617 5   -456272.445 5   -318081.51648  23408620.81348
  20939033.852 7    -93759.348 7    -67827.66049  20939032.61349
  23087285.523 1    -23283.156 1    -16266.30946  23087287.32846
  21169563.891 6    -12854.742 6     -9697.59048  21169561.69548
  24108722.516 5   -323399.516 5   -215098.66448  24108721.22348
  22675953.023 5   -326007.371 5   -237433.06647  22675950.72747
  23747366.867 5   -421963.629 5   -281881.02747  23747366.16047
  21689417.922 6   -277055.766 6   -195089.36749  21689418.48049
 20  5 16  5 14  3.0000000  0  9G01G03G07G08G11G17G22G28G30          0.000113840
  20153678.453 7   -142684.004 7   -103494.42249  20153680.74649
  23407698.898 5   -461097.602 5   -321841.37948  23407702.55148
  20938843.102 7    -94762.145 7    -68609.06649  20938841.36349
  23087241.305 1    -23514.063 1    -16446.26645  23087243.70345
  21169541.938 6    -12971.570 6     -9788.62548  21169539.05548
  24108048.414 5   -326940.758 5   -217858.08648  24108047.08248
  22675265.094 6   -329623.977 6   -240251.20747  22675262.69147
  23746487.930 5   -426581.797 5   -285479.60947  23746486.88347
  21688850.188 6   -280040.871 6   -197415.42249  21688850.55149
 20  5 16  5 14  4.0000000  0  9G01G03G07G08G11G17G22G28G30          0.000112507
  20153387.164 7   -144214.711 7   -104687.18049  20153389.03149
  23406780.695 5   -465922.281 5   -325600.86348  23406784.73448
  20938652.711 6    -95763.938 6    -69389.68849  20938650.75449
  23087197.813 2    -23744.543 2    -16625.85545  23087199.57045
  21169519.938 6    -13087.707 6     -9879.12148  21169517.25048
  24107374.961 5   -330481.367 5   -220616.99648  24107373.36348
  22674576.734 6   -333239.746 6   -243068.68847  22674574.22347
  23745609.070 6   -431199.625 6   -289077.91447  23745608.52747
  21688282.141 6   -283024.922 6   -199740.66449  21688282.75449
 20  5 16  5 14  5.0000000  0  9G01G03G07G08G11G17G22G28G30          0.000111176
  20153096.086 7   -145744.316 7   -105879.08649  20153098.03949
  23405862.820 5   -470746.441 5   -329359.93848  23405866.33648
  20938462.180 6    -96764.645 6    -70169.45749  20938460.63349
  23087154.742 2    -23974.645 2    -16805.15245  23087155.63345
  21169497.563 6    -13203.133 6     -9969.06348  21169495.45748
  24106701.422 5   -334021.449 5   -223375.50048  24106700.06348
  22673889.242 6   -336854.742 6   -245885.57047  22673886.59847
  23744731.172 5   -435817.086 5   -292675.93447  23744729.48047
  21687714.563 6   -286007.922 6   -202065.07449  21687715.10549
 20  5 16  5 14  6.0000000  0  9G01G03G07G08G11G17G22G28G30          0.000109844
  20152805.055 7   -147272.797 7   -107070.10549  20152806.98449
  23404944.883 5   -475570.031 5   -333118.56348  23404948.18848
  20938272.227 6    -97764.262 6    -70948.38349  20938270.33249
  23087112.023 2    -24204.352 2    -16984.14145  23087111.89545
  21169476.211 6    -13317.777 6    -10058.39548  21169473.66448
  24106027.789 5   -337560.934 5   -226133.55148  24106026.27748
  22673201.188 6   -340468.848 6   -248701.75847  22673198.68447
  23743852.203 5   -440434.141 5   -296273.62947  23743850.89147
  21687147.016 6   -288989.813 6   -204388.63349  21687147.49249
 20  5 16  5 14  7.0000000  0  9G01G03G07G08G11G17G22G28G30          0.000108513
  20152514.375 7   -148800.133 7   -108260.23849  20152516.62549
  23404027.586 5   -480393.109 5   -336876.80949  23404030.45749
  20938081.930 7    -98762.813 7    -71726.47349  20938080.32449
  23087067.594 1    -24433.477 1    -17162.66445  23087068.42645
  21169454.250 6    -13431.707 6    -10147.17248  21169451.50048
  24105353.688 5   -341099.797 5   -228891.11348  24105352.88748
  22672513.773 6   -344082.141 6   -251517.30947  22672510.98847
  23742973.508 5   -445050.836 5   -299871.04747  23742972.72747
  21686579.664 6   -291970.633 6   -206711.34449  21686580.25449
 20  5 16  5 14  8.0000000  0  9G01G03G07G08G11G17G22G28G30          0.000107183
  20152224.125 7   -150326.484 7   -109449.59849  20152226.12549
  23403110.125 5   -485215.742 5   -340634.70749  23403112.84449
  20937892.211 7    -99760.402 7    -72503.82049  20937890.37949
  23087022.656 1    -24662.340 1    -17340.98445  23087025.17645
  21169432.781 6    -13544.988 6    -10235.44948  21169430.33648
  24104681.297 5   -344638.199 5   -231648.32848  24104679.50848
  22671826.039 6   -347694.676 6   -254332.27347  22671823.49247
  23742094.773 5   -449667.203 5   -303468.22347  23742094.20747
  21686013.016 6   -294950.484 6   -209033.29749  21686013.28149
 20  5 16  5 14  9.0000000  0  9G01G03G07G08G11G17G22G28G30          0.000105852
  20151933.914 7   -151851.727 7   -110638.09849  20151935.94949
  23402192.352 5   -490037.949 5   -344392.26648  23402195.65648
  20937702.297 7   -100756.965 7    -73280.35949  20937701.06349
  23086980.789 1    -24890.883 1    -17519.08645  23086980.95345
  21169411.375 6    -13657.570 6    -10323.17648  21169408.82448
  24104008.023 5   -348176.051 5   -234405.11348  24104006.58648
  22671139.102 6   -351306.434 6   -257146.63348  22671136.70348
  23741216.672 5   -454283.273 5   -307065.17247  23741215.80147
  21685446.211 6   -297929.336 6   -211354.47749  21685446.43449
 20  5 16  5 14 10.0000000  0  9G01G03G07G08G11G17G22G28G30          0.000104525
  20151643.781 7   -153375.922 7   -111825.78949  20151646.16449
  23401274.539 5   -494859.613 5   -348149.35248  23401277.86348
  20937513.164 6   -101752.492 6    -74056.08649  20937512.10249
  23086940.50811    -25119.13311    -17696.89155  23086938.48455
  21169389.602 6    -13769.480 6    -10410.37148  21169387.57448
  24103334.219 6   -351713.371 6   -237161.48849  24103333.45349
  22670451.992 6   -354917.414 6   -259960.39148  22670449.48048
  23740338.594 6   -458899.023 6   -310661.85547  23740337.67647
  21684879.398 6   -300907.098 6   -213674.79349  21684880.03149
 20  5 16  5 14 11.0000000  0  9G01G03G07G08G11G17G22G28G30          0.000103191
  20151353.766 7   -154899.098 7   -113012.68849  20151356.47749
  23400356.594 4   -499680.840 4   -351906.11348  23400360.30548
  20937323.883 6   -102747.035 6    -74831.04749  20937322.41449
  23086898.000 1    -25346.914 1                
  21169368.727 6    -13880.742 6    -10497.07448  21169366.48448
  24102661.578 6   -355250.211 6   -239917.47749  24102660.58649
  22669765.000 6   -358527.660 6   -262773.57048  22669762.35948
  23739460.398 6   -463514.449 6   -314258.29347  23739459.11347
  21684312.594 6   -303883.906 6   -215994.37149  21684313.23849
 20  5 16  5 14 12.0000000  0  9G01G03G07G08G11G17G22G28G30          0.000101862
  20151064.281 7   -156421.266 7   -114198.78949  20151065.93849
  23399439.242 5   -504501.629 5   -355662.56348  23399443.09848
  20937134.992 6   -103740.609 6    -75605.26249  20937133.48449
  23086853.836 1    -25574.477 1                
  21169347.258 6    -13991.375 6    -10583.27348  21169345.26648
  24101987.891 6   -358786.555 6   -242673.07449  24101988.08649
  22669078.094 6   -362137.156 6   -265586.16048  22669075.35548
  23738581.992 6   -468129.594 6   -317854.50447  23738580.64547
  21683746.453 6   -306859.715 6   -218313.18449  21683747.24649
 20  5 16  5 14 13.0000000  0  9G01G03G07G08G11G17G22G28G30          0.000100533
  20150774.938 7   -157942.438 7   -115384.11749  20150776.85949
  23398522.406 5   -509322.012 5   -359418.71148  23398525.89848
  20936946.172 6   -104733.262 6    -76378.75449  20936944.24249
  23086811.766 1    -25801.637 1                
  21169326.539 6    -14101.422 6    -10669.02348  21169324.51248
  24101315.289 6   -362322.434 6   -245428.30549  24101315.39849
