     2.10           OBSERVATION DATA    GPS(GPS)            RINEX VERSION / TYPE
cnvtToRINEX 2.50.0  convertToRINEX OPR  30-May-18 13:31 UTC PGM / RUN BY / DATE 
----------------------------------------------------------- COMMENT             
LP07                                                        MARKER NAME         
LP07                                                        MARKER NUMBER       
GNSS Observer       Trimble                                 OBSERVER / AGENCY   
0440101800          5700                2.32                REC # / TYPE / VERS 
                    TRM39105.00                             ANT # / TYPE        
 -2968138.4889  5004396.2634  2604531.7612                  APPROX POSITION XYZ 
        0.1030        0.0000        0.0000                  ANTENNA: DELTA H/E/N
     1     1     0                                          WAVELENGTH FACT L1/2
     4    C1    L1    L2    P2                              # / TYPES OF OBSERV 
  2018     5    30     0    20   20.0000000     GPS         TIME OF FIRST OBS   
  2018     5    30     1    35   40.0000000     GPS         TIME OF LAST OBS    
     0                                                      RCV CLOCK OFFS APPL 
    17                                                      LEAP SECONDS        
    11                                                      # OF SATELLITES     
   G03   887   887   887   887                              PRN / # OF OBS      
   G08   439   439   435   435                              PRN / # OF OBS      
   G14   905   905   905   905                              PRN / # OF OBS      
   G16   905   905   905   905                              PRN / # OF OBS      
   G22   719   717   682   682                              PRN / # OF OBS      
   G23   905   905   905   905                              PRN / # OF OBS      
   G26   905   905   905   905                              PRN / # OF OBS      
   G27   905   905   905   905                              PRN / # OF OBS      
   G29   387   387   387   387                              PRN / # OF OBS      
   G31   905   905   905   905                              PRN / # OF OBS      
   G32   662   656   532   532                              PRN / # OF OBS      
CARRIER PHASE MEASUREMENTS: PHASE SHIFTS REMOVED            COMMENT             
                                                            END OF HEADER       
 18  5 30  0 20 20.0000000  0  8G14G16G23G26G27G29G31G32             0.000010054
  20577852.35916    -56408.34816    -34596.48458  20577850.80158
  20704470.50017   -145548.21117    -89450.76658  20704468.76658
  24657995.52315   -260293.54715   -134322.39556  24657993.08256
  20623893.11717    -71810.37517    -44064.23059  20623894.65259
  22993242.60215   -267657.55915   -165351.00457  22993243.61357
  23543172.40615     -5442.37515     -3067.62957  23543171.65257
  21604216.70317    -56502.77017    -35416.32858  21604214.98858
  22467940.57016     21333.06616     12956.86757  22467941.34457
 18  5 30  0 20 25.0000000  0  8G14G16G23G26G27G29G31G32             0.000002001
  20576594.758 6    -63016.883 6    -39745.97748  20576593.19148
  20701264.422 7   -162397.328 7   -102579.94148  20701262.40648
  24652308.906 5   -290178.492 5   -157609.34446  24652306.39146
  20622296.023 7    -80202.660 7    -50603.67249  20622297.91449
  22987371.953 5   -298510.551 5   -189392.30147  22987372.78547
  23543019.195 6     -6246.703 6     -3694.39847  23543018.34047
  21602279.844 7    -66680.418 7    -43346.94548  21602278.40248
  22468366.789 5     23572.645 5     14702.02346  22468367.28146
 18  5 30  0 20 30.0000000  0  8G14G16G23G26G27G29G31G32            -0.000006079
  20575331.930 6    -69653.168 6    -44917.13748  20575330.54748
  20698052.391 7   -179276.230 7   -115732.34048  20698050.50848
  24646614.719 5   -320103.391 5   -180927.43846  24646612.07046
  20620692.617 7    -88628.727 7    -57169.43049  20620694.34049
  22981493.805 5   -329402.078 5   -213463.63347  22981493.70347
  23542859.758 6     -7081.398 6     -4344.80146  23542859.45746
  21600335.570 7    -76897.527 7    -51308.36348  21600334.07848
  22468786.703 5     25778.984 5     16421.19947  22468787.14147
 18  5 30  0 20 35.0000000  0  8G14G16G23G26G27G29G31G32            -0.000014185
  20574063.930 7    -76315.691 7    -50108.71548  20574062.71948
  20694835.102 6   -196183.418 6   -128906.76248  20694832.96548
  24640912.750 5   -350066.770 5   -204275.55546  24640910.06346
  20619082.984 7    -97087.074 7    -63760.35949  20619084.95749
  22975607.359 5   -360330.773 5   -237563.92647  22975608.58647
  23542695.492 5     -7944.977 5     -5017.71146  23542695.38346
  21598384.023 7    -87152.543 7    -59299.27348  21598382.39148
  22469200.398 5     27953.445 5     18115.57047  22469201.27747
 18  5 30  0 20 40.0000000  0  8G14G16G23G26G27G29G31G32            -0.000022316
  20572791.703 7    -83003.641 7    -55320.10948  20572790.46948
  20691612.844 6   -213118.098 6   -142102.62548  20691610.28548
  24635203.633 4   -380067.711 4   -227652.91446  24635201.03546
  20617467.047 7   -105576.879 7    -70375.78949  20617469.36749
  22969714.781 6   -391295.875 6   -261692.56647  22969715.95347
  23542525.633 5     -8836.598 5     -5712.49246  23542525.20746
  21596425.438 7    -97444.715 7    -67319.14148  21596423.77748
  22469608.219 6     30097.074 6     19785.92647  22469609.52347
 18  5 30  0 20 45.0000000  0  8G14G16G23G26G27G29G31G32            -0.000030472
  20571514.578 7    -89716.109 7    -60550.60248  20571513.09048
  20688384.602 6   -230079.383 6   -155319.21148  20688382.66848
  24629488.031 5   -410105.398 5   -251058.93046  24629485.64146
  20615845.875 7   -114097.262 7    -77015.04749  20615848.21149
  22963815.594 6   -422296.238 6   -285848.70747  22963816.84047
  23542351.070 5     -9755.457 5     -6428.51246  23542351.11746
  21594459.813 7   -107773.082 7    -75367.23048  21594458.44148
  22470010.500 6     32210.637 6     21432.84047  22470011.48847
 18  5 30  0 20 50.0000000  0 10G03G14G16G22G23G26G27G29G31G32      -0.000038652
  23750146.71114    -75605.15614    -44804.66057  23750148.19557
  20570232.336 6    -96452.398 6    -65799.65648  20570231.03948
  20685152.414 6   -247066.535 6   -168555.94948  20685150.26648
  23615084.07815    -50203.37115    -29797.02757  23615081.17657
  24623765.250 5   -440179.039 5   -274492.94946  24623762.82046
  20614218.758 7   -122647.527 7    -83677.59048  20614220.76248
  22957910.281 6   -453331.266 6   -310031.84447  22957911.39847
  23542171.586 5    -10700.770 5     -7165.10247  23542171.58647
  21592487.727 7   -118136.988 7    -83443.00448  21592486.23848
  22470406.586 6     34294.809 6     23056.85248  22470408.23848
 18  5 30  0 20 55.0000000  0 10G03G14G16G22G23G26G27G29G31G32      -0.000046856
  23747960.844 5    -87092.785 5    -53756.06347  23747961.88747
  20568945.969 6   -103212.336 6    -71067.15248  20568944.62548
  20681914.680 6   -264079.402 6   -181812.73048  20681913.07048
  23613623.023 5    -57881.863 5    -35780.27047  23613619.63347
  24618035.969 4   -470288.473 4   -297954.82446  24618033.14546
  20612586.063 7   -131227.516 7    -90363.30148  20612587.75848
  22951997.672 6   -484400.797 6   -334241.88347  22951999.07847
  23541986.836 5    -11672.434 5     -7922.25447  23541986.44547
  21590508.859 7   -128536.227 7    -91546.30948  21590507.10248
  22470797.898 6     36349.777 6     24658.12147  22470799.44547
 18  5 30  0 21  0.0000000  0 10G03G14G16G22G23G26G27G29G31G32      -0.000055084
  23745769.375 5    -98605.055 5    -62726.66047  23745771.38347
  20567655.789 6   -109994.746 6    -76352.15648  20567653.87548
  20678672.852 6   -281116.816 6   -195088.64548  20678670.85548
  23612156.758 5    -65589.074 5    -41785.89147  23612152.78147
  24612298.938 5   -500432.469 5   -321443.68046  24612297.04346
  20610947.742 7   -139836.047 7    -97071.24648  20610950.09448
  22946078.914 6   -515503.559 6   -358477.80947  22946080.61747
  23541796.852 5    -12669.223 5     -8698.98847  23541796.20747
  21588523.594 7   -138969.652 7    -99676.25448  21588521.86348
  22471183.352 6     38376.727 6     26237.54347  22471185.52747
 18  5 30  0 21  5.0000000  0 10G03G14G16G22G23G26G27G29G31G32      -0.000063335
  23743574.320 5   -110142.391 5    -71716.80947  23743575.70347
  20566360.484 7   -116800.051 7    -81654.98848  20566358.60948
  20675425.742 6   -298179.199 6   -208384.01248  20675423.80548
  23610683.836 5    -73325.484 5    -47814.28147  23610680.30947
  24606556.539 5   -530611.563 5   -344959.85246  24606554.23446
  20609304.250 7   -148473.559 7   -103801.78148  20609306.23448
  22940153.891 6   -546640.066 6   -382740.02747  22940155.67647
  23541601.977 5    -13691.617 5     -9495.65247  23541601.59847
  21586532.000 7   -149437.645 7   -107833.13348  21586529.60548
  22471563.695 6     40375.145 6     27794.74647  22471565.48047
 18  5 30  0 21 10.0000000  0 10G03G14G16G22G23G26G27G29G31G32      -0.000071611
  23741374.141 5   -121705.070 5    -80726.68047  23741375.74247
  20565060.844 7   -123628.570 7    -86975.92248  20565059.49648
  20672174.367 6   -315266.840 6   -221699.05548  20672172.63348
  23609206.227 5    -81091.324 5    -53865.59447  23609202.51647
  24600807.203 5   -560825.859 5   -368503.48046  24600804.68046
  20607654.984 7   -157140.316 7   -110555.10249  20607657.08249
  22934222.039 6   -577810.496 6   -407028.69147  22934223.92247
  23541403.070 5    -14739.852 5    -10312.45747  23541402.31347
  21584533.102 7   -159940.523 7   -116017.20748  21584531.00048
  22471938.594 6     42344.855 6     29329.57047  22471940.33247
 18  5 30  0 21 15.0000000  0 10G03G14G16G22G23G26G27G29G31G32      -0.000079908
  23739168.977 4   -133292.422 4    -89755.79747  23739170.39147
  20563757.273 6   -130479.551 6    -92314.35248  20563755.56648
  20668917.836 6   -332379.008 6   -235033.21148  20668915.98048
  23607723.180 5    -88885.871 5    -59939.26647  23607719.45347
  24595050.820 5   -591074.684 5   -392073.96946  24595048.77346
  20606000.609 7   -165835.660 7   -117330.69548  20606002.20748
  22928284.945 6   -609014.172 6   -431343.25047  22928286.08247
  23541198.602 5    -15813.273 5    -11148.90247  23541198.05547
  21582527.922 7   -170477.520 7   -124227.85248  21582525.60248
  22472307.445 6     44286.484 6     30842.50847  22472310.12147
 18  5 30  0 21 20.0000000  0 10G03G14G16G22G23G26G27G29G31G32      -0.000088230
  23736959.570 5   -144903.109 5    -98803.08647  23736960.83247
  20562449.836 6   -137351.742 6    -97669.30148  20562447.85948
  20665657.258 7   -349514.406 7   -248385.46548  20665654.91448
  23606233.641 5    -96707.883 5    -66034.34047  23606230.68447
  24589288.133 4   -621356.758 4   -415670.40646  24589285.50846
  20604340.703 7   -174558.266 7   -124127.53548  20604343.04748
  22922340.563 6   -640249.707 6   -455682.64147  22922342.38347
  23540990.039 6    -16910.488 6    -12003.85546  23540989.19546
  21580516.461 7   -181047.355 7   -132464.09448  21580514.52348
  22472672.188 6     46201.344 6     32334.59447  22472674.24247
 18  5 30  0 21 25.0000000  0 10G03G14G16G22G23G26G27G29G31G32      -0.000096575
  23734745.570 5   -156537.172 5   -107868.60547  23734747.29347
  20561137.734 6   -144245.035 6   -103040.69548  20561136.13748
  20662392.078 7   -366672.992 7   -261755.80148  20662389.80148
  23604740.781 5   -104557.359 5    -72150.80947  23604737.06647
  24583519.273 4   -651671.906 4   -439292.57446  24583517.27346
  20602675.266 7   -183308.098 7   -130945.58648  20602677.32848
  22916391.047 5   -671517.191 5   -480046.93047  22916392.18447
  23540776.500 6    -18031.625 6    -12877.49647  23540776.25047
  21578499.133 7   -191650.004 7   -140725.90248  21578496.89848
  22473031.250 6     48089.484 6     33805.86747  22473033.92647
 18  5 30  0 21 30.0000000  0 10G03G14G16G22G23G26G27G29G31G32      -0.000104940
  23732527.477 5   -168193.840 5   -116951.74647  23732528.60247
  20559822.219 7   -151158.762 7   -108428.03148  20559820.63348
  20659122.367 6   -383854.105 6   -275143.68848  20659120.39848
  23603242.211 5   -112433.535 5    -78288.11347  23603238.71147
  24577744.609 4   -682019.684 4   -462940.19946  24577742.32046
  20601005.375 7   -192084.488 7   -137784.34049  20601007.73049
  22910434.789 6   -702815.730 6   -504435.43047  22910435.67247
  23540559.305 6    -19175.945 6    -13769.17647  23540558.43447
  21576475.219 7   -202284.762 7   -149012.72348  21576473.27048
  22473385.719 5     49951.617 5     35256.87147  22473387.68447
 18  5 30  0 21 35.0000000  0 10G03G14G16G22G23G26G27G29G31G32      -0.000113327
  23730304.500 5   -179872.891 5   -126052.25847  23730306.39547
  20558502.516 6   -158092.570 6   -113830.99248  20558501.02048
  20655848.922 7   -401057.469 7   -288548.89848  20655847.27748
  23601737.898 5   -120336.184 5    -84445.98447  23601734.92247
  24571963.070 4   -712399.582 4   -486612.79346  24571961.11746
  20599329.969 7   -200887.176 7   -144643.56348  20599332.16048
  22904473.266 4   -734145.082 4   -528847.85546  22904474.59846
  23540337.500 6    -20343.145 6    -14678.61346  23540336.59846
  21574445.492 7   -212951.316 7   -157324.29748  21574443.66448
  22473735.914 6     51787.988 6     36687.78547  22473737.48847
 18  5 30  0 21 40.0000000  0 10G03G14G16G22G23G26G27G29G31G32      -0.000121737
  23728077.867 5   -191574.516 5   -135170.44547  23728079.81347
  20557179.281 6   -165046.836 6   -119249.92248  20557178.04748
  20652570.992 7   -418283.293 7   -301971.62948  20652569.17248
  23600229.477 5   -128265.551 5    -90624.75046  23600226.13746
  24566175.570 4   -742811.871 4   -510310.68046  24566174.18846
  20597650.180 7   -209716.340 7   -151523.44548  20597652.46148
  22898505.289 5   -765505.563 5   -553284.62546  22898506.97346
  23540110.250 5    -21533.426 5    -15606.13346  23540110.16046
  21572409.633 7   -223649.883 7   -165660.86347  21572407.68447
  22474080.180 6     53598.293 6     38098.41447  22474082.33247
 18  5 30  0 21 45.0000000  0 10G03G14G16G22G23G26G27G29G31G32      -0.000130167
  23725845.883 5   -203298.098 5   -144305.71147  23725848.86347
  20555852.219 7   -172020.977 7   -124684.32448  20555850.93848
  20649288.547 6   -435531.039 6   -315411.42648  20649287.07848
  23598714.641 5   -136221.059 5    -96823.83647  23598712.05547
  24560381.555 4   -773255.820 4   -534033.26646  24560380.81346
  20595965.289 7   -218571.484 7   -158423.57849  20595966.78549
  22892532.063 6   -796896.578 6   -577745.15647  22892533.34047
  23539879.469 6    -22746.301 6    -16551.28547  23539878.92647
  21570367.766 7   -234379.949 7   -174021.98048  21570365.68848
  22474419.695 6     55383.023 6     39489.08647  22474421.36347
 18  5 30  0 21 50.0000000  0 10G03G14G16G22G23G26G27G29G31G32      -0.000138620
  23723612.227 4   -215043.270 4   -153457.81347  23723613.59447
  20554521.656 7   -179014.313 7   -130133.68048  20554520.25848
  20646002.672 6   -452800.066 6   -328867.80148  20646001.12148
  23597196.258 4   -144202.125 4   -103042.84847  23597193.88347
  24554583.320 4   -803731.227 4   -557780.32446  24554581.14846
  20594275.055 7   -227452.012 7   -165343.47748  20594277.30948
  22886552.477 6   -828317.406 6   -602228.92647  22886554.33647
  23539644.289 6    -23981.145 6    -17513.51647  23539644.35547
  21568319.883 7   -245140.828 7   -182407.08248  21568318.30548
  22474754.641 6     57142.969 6     40860.46948  22474756.22748
 18  5 30  0 21 55.0000000  0 10G03G14G16G22G23G26G27G29G31G32      -0.000147095
  23721373.141 3   -226809.461 3   -162626.26647  23721374.25447
  20553187.125 6   -186026.449 6   -135597.69148  20553186.13348
  20642712.656 6   -470089.945 6   -342340.43848  20642710.85248
  23595673.664 4   -152208.367 4   -109281.49647  23595670.53947
  24548778.047 3   -834237.258 3   -581551.27746  24548775.92246
  20592580.539 7   -236357.473 7   -172282.79749  20592582.85549
  22880567.781 6   -859767.691 6   -626735.65247  22880569.34847
  23539404.906 5    -25237.578 5    -18492.55147  23539405.11747
  21566266.430 7   -255932.133 7   -190815.89148  21566264.46148
  22475084.742 6     58878.445 6     42212.76648  22475086.68048
 18  5 30  0 22  0.0000000  0 10G03G14G16G22G23G26G27G29G31G32      -0.000155590
  23719130.547 3   -238596.813 3   -171811.19547  23719131.39547
  20551849.195 6   -193057.543 6   -141076.46948  20551847.92648
  20639418.305 6   -487400.879 6   -355829.48448  20639416.52348
  23594144.875 4   -160239.874 4   -115539.81847  23594142.73047
  24542966.758 4   -864774.250 4   -605346.31646  24542964.85946
  20590881.547 7   -245288.082 7   -179241.71548  20590882.86748
  22874577.516 6   -891247.582 6   -651265.44947  22874578.95347
  23539161.836 6    -26515.773 6    -19488.56347  23539161.92647
  21564206.969 7   -266754.051 7   -199248.57848  21564204.81648
  22475410.273 6     60589.336 6     43545.93048  22475412.27048
 18  5 30  0 22  5.0000000  0 10G03G14G16G22G23G26G27G29G31G32      -0.000164104
  23716883.633 4   -250404.941 4   -181012.32847  23716884.14847
  20550507.344 6   -200107.145 6   -146569.66448  20550506.17248
  20636120.305 6   -504732.453 6   -369334.60248  20636118.53948
  23592612.234 3   -168296.305 3   -121817.59047  23592609.38747
  24537150.039 4   -895341.695 4   -629165.17246  24537148.64146
  20589177.273 7   -254243.363 7   -186219.86348  20589179.07848
  22868581.500 6   -922756.555 6   -675817.89847  22868583.15647
  23538914.477 6    -27815.227 6    -20501.10947  23538914.79347
  21562141.875 7   -277606.094 7   -207704.69548  21562140.24248
  22475731.500 6     62275.980 6     44860.19548  22475733.06348
 18  5 30  0 22 10.0000000  0 10G03G14G16G22G23G26G27G29G31G32      -0.000172642
  23714632.586 3   -262234.074 3   -190229.82847  23714633.32047
  20549162.758 6   -207175.516 6   -152077.48448  20549161.78148
  20632818.297 6   -522084.863 6   -382855.96948  20632816.74648
  23591074.250 4   -176377.910 4   -128114.96947  23591072.08247
  24531327.875 4   -925939.758 4   -653007.75046  24531325.77746
  20587468.188 7   -263223.598 7   -193217.45349  20587470.15649
  22862579.516 6   -954294.875 6   -700393.21547  22862581.69547
  23538663.547 6    -29136.250 6    -21530.48047  23538663.47747
  21560071.398 7   -288488.500 7   -216184.50048  21560069.65648
  22476047.773 6     63938.211 6     46155.43448  22476049.60548
 18  5 30  0 22 15.0000000  0 10G03G14G16G22G23G26G27G29G31G32      -0.000181198
  23712377.734 3   -274082.910 3   -199462.70347  23712378.29347
  20547814.289 6   -214261.383 6   -157598.95348  20547812.71548
  20629512.578 7   -539456.832 7   -396392.57048  20629510.23048
  23589531.648 4   -184483.324 4   -134430.90247  23589529.48847
  24525499.430 4   -956567.184 4   -676873.25046  24525497.32446
  20585755.008 7   -272227.469 7   -200233.44949  20585756.47349
  22856573.008 6   -985861.215 6   -724990.35247  22856574.91847
  23538408.273 6    -30477.520 6    -22575.62547  23538407.81347
  21557994.742 7   -299399.984 7   -224686.95748  21557993.16848
  22476359.594 6     65577.281 6     47432.62148  22476361.53948
 18  5 30  0 22 20.0000000  0 10G03G14G16G22G23G26G27G29G31G32      -0.000189775
  23710119.602 4   -285951.621 4   -208711.05547  23710119.73447
  20546462.172 6   -221364.867 6   -163134.13348  20546460.71948
  20626203.008 7   -556848.539 7   -409944.55948  20626200.89148
  23587984.813 5   -192612.773 5   -140765.54347  23587982.79347
  24519665.609 4   -987224.141 4   -700761.73446  24519662.93046
  20584037.008 7   -281255.172 7   -207268.02748  20584038.78148
  22850560.813 6  -1017455.738 6   -749609.43847  22850562.53947
  23538149.375 6    -31839.203 6    -23636.69147  23538149.12947
  21555912.867 7   -310340.590 7   -233212.11348  21555910.98448
  22476667.773 6     67193.039 6     48691.64848  22476669.20748
 18  5 30  0 22 25.0000000  0 10G03G14G16G22G23G26G27G29G31G32      -0.000198372
  23707857.188 4   -297839.059 4   -217974.00847  23707857.93047
  20545107.516 6   -228484.848 6   -168682.18048  20545106.27748
  20622889.828 6   -574258.781 6   -423510.98048  20622887.66448
  23586433.438 5   -200765.109 5   -147118.02047  23586431.60947
  24513825.898 3  -1017909.508 3   -724672.39146  24513823.92246
  20582314.906 7   -290305.496 7   -214320.23448  20582316.85248
  22844543.391 5  -1049077.215 5   -774249.55147  22844545.03947
  23537885.953 6    -33220.215 6    -24712.78947  23537886.07047
  21553825.789 7   -321309.301 7   -241759.15648  21553823.98448
  22476970.391 6     68786.629 6     49933.39148  22476972.40648
 18  5 30  0 22 30.0000000  0 10G03G14G16G22G23G26G27G29G31G32      -0.000206989
  23705591.336 4   -309745.570 4   -227251.81647  23705591.87947
  20543749.406 6   -235621.672 6   -174243.34848  20543748.12948
  20619573.305 6   -591687.996 6   -437092.18048  20619570.89848
  23584877.883 5   -208940.715 5   -153488.62947  23584876.14847
  24507981.320 3  -1048623.645 3   -748605.46546  24507979.30146
  20580588.391 7   -299378.906 7   -221390.42648  20580590.10248
  22838520.414 5  -1080725.621 5   -798910.30548  22838522.31348
  23537619.484 6    -34620.945 6    -25804.28147  23537619.19947
  21551732.883 7   -332306.535 7   -250328.43448  21551730.94948
  22477269.688 6     70357.656 6     51157.55548  22477271.68048
 18  5 30  0 22 35.0000000  0 10G03G14G16G22G23G26G27G29G31G32      -0.000215624
  23703322.094 4   -321670.785 4   -236544.18847  23703322.84847
  20542388.328 6   -242774.863 6   -179817.27048  20542387.24248
  20616253.063 7   -609135.633 7   -450687.74248  20616250.68448
  23583317.227 5   -217139.031 5   -159876.93847  23583316.10247
  24502130.820 3  -1079366.016 3   -772560.56346  24502128.76246
  20578857.398 7   -308474.855 7   -228478.18048  20578859.08648
  22832493.320 5  -1112401.309 5   -823592.68847  22832494.54747
  23537349.461 6    -36040.840 6    -26910.69547  23537349.39847
  21549634.547 7   -343331.719 7   -258919.49248  21549633.08248
  22477564.531 6     71906.629 6     52364.53548  22477566.57448
 18  5 30  0 22 40.0000000  0 10G03G14G16G22G23G26G27G29G31G32      -0.000224279
  23701048.906 4   -333614.691 4   -245851.12547  23701049.93047
  20541023.539 6   -249944.547 6   -185404.03548  20541022.46548
  20612929.508 7   -626601.793 7   -464297.73848  20612926.73448
  23581753.133 5   -225360.211 5   -166283.06347  23581751.49647
  24496276.320 4  -1110136.672 4   -796537.69946  24496273.66046
  20577122.109 7   -317593.445 7   -235583.57049  20577123.94949
  22826460.125 5  -1144103.930 5   -848295.99247  22826462.11347
  23537075.492 6    -37480.020 6    -28032.14547  23537075.67247
  21547531.570 7   -354384.945 7   -267532.39848  21547529.90648
  22477854.555 6     73433.434 6     53554.24248  22477856.75448
 18  5 30  0 22 45.0000000  0 10G03G14G16G22G23G26G27G29G31G32      -0.000232956
  23698773.023 4   -345577.375 4   -255172.71547  23698773.24247
  20539656.258 6   -257130.719 6   -191003.65648  20539654.88348
  20609602.063 7   -644086.594 7   -477922.25848  20609599.87148
  23580183.844 5   -233604.391 5   -172707.09847  23580182.28147
  24490414.906 4  -1140935.703 4   -820536.94946  24490412.32046
  20575382.500 7   -326734.773 7   -242706.69148  20575384.42248
  22820421.859 5  -1175833.570 5   -873020.37147  22820423.90247
  23536798.078 6    -38938.590 6    -29168.69947  23536798.07447
  21545423.000 7   -365466.281 7   -276167.21148  21545420.73448
  22478140.820 6     74937.977 6     54726.60248  22478143.43448
 18  5 30  0 22 50.0000000  0 10G03G14G16G22G23G26G27G29G31G32      -0.000241650
  23696493.023 4   -357558.188 4   -264508.39547  23696493.30947
  20538285.797 6   -264332.719 6   -196615.61348  20538284.81348
  20606271.352 7   -661589.336 7   -491560.76248  20606269.19148
  23578610.773 5   -241870.828 5   -179148.48447  23578609.11747
  24484549.617 4  -1171762.340 4   -844557.69946  24484546.14146
  20573638.750 7   -335898.195 7   -249847.01648  20573640.68448
  22814379.156 5  -1207589.531 5   -897765.27047  22814380.76647
  23536517.336 6    -40415.875 6    -30319.84847  23536516.99247
  21543308.945 7   -376575.023 7   -284823.37948  21543307.13348
  22478423.578 6     76420.941 6     55882.14848  22478425.16848
 18  5 30  0 22 55.0000000  0 10G03G14G16G22G23G26G27G29G31G32      -0.000250362
  23694209.273 3   -369555.980 3   -273857.33646  23694209.34046
  20536912.648 6   -271549.406 6   -202239.00848  20536911.17648
  20602937.539 7   -679108.871 7   -505212.35248  20602935.29348
  23577033.625 5   -250158.434 5   -185606.35547  23577031.60247
  24478677.219 4  -1202615.539 4   -868599.15646  24478674.91846
  20571891.047 7   -345082.512 7   -257003.62548  20571893.22348
  22808331.766 5  -1239370.625 5   -922529.75447  22808333.28147
  23536232.289 6    -41910.699 6    -31484.66047  23536232.66847
  21541189.969 7   -387710.000 7   -293499.99648  21541188.05148
  22478701.320 6     77883.484 6     57021.78548  22478703.50848
 18  5 30  0 23  0.0000000  0 10G03G14G16G22G23G26G27G29G31G32      -0.000259094
  23691923.547 4   -381570.605 4   -283219.38747  23691923.61747
  20535536.828 6   -278780.652 6   -207873.74648  20535534.88348
  20599600.430 7   -696645.047 7   -518876.90248  20599598.09048
  23575453.102 5   -258467.055 5   -192080.62547  23575450.00847
  24472801.695 4  -1233495.059 4   -892661.09846  24472798.73046
  20570139.438 7   -354287.633 7   -264176.44948  20570141.51248
  22802278.680 5  -1271176.648 5   -947313.65247  22802280.46147
  23535944.625 5    -43422.953 5    -32663.03947  23535944.82847
  21539066.406 7   -398871.086 7   -302196.94148  21539064.88748
  22478976.000 6     79325.723 6     58145.59048  22478978.40248
 18  5 30  0 23  5.0000000  0 10G03G14G16G22G23G26G27G29G31G32      -0.000267843
  23689633.742 3   -393602.332 3   -292594.76247  23689634.13347
  20534157.656 6   -286026.727 6   -213520.04348  20534156.05948
  20596260.680 7   -714198.168 7   -532554.65648  20596257.84848
  23573868.242 5   -266796.926 5   -198571.43047  23573864.63747
  24466920.047 4  -1264401.148 4   -916743.75446  24466917.54746
  20568383.828 7   -363513.832 7   -271365.69548  20568385.40648
  22796221.484 5  -1303007.918 5   -972117.23847  22796223.45747
  23535653.055 5    -44952.906 5    -33855.21947  23535653.59847
  21536936.984 7   -410058.543 7   -310914.45348  21536935.78148
  22479246.742 6     80747.363 6     59253.34848  22479248.64148
 18  5 30  0 23 10.0000000  0 10G03G14G16G22G23G26G27G29G31G32      -0.000276611
  23687341.094 4   -405651.238 4   -301983.51246  23687341.00446
  20532776.102 6   -293287.723 6   -219177.96548  20532774.49648
  20592916.875 7   -731768.297 7   -546245.66848  20592914.60948
  23572278.211 5   -275148.219 5   -205078.91447  23572275.05147
  24461034.078 4  -1295333.934 4   -940847.22746  24461031.09046
  20566623.922 7   -372761.152 7   -278571.39848  20566626.14848
  22790159.375 5  -1334864.457 5   -996940.50847  22790160.94947
  23535358.930 5    -46500.656 5    -35061.27047  23535359.05147
  21534803.266 7   -421272.457 7   -319652.56348  21534801.59048
  22479513.047 6     82148.355 6     60345.02048  22479515.23048
 18  5 30  0 23 15.0000000  0 10G03G14G16G22G23G26G27G29G31G32      -0.000285397
  23685044.664 4   -417716.227 4   -311384.82047  23685045.05947
  20531391.641 6   -300562.457 6   -224846.59848  20531390.21548
  20589570.203 6   -749354.281 6   -559949.04348  20589567.88348
  23570685.805 6   -283519.703 6   -211602.15647  23570681.85947
  24455142.508 4  -1326292.191 4   -964970.53546  24455140.37946
  20564860.633 7   -382028.500 7   -285792.71148  20564862.25848
  22784092.586 5  -1366745.168 5  -1021782.61747  22784094.46547
  23535061.625 5    -48065.070 5    -36280.28947  23535061.18047
  21532664.648 7   -432511.660 7   -328410.39148  21532662.43448
  22479776.008 6     83529.793 6     61421.44947  22479778.25447
 18  5 30  0 23 20.0000000  0 10G03G14G16G22G23G26G27G29G31G32      -0.000294201
  23682746.672 4   -429797.199 4   -320798.57047  23682746.58247
  20530004.711 6   -307850.879 6   -230525.89548  20530003.79348
  20586221.180 6   -766956.051 6   -573664.70748  20586218.93448
  23569088.719 6   -291911.324 6   -218141.07047  23569084.57847
  24449246.992 4  -1357275.895 4   -989113.66846  24449244.04346
  20563092.883 7   -391315.773 7   -293029.55148  20563094.88348
  22778020.844 5  -1398649.828 5  -1046643.38347  22778023.41047
  23534760.609 5    -49646.016 5    -37512.20347  23534760.14147
  21530520.977 7   -443776.047 7   -337187.83248  21530518.96948
  22480035.664 6     84891.801 6     62482.73848  22480037.42648
 18  5 30  0 23 25.0000000  0 10G03G14G16G22G23G26G27G29G31G32      -0.000303022
  23680444.188 4   -441894.535 4   -330225.05146  23680444.83646
  20528614.898 6   -315153.305 6   -236216.09848  20528613.92648
  20582868.758 6   -784573.949 6   -587392.93848  20582866.48448
  23567487.523 5   -300323.480 5   -224695.99247  23567483.43847
  24443346.195 5  -1388285.320 5  -1013276.83646  24443343.11346
  20561321.539 7   -400623.332 7   -300282.19548  20561323.30548
  22771945.836 5  -1430578.879 5  -1071523.16047  22771947.71547
  23534456.438 5    -51243.949 5    -38757.34047  23534455.90647
  21528372.695 7   -455066.004 7   -345985.20748  21528371.04748
  22480290.766 6     86233.988 6     63528.59448  22480292.70348
 18  5 30  0 23 30.0000000  0 10G03G14G16G22G23G26G27G29G31G32      -0.000311861
  23678139.875 3   -454007.043 3   -339663.37547  23678139.61347
  20527222.711 6   -322468.602 6   -241916.33648  20527222.00848
  20579513.203 6   -802206.875 6   -601132.89148  20579510.69948
  23565882.867 6   -308755.012 6   -231266.02347  23565878.83647
  24437440.641 5  -1419319.395 5  -1037459.23446  24437437.91446
  20559547.109 7   -409950.055 7   -307549.76648  20559549.03948
  22765865.461 5  -1462531.113 5  -1096421.00047  22765866.83647
  23534149.305 5    -52857.676 5    -40014.79347  23534148.57847
  21526219.703 7   -466380.367 7   -354801.59448  21526217.96148
  22480542.609 6     87557.488 6     64559.88348  22480544.72348
 18  5 30  0 23 35.0000000  0 10G03G14G16G22G23G26G27G29G31G32      -0.000320717
  23675832.641 2   -466135.453 2   -349114.09047  23675831.71947
  20525828.141 6   -329797.473 6   -247627.14848  20525827.22748
  20576154.391 7   -819855.441 7   -614885.01648  20576152.24648
  23564274.555 5   -317206.637 5   -237851.70747  23564270.93447
  24431529.328 4  -1450378.711 4  -1061661.27746  24431527.30946
  20557768.625 7   -419296.660 7   -314832.84448  20557769.97348
  22759780.594 5  -1494507.285 5  -1121337.50047  22759782.29747
  23533839.000 5    -54487.914 5    -41285.11347  23533838.16447
  21524061.656 7   -477719.805 7   -363637.52048  21524059.74248
  22480790.992 6     88861.621 6     65576.07448  22480793.07448
 18  5 30  0 23 40.0000000  0 10G03G14G16G22G23G26G27G29G31G32      -0.000329592
  23673522.078 2   -478279.012 2   -358576.62146  23673521.10546
  20524431.430 6   -337139.219 6   -253347.99648  20524430.23448
  20572793.602 6   -837518.961 6   -628648.80148  20572791.04348
  23562663.000 5   -325677.641 5   -244452.49647  23562658.63747
  24425614.477 5  -1481462.582 5  -1085882.47346  24425612.21546
  20555986.078 7   -428662.363 7   -322130.79348  20555987.80548
  22753690.711 5  -1526506.539 5  -1146271.97747  22753692.71147
  23533525.539 5    -56133.902 5    -42567.69547  23533524.41047
  21521899.359 7   -489083.590 7   -372492.41848  21521897.27748
  22481035.281 6     90147.070 6     66577.71548  22481037.57048
 18  5 30  0 23 45.0000000  0 10G03G14G16G22G23G26G27G29G31G32      -0.000338482
  23671208.211 3   -490437.453 3   -368050.75447  23671207.21547
  20523031.461 6   -344493.473 6   -259078.59448  20523030.51648
  20569429.297 6   -855197.156 6   -642424.01648  20569426.99248
  23561047.180 5   -334167.750 5   -251068.16847  23561043.06647
  24419695.195 5  -1512570.691 5  -1110122.55546  24419692.24646
  20554200.320 7   -438046.918 7   -329443.43848  20554202.00048
  22747597.523 5  -1558528.613 5  -1171224.23847  22747598.94947
  23533209.805 5    -57795.363 5    -43862.34846  23533208.87546
  21519732.141 7   -500471.402 7   -381366.04348  21519730.52748
  22481276.555 6     91414.152 6     67565.03948  22481278.55548
 18  5 30  0 23 50.0000000  0 10G03G14G16G22G23G26G27G29G31G32      -0.000347389
  23668890.805 2   -502610.328 2   -377536.12947  23668890.43447
  20521629.695 6   -351859.813 6   -264818.60548  20521629.04748
  20566062.266 7   -872889.555 7   -656210.30548  20566059.91848
  23559428.375 5   -342676.418 5   -257698.31347  23559424.21147
  24413770.953 4  -1543702.523 4  -1134381.13346  24413767.41046
  20552411.359 7   -447449.844 7   -336770.39848  20552412.66048
  22741499.953 5  -1590573.000 5  -1196193.88347  22741500.97747
  23532890.219 5    -59471.848 5    -45168.72347  23532889.85947
  21517560.656 7   -511882.781 7   -390258.03548  21517559.02048
  22481514.188 6     92663.340 6     68538.42648  22481516.26648
 18  5 30  0 23 55.0000000  0 10G03G14G16G22G23G26G27G29G31G32      -0.000356314
  23666571.102 3   -514797.777 3   -387032.84446  23666571.29346
  20520226.102 6   -359238.434 6   -270568.17648  20520224.93448
  20562693.078 6   -890596.359 6   -670007.82048  20562690.55148
  23557805.109 5   -351203.973 5   -264343.17247  23557801.68047
  24407841.781 4  -1574858.258 4  -1158658.32446  24407838.98046
  20550618.125 7   -456871.367 7   -344111.84448  20550619.35948
  22735397.961 5  -1622639.926 5  -1221181.09847  22735398.86347
  23532568.242 5    -61163.508 5    -46486.90247  23532568.41847
  21515384.664 7   -523317.934 7   -399168.54348  21515382.97748
  22481748.383 6     93894.434 6     69497.71548  22481750.48448
 18  5 30  0 24  0.0000000  0 10G03G14G16G22G23G26G27G29G31G32      -0.000365255
  23664250.203 3   -526999.699 3   -396540.83247  23664249.52747
  20518819.656 6   -366629.121 6   -276327.16048  20518818.02048
  20559320.445 6   -908317.359 6   -683816.39148  20559318.62948
  23556179.023 5   -359750.129 5   -271002.52047  23556176.47347
  24401908.945 4  -1606037.699 4  -1182953.99246  24401906.18446
  20548822.094 7   -466311.254 7   -351467.60248  20548823.14848
  22729290.844 5  -1654729.094 5  -1246185.63347  22729292.88747
  23532243.531 5    -62870.230 5    -47816.82847  23532243.28147
  21513204.141 7   -534776.605 7   -408097.37548  21513202.25848
  22481979.406 6     95107.605 6     70443.02748  22481981.80148
 18  5 30  0 24  5.0000000  0 10G03G14G16G22G23G26G27G29G31G32      -0.000374212
  23661925.203 4   -539215.281 4   -406059.45346  23661925.34846
  20517410.680 6   -374031.191 6   -282095.01648  20517409.69548
  20555946.336 6   -926051.859 6   -697635.48448  20555943.41448
  23554549.383 5   -368314.250 5   -277675.86747  23554546.69547
  24395970.844 4  -1637240.109 4  -1207267.58646  24395968.43446
  20547022.273 7   -475768.840 7   -358837.14548  20547023.33248
  22723180.398 5  -1686839.902 5  -1271207.03947  22723182.10247
  23531916.547 5    -64591.328 5    -49157.94547  23531916.40647
  21511018.789 7   -546258.117 7   -417044.01648  21511017.23448
  22482206.922 6     96303.578 6     71374.94148  22482208.94548
 18  5 30  0 24 10.0000000  0 10G03G14G16G22G23G26G27G29G31G32      -0.000383186
  23659598.086 3   -551444.445 3   -415588.68046  23659598.01246
  20516000.305 6   -381444.391 6   -287871.53948  20515998.66048
  20552569.047 7   -943799.594 7   -711464.87948  20552566.43848
  23552916.508 5   -376895.988 5   -284362.94947  23552914.13347
  24390029.227 4  -1668465.191 4  -1231598.81646  24390026.49646
  20545219.094 7   -485243.863 7   -366220.28948  20545220.34848
  22717066.602 5  -1718971.934 5  -1296244.98447  22717067.55947
  23531586.523 5    -66326.492 5    -50510.03947  23531586.19947
  21508829.922 7   -557762.219 7   -426008.25448  21508828.31348
  22482431.375 6     97482.539 6     72293.60248  22482433.50448
 18  5 30  0 24 15.0000000  0 10G03G14G16G22G23G26G27G29G31G32      -0.000392176
  23657268.703 3   -563686.422 3   -425127.89146  23657268.40246
  20514587.117 6   -388868.211 6   -293656.32848  20514586.30548
  20549189.125 6   -961560.031 6   -725304.18448  20549186.78948
  23551280.570 5   -385494.984 5   -291063.46947  23551278.25847
  24384083.758 4  -1699712.465 4  -1255947.32046  24384080.26646
  20543412.813 7   -494735.816 7   -373616.61748  20543413.98848
  22710947.453 5  -1751124.785 5  -1321299.14847  22710949.14147
  23531253.430 5    -68075.246 5    -51872.70347  23531253.39547
  21506636.672 7   -569288.375 7   -434989.67648  21506635.00848
  22482652.391 6     98645.063 6     73199.46148  22482654.57448
 18  5 30  0 24 20.0000000  0 10G03G14G16G22G23G26G27G29G31G32      -0.000401180
  23654936.422 4   -575941.254 4   -434677.09446  23654936.71146
  20513172.875 6   -396302.430 6   -299449.23848  20513171.09448
  20545806.672 6   -979333.020 6   -739153.27348  20545804.43448
  23549640.328 5   -394110.949 5   -297777.22747  23549638.49247
  24378132.984 4  -1730981.738 4  -1280312.99246  24378129.72346
  20541603.641 7   -504244.527 7   -381025.99648  20541605.13348
  22704825.719 5  -1783298.145 5  -1346369.28947  22704826.82447
  23530917.891 6    -69837.340 6    -53245.76647  23530917.80947
  21504438.992 7   -580836.383 7   -443988.13348  21504437.35248
  22482870.648 6     99791.313 6     74092.63348  22482872.89148
 18  5 30  0 24 25.0000000  0 10G03G14G16G22G23G26G27G29G31G32      -0.000410202
  23652601.789 4   -588209.012 4   -444236.39147  23652601.70347
  20511756.063 6   -403747.242 6   -305250.38748  20511754.87548
  20542422.422 6   -997118.707 6   -753012.24648  20542420.07448
  23547997.391 5   -402744.086 5   -304504.36347  23547995.88347
  24372178.945 4  -1762273.121 4  -1304695.86746  24372175.35246
  20539791.008 7   -513770.137 7   -388448.55148  20539792.24248
  22698698.898 5  -1815492.238 5  -1371455.58647  22698700.20347
  23530580.281 5    -71613.000 5    -54629.40247  23530579.88347
  21502237.344 7   -592406.434 7   -453003.75848  21502236.16048
  22483085.531 6    100921.125 6     74972.99648  22483087.77348
 18  5 30  0 24 30.0000000  0 10G03G14G16G22G23G26G27G29G31G32      -0.000419239
  23650265.500 3   -600489.191 3   -453805.38747  23650265.46547
  20510337.430 6   -411202.094 6   -311059.36748  20510336.27348
  20539035.602 6  -1014916.566 6   -766880.70748  20539033.24648
  23546351.680 5   -411393.840 5   -311244.45747  23546349.92247
  24366219.867 4  -1793586.071 4  -1329095.56246  24366216.74246
  20537975.070 7   -523312.156 7   -395883.89548  20537976.34448
  22692568.539 5  -1847706.496 5  -1396557.60547  22692570.12547
  23530240.102 6    -73401.773 6    -56023.25447  23530239.81647
  21500032.047 7   -603997.992 7   -462036.14848  21500030.08248
  22483297.602 6    102034.980 6     75840.92648  22483300.00448
 18  5 30  0 24 35.0000000  0 10G03G14G16G22G23G26G27G29G31G32      -0.000428289
  23647925.898 4   -612781.563 4   -463383.84447  23647925.95347
  20508916.914 6   -418666.809 6   -316876.03548  20508915.62148
  20535646.242 6  -1032726.383 6   -780758.49648  20535644.14148
  23544702.391 5   -420060.043 5   -317997.34847  23544701.03147
  24360257.297 4  -1824920.488 4  -1353511.98846  24360254.10946
  20536156.102 7   -532870.367 7   -403331.84848  20536157.93448
  22686435.367 6  -1879940.668 6  -1421675.12947  22686436.15247
  23529896.922 6    -75203.445 6    -57427.16047  23529897.06347
  21497822.008 7   -615610.809 7   -471085.10948  21497820.29748
  22483506.648 6    103133.121 6     76696.61748  22483508.79348
 18  5 30  0 24 40.0000000  0 10G03G14G16G22G23G26G27G29G31G32      -0.000437357
  23645583.906 4   -625086.051 4   -472971.76647  23645584.48047
  20507494.570 6   -426141.234 6   -322700.26248  20507493.48848
  20532255.289 6  -1050548.063 6   -794645.50848  20532252.84448
  23543050.539 5   -428742.535 5   -324762.93847  23543049.00447
  24354289.648 4  -1856276.105 4  -1377944.93446  24354287.13746
  20534334.438 7   -542444.652 7   -410792.32448  20534335.83248
  22680297.359 6  -1912194.652 6  -1446808.09447  22680298.41847
  23529552.039 6    -77017.844 6    -58840.98447  23529551.60547
  21495608.055 7   -627244.789 7   -480150.54748  21495606.60248
  22483712.938 6    104215.613 6     77540.10548  22483715.14848
 18  5 30  0 24 45.0000000  0 10G03G14G16G22G23G26G27G29G31G32      -0.000446438
  23643241.023 5   -637402.633 5   -482569.11747  23643240.68447
  20506070.406 6   -433625.398 6   -328532.08648  20506069.16448
  20528861.664 6  -1068381.621 6   -808541.80148  20528858.81348
  23541395.211 5   -437441.402 5   -331541.28947  23541393.76247
  24348319.117 4  -1887653.027 4  -1402394.46546  24348316.12946
  20532509.227 7   -552035.070 7   -418265.39148  20532510.73848
  22674155.438 6  -1944468.430 6  -1471956.48847  22674156.92647
  23529204.180 6    -78845.066 6    -60264.79747  23529204.05547
  21493390.203 7   -638899.918 7   -489232.46948  21493388.40248
  22483915.570 6    105282.516 6     78371.44148  22483918.15248
 18  5 30  0 24 50.0000000  0 10G03G14G16G22G23G26G27G29G31G32      -0.000455536
  23640894.039 4   -649730.965 4   -492175.60247  23640895.09847
  20504644.273 6   -441118.895 6   -334371.18048  20504643.52348
  20525465.844 6  -1086226.621 6   -822446.99248  20525463.15248
  23539737.320 6   -446156.223 6   -338332.07447  23539735.73847
  24342344.094 3  -1919050.680 3  -1426860.17246  24342341.54346
  20530681.328 7   -561641.145 7   -425750.64148  20530682.77348
  22668010.719 6  -1976761.602 6  -1497119.99247  22668011.67647
  23528854.070 6    -80684.613 6    -61698.20747  23528853.58247
  21491168.227 7   -650575.766 7   -498330.53548  21491166.53948
  22484115.461 6    106334.160 6     79190.89548  22484118.20748
 18  5 30  0 24 55.0000000  0 10G03G14G16G22G23G26G27G29G31G32      -0.000464647
  23638545.758 3   -662070.688 3   -501790.97747  23638546.96947
  20503216.930 6   -448621.410 6   -340217.30148  20503215.44548
  20522068.086 6  -1104082.781 6   -836360.88748  20522065.18448
  23538075.656 6   -454886.711 6   -345135.05547  23538073.96947
  24336366.703 4  -1950468.852 4  -1451341.90646  24336362.63346
  20528850.531 7   -571262.641 7   -433247.91448  20528852.18048
  22661861.516 6  -2009073.824 6  -1522298.34047  22661863.05147
  23528501.719 6    -82536.266 6    -63141.07847  23528501.10947
  21488942.328 7   -662272.035 7   -507444.52048  21488940.98048
  22484312.844 6    107370.848 6     79998.68448  22484315.82048
 18  5 30  0 25  0.0000000  0 10G03G14G16G22G23G26G27G29G31G32      -0.000473774
  23636196.078 3   -674421.680 3   -511415.12947  23636197.16047
  20501787.398 6   -456132.797 6   -346070.33648  20501786.19548
  20518668.016 6  -1121949.969 6   -850283.37548  20518665.54748
  23536411.445 5   -463632.699 5   -351950.12547  23536409.49647
  24330382.945 4  -1981907.324 4  -1475839.39146  24330380.21146
  20527016.438 7   -580899.375 7   -440757.05948  20527018.32848
  22655709.523 6  -2041404.918 6  -1547491.40247  22655710.40647
  23528147.375 6    -84399.773 6    -64593.17647  23528146.53947
  21486712.883 7   -673988.539 7   -516574.26248  21486711.37948
  22484507.422 6    108392.785 6     80794.98048  22484509.94548
 18  5 30  0 25  5.0000000  0 10G03G14G16G22G23G26G27G29G31G32      -0.000482914
  23633842.742 3   -686783.418 3   -521047.62146  23633843.98846
  20500356.734 6   -463652.461 6   -351929.82448  20500355.46548
  20515265.516 6  -1139827.574 6   -864213.97348  20515263.25048
  23534744.664 6   -472393.617 6   -358776.82847  23534741.60947
  24324397.055 4  -2013365.578 4  -1500352.30946  24324393.84446
  20525179.820 7   -590550.820 7   -448277.66048  20525181.54348
  22649553.250 6  -2073754.309 6  -1572698.73847  22649554.45347
  23527790.336 6    -86274.762 6    -66054.22347  23527790.11347
  21484479.625 7   -685724.758 7   -525719.38348  21484478.07448
  22484698.859 6    109400.473 6     81580.18047  22484701.20347
 18  5 30  0 25 10.0000000  0 10G03G14G16G22G23G26G27G29G31G32      -0.000492069
  23631488.836 2   -699156.445 2   -530688.93447  23631489.96547
  20498923.547 6   -471181.047 6   -357796.25848  20498922.97748
  20511861.633 6  -1157716.180 6   -878153.15248  20511859.24248
  23533074.680 6   -481170.082 6   -365615.65247  23533071.48047
  24318407.508 4  -2044844.144 4  -1524881.04546  24318404.06646
  20523340.273 7   -600217.516 7   -455810.15648  20523342.02748
  22643393.867 6  -2106122.520 6  -1597920.72347  22643395.36747
  23527431.695 6    -88161.637 6    -67524.52347  23527430.69947
  21482242.539 7   -697481.215 7   -534880.25848  21482240.74248
  22484888.203 6    110393.352 6     82353.84848  22484890.87948
 18  5 30  0 25 15.0000000  0 10G03G14G16G22G23G26G27G29G31G32      -0.000501240
  23629131.930 2   -711539.645 2   -540338.18446  23629133.44946
  20497489.617 6   -478717.535 6   -363668.84848  20497488.75848
  20508455.547 7  -1175614.863 7   -892100.18048  20508453.10948
  23531401.680 6   -489961.172 6   -372465.84847  23531397.87947
  24312412.797 4  -2076341.902 4  -1549424.75046  24312410.16046
  20521498.125 7   -609898.527 7   -463353.79348  20521499.85948
  22637231.445 6  -2138508.633 6  -1623156.66447  22637231.92647
  23527070.953 6    -90059.504 6    -69003.38747  23527070.02347
  21480001.625 7   -709256.984 7   -544056.17648  21479999.85948
  22485074.164 6    111372.359 6     83116.69548  22485076.89148
 18  5 30  0 25 19.9990000  0 10G03G14G16G22G23G26G27G29G31G32       0.000489578
  23626774.401 3   -723932.035 3   -549994.61347  23626774.77647
  20496054.222 7   -486261.684 7   -369547.41848  20496053.21848
  20505047.995 6  -1193521.270 6   -906053.22748  20505045.61648
  23529726.222 6   -498766.336 6   -379327.02047  23529722.61647
  24306416.503 4  -2107853.988 4  -1573979.62146  24306413.42146
  20519653.230 7   -619593.215 7   -470908.10248  20519654.89448
  22631065.425 6  -2170907.379 6  -1648402.44147  22631066.90947
  23526706.761 6    -91969.270 6    -70491.51247  23526706.35547
  21477757.425 7   -721050.953 7   -553246.28148  21477755.87048
  22485257.558 6    112336.035 6     83867.59848  22485259.95248
 18  5 30  0 25 24.9990000  0 10G03G14G16G22G23G26G27G29G31G32       0.000480379
  23624414.300 3   -736337.715 3   -559661.39547  23624414.53047
  20494616.909 7   -493815.680 7   -375433.65248  20494615.79648
  20501637.706 6  -1211441.758 6   -920017.23848  20501635.53048
  23528047.073 6   -507588.324 6   -386201.30147  23528043.10147
  24300415.183 4  -2139392.156 4  -1598554.82846  24300412.28446
  20517805.073 7   -629304.563 7   -478475.39148  20517807.05048
  22624895.628 5  -2203330.871 5  -1673667.51247  22624896.85847
  23526341.206 6    -93890.871 6    -71988.86347  23526340.91747
  21475508.925 7   -732866.984 7   -562453.58248  21475507.00748
  22485438.698 6    113285.605 6     84607.51647  22485441.19047
 18  5 30  0 25 29.9990000  0 10G03G14G16G22G23G26G27G29G31G32       0.000471167
  23622051.659 3   -748753.715 3   -569336.22747  23622051.51947
  20493177.839 6   -501377.707 6   -381326.14548  20493176.80048
  20498225.745 6  -1229372.406 6   -933989.18048  20498223.55448
  23526365.394 6   -516425.035 6   -393087.04747  23526361.21447
  24294410.597 4  -2170949.719 4  -1623145.14146  24294407.17946
  20515954.487 7   -639030.371 7   -486053.95348  20515956.17548
  22618722.573 5  -2235772.309 5  -1698946.56347  22618722.98747
  23525973.448 6    -95823.570 6    -73494.87947  23525973.07347
  21473256.667 7   -744702.336 7   -571675.93448  21473254.52248
  22485616.644 6    114221.195 6     85336.53548  22485618.99148
 18  5 30  0 25 34.9990000  0 10G03G14G16G22G23G26G27G29G31G32       0.000461941
  23619686.761 2   -761179.789 2   -579018.89147  23619687.03047
  20491737.605 6   -508947.238 6   -387224.48448  20491736.28048
  20494811.933 6  -1247312.730 6   -947968.64148  20494809.64048
  23524680.925 5   -525275.961 5   -399983.88747  23524677.33147
  24288401.675 4  -2202526.141 4  -1647750.13346  24288398.18746
  20514101.222 7   -648770.121 7   -493643.36748  20514102.85148
  22612546.050 6  -2268231.133 6  -1724239.14147  22612546.53447
  23525603.815 6    -97766.941 6    -75009.19947  23525603.55447
  21471000.933 7   -756556.590 7   -580913.01648  21470998.83948
  22485792.300 6    115143.254 6     86055.00048  22485794.78448
 18  5 30  0 25 39.9990000  0 10G03G14G16G22G23G26G27G29G31G32       0.000452700
  23617320.730 3   -773615.621 3   -588709.16847  23617320.79247
  20490295.690 6   -516524.129 6   -393128.55548  20490294.13248
  20491395.722 6  -1265262.570 6   -961955.54348  20491393.58548
  23522993.901 6   -534140.984 6   -406891.69147  23522989.87047
  24282389.159 4  -2234121.273 4  -1672369.73446  24282386.14046
  20512244.808 7   -658523.645 7   -501243.51248  20512246.59748
  22606365.776 5  -2300707.160 5  -1749545.14547  22606366.64747
  23525232.401 6    -99720.719 6    -76531.61747  23525231.85847
  21468741.612 7   -768429.523 7   -590164.65248  21468739.40148
  22485965.417 6    116052.020 6     86763.11348  22485967.32348
 18  5 30  0 25 44.9990000  0 10G03G14G16G22G23G26G27G29G31G32       0.000443447
  23614952.589 3   -786061.293 3   -598407.10947  23614952.31947
  20488852.144 6   -524108.418 6   -399038.39548  20488851.16748
  20487978.706 6  -1283221.973 6   -975949.88748  20487976.24548
  23521304.347 6   -543020.133 6   -413810.50447  23521299.92147
  24276372.972 5  -2265735.105 5  -1697003.86746  24276370.09346
  20510386.362 7   -668291.023 7   -508854.46548  20510387.99548
  22600181.917 6  -2333200.500 6  -1774864.60947  22600183.67947
  23524858.370 6   -101685.031 6    -78062.26647  23524857.40147
  21466478.839 7   -780321.230 7   -599430.91448  21466476.75748
  22486135.230 6    116947.371 6     87460.78148  22486137.43748
 18  5 30  0 25 49.9990000  0 10G03G14G16G22G23G26G27G29G31G32       0.000434179
  23612582.120 4   -798516.258 4   -608112.29347  23612582.30847
  20487407.815 6   -531699.613 6   -404953.60948  20487406.34348
  20484559.714 6  -1301190.352 6   -989951.22748  20484556.98048
  23519612.386 6   -551912.887 6   -420739.93447  23519608.08947
  24270353.948 5  -2297367.141 5  -1721652.21546  24270351.25346
  20508525.253 7   -678071.719 7   -516475.78948  20508526.83548
  22593995.933 6  -2365710.496 6  -1800197.08247  22593997.12447
  23524482.972 6   -103659.363 6    -79600.71147  23524481.84347
  21464212.315 7   -792231.133 7   -608711.36348  21464209.79648
  22486303.261 6    117829.863 6     88148.42248  22486305.51948
 18  5 30  0 25 54.9990000  0 10G03G14G16G22G23G26G27G29G31G32       0.000424898
  23610209.855 4   -810980.203 4   -617824.46947  23610210.48747
  20485962.089 6   -539297.359 6   -410873.93848  20485960.41348
  20481138.026 6  -1319167.457 6  -1003959.35248  20481135.68348
  23517917.769 6   -560818.887 6   -427679.68847  23517913.32747
  24264331.175 5  -2329017.035 5  -1746314.46946  24264328.11646
  20506661.886 7   -687865.410 7   -524107.23848  20506663.62848
  22587806.323 6  -2398236.914 6  -1825542.33247  22587807.51947
  23524104.776 6   -105643.395 6    -81146.73447  23524103.80047
  21461942.456 7   -804158.945 7   -618005.76648  21461940.43748
  22486469.034 6    118699.762 6     88826.25448  22486470.88248
 18  5 30  0 25 59.9990000  0 10G03G14G16G22G23G26G27G29G31G32       0.000415604
  23607835.894 5   -823453.094 5   -627543.60247  23607837.45247
  20484514.784 6   -546901.500 6   -416799.24248  20484513.78448
  20477715.995 6  -1337153.145 6  -1017974.17648  20477713.33548
  23516220.464 5   -569738.023 5   -434629.67247  23516215.89047
  24258305.300 5  -2360684.676 5  -1770990.54346  24258302.10146
  20504795.401 7   -697672.000 7   -531748.73848  20504797.04648
  22581613.823 6  -2430779.539 6  -1850900.22347  22581614.94847
  23523725.519 6   -107637.004 6    -82700.19147  23523724.82747
  21459669.347 7   -816104.484 7   -627313.98848  21459667.12048
  22486632.222 6    119557.246 6     89494.41448  22486634.17948
 18  5 30  0 26  4.9990000  0 10G03G14G16G22G23G26G27G29G31G32       0.000406298
  23605460.519 5   -835934.531 5   -637269.39847  23605462.17947
  20483066.597 6   -554511.730 6   -422729.30148  20483065.70648
  20474291.511 6  -1355147.074 6  -1031995.41848  20474289.24548
  23514520.987 5   -578670.031 5   -441589.67247  23514516.85847
  24252275.644 5  -2392369.703 5  -1795680.16446  24252272.65146
  20502926.862 7   -707491.137 7   -539400.00848  20502928.55048
  22575418.105 6  -2463338.082 6  -1876270.51247  22575419.39747
  23523344.464 6   -109639.855 6    -84260.86747  23523343.49947
  21457393.144 7   -828067.445 7   -636635.78148  21457390.68748
  22486793.300 6    120402.629 6     90153.14848  22486794.87448
 18  5 30  0 26  9.9990000  0 10G03G14G16G22G23G26G27G29G31G32       0.000396978
  23603083.073 5   -848424.941 5   -647002.19547  23603085.28847
  20481617.167 6   -562128.512 6   -428664.46548  20481616.03848
  20470865.612 6  -1373149.719 6  -1046023.45748  20470863.12848
  23512818.386 6   -587615.320 6   -448560.04347  23512814.44047
  24246242.339 5  -2424072.508 5  -1820383.64846  24246239.82746
  20501055.847 7   -717323.301 7   -547061.43448  20501057.11248
  22569219.659 6  -2495912.813 6  -1901653.41047  22569220.95647
  23522961.347 6   -111652.469 6    -85829.13747  23522960.31947
  21455112.987 7   -840048.254 7   -645971.47748  21455110.67548
  22486951.597 6    121235.414 6     90802.07048  22486953.45648
 18  5 30  0 26 14.9990000  0 10G03G14G16G22G23G26G27G29G31G32       0.000387646
  23600704.698 5   -860924.156 5   -656741.84047  23600706.85847
  20480166.589 6   -569751.598 6   -434604.53548  20480165.59348
  20467437.925 6  -1391160.805 6  -1060058.07048  20467436.02248
  23511113.995 6   -596573.723 6   -455540.62147  23511110.03847
  24240206.425 5  -2455792.891 5  -1845100.83246  24240203.73046
  20499182.433 7   -727168.238 7   -554732.81648  20499184.41748
  22563017.901 6  -2528503.699 6  -1927048.90647  22563019.07347
  23522576.440 6   -113674.563 6    -87404.79347  23522575.48047
  21452829.823 7   -852046.688 7   -655320.90248  21452827.51948
  22487107.823 6    122055.863 6     91441.36748  22487109.14748
 18  5 30  0 26 19.9990000  0 10G03G14G16G22G23G26G27G29G31G32       0.000378300
  23598324.487 5   -873431.176 5   -666487.56647  23598326.63647
  20478714.886 6   -577379.980 6   -440548.73448  20478714.02648
  20464009.237 6  -1409179.379 6  -1074098.52048  20464007.00348
  23509406.972 5   -605544.223 5   -462530.63747  23509402.92547
  24234167.003 5  -2487529.832 5  -1869830.90246  24234164.19846
  20497306.714 7   -737024.992 7   -562413.40648  20497308.49948
  22556812.597 6  -2561109.664 6  -1952456.14547  22556813.80047
  23522190.433 6   -115705.148 6    -88987.07047  23522189.21047
  21450543.253 7   -864061.730 7   -664683.27748  21450541.24948
  22487261.667 6    122864.926 6     92071.79748  22487263.36648
 18  5 30  0 26 24.9990000  0 10G03G14G16G22G23G26G27G29G31G32       0.000368942
  23595942.440 5   -885946.355 5   -676239.65247  23595945.29247
  20477262.159 6   -585014.063 6   -446497.37548  20477261.42948
  20460579.448 6  -1427205.816 6  -1088145.09048  20460577.26548
  23507697.659 6   -614527.164 6   -469530.33247  23507694.47247
  24228124.675 5  -2519283.664 5  -1894574.16446  24228121.37046
  20495428.730 7   -746893.922 7   -570103.48448  20495430.29248
  22550604.956 6  -2593731.051 6  -1977875.40247  22550606.40947
  23521802.245 6   -117744.629 6    -90576.27347  23521800.66747
  21448253.675 7   -876093.719 7   -674058.85948  21448251.71448
  22487413.612 6    123662.293 6     92693.11348  22487415.15548
 18  5 30  0 26 29.9990000  0 10G03G14G16G22G23G26G27G29G31G32       0.000359571
  23593559.628 5   -898469.547 5   -685997.97747  23593562.17547
  20475808.909 6   -592653.680 6   -452450.32848  20475807.55048
  20457147.597 6  -1445239.930 6  -1102197.64548  20457145.10548
  23505985.401 6   -623522.461 6   -476539.65647  23505982.94047
  24222078.690 5  -2551054.234 5  -1919330.45346  24222075.44046
  20493548.425 7   -756774.867 7   -577802.92248  20493550.45248
  22544394.308 6  -2626367.656 6  -2003306.53147  22544396.14747
  23521412.284 6   -119792.852 6    -92172.30547  23521411.18347
  21445961.136 7   -888142.551 7   -683447.56348  21445959.10548
  22487562.894 6    124448.043 6     93305.37548  22487564.89048
 18  5 30  0 26 34.9990000  0 10G03G14G16G22G23G26G27G29G31G32       0.000350189
  23591175.292 5   -911000.305 5   -695762.21547  23591177.62047
  20474353.776 6   -600298.402 6   -458407.26248  20474352.79248
  20453714.284 6  -1463281.344 6  -1116255.88748  20453712.09748
  23504271.315 6   -632529.668 6   -483558.27747  23504268.91747
  24216029.339 5  -2582841.051 5  -1944099.41446  24216026.49146
  20491666.175 7   -766667.414 7   -585511.39548  20491667.78848
  22538180.948 6  -2659019.063 6  -2028749.17647  22538183.08147
  23521020.706 6   -121849.371 6    -93774.78547  23521020.21047
  21443665.105 7   -900207.691 7   -692848.97348  21443662.92548
  22487710.487 6    125222.621 6     93908.93048  22487712.54648
 18  5 30  0 26 39.9990000  0 10G03G14G16G22G23G26G27G29G31G32       0.000340794
  23588789.222 4   -923538.391 4   -705532.15247  23588791.71847
  20472898.144 6   -607947.980 6   -464367.97348  20472896.57748
  20450279.784 6  -1481329.766 6  -1130319.59448  20450277.55448
  23502555.581 6   -641548.520 6   -490585.97747  23502553.02247
  24209977.651 5  -2614643.914 5  -1968880.85946  24209975.26146
  20489781.355 7   -776571.328 7   -593228.74248  20489783.47648
  22531964.980 6  -2691684.953 6  -2054203.11747  22531966.48347
  23520627.894 6   -123913.961 6    -95383.57847  23520627.27247
  21441365.964 7   -912288.953 7   -702262.94148  21441363.91348
  22487855.378 6    125986.285 6     94503.98448  22487857.99548
 18  5 30  0 26 44.9990000  0 10G03G14G16G22G23G26G27G29G31G32       0.000331387
  23586402.511 4   -936084.113 4   -715308.04747  23586404.50347
  20471441.355 6   -615602.688 6   -470332.68448  20471440.09348
  20446844.206 6  -1499385.434 6  -1144388.94948  20446841.95248
  23500836.761 6   -650579.285 6   -497622.93847  23500834.56547
  24203922.831 5  -2646463.035 5  -1993674.96546  24203920.31246
  20487894.581 7   -786486.793 7   -600955.07448  20487896.42948
  22525746.089 6  -2724365.586 6  -2079668.55947  22525747.69047
  23520233.167 6   -125986.820 6    -96998.80947  23520232.92947
  21439063.761 7   -924386.555 7   -711689.64548  21439062.24148
  22487998.440 6    126738.824 6     95090.36748  22488001.56548
 18  5 30  0 26 49.9990000  0 10G03G14G16G22G23G26G27G29G31G32       0.000321968
  23584014.409 3   -948637.039 3   -725089.55547  23584015.35147
  20469983.980 6   -623262.176 6   -476301.12148  20469982.33948
  20443406.870 6  -1517448.051 6  -1158463.71548  20443404.77248
  23499116.105 6   -659621.641 6   -504668.93847  23499114.20247
  24197864.526 5  -2678298.043 5  -2018481.48846  24197861.92146
  20486005.722 7   -796413.590 7   -608690.24648  20486007.51948
  22519524.355 6  -2757060.621 6  -2105145.19947  22519526.32747
  23519837.370 6   -128067.680 6    -98620.27747  23519837.35847
  21436758.878 7   -936500.184 7   -721128.83648  21436756.81248
  22488140.003 6    127480.484 6     95668.27348  22488142.28448
 18  5 30  0 26 54.9990000  0 10G03G14G16G22G23G26G27G29G31G32       0.000312536
  23581623.792 3   -961197.457 3   -734876.89547  23581625.80447
  20468525.472 6   -630926.617 6   -482273.41448  20468523.83148
  20439968.136 6  -1535517.809 6  -1172544.05148  20439965.85548
  23497393.300 6   -668675.813 6   -511724.14147  23497390.91747
  24191804.026 5  -2710149.141 5  -2043300.52746  24191800.65146
  20484114.011 7   -806351.832 7   -616434.34048  20484116.46448
  22513300.089 6  -2789770.242 6  -2130633.21147  22513302.20247
  23519439.831 6   -130156.734 6   -100248.12147  23519439.33547
