     2.10           OBSERVATION DATA    GPS(GPS)            RINEX VERSION / TYPE
cnvtToRINEX 3.07.0  convertToRINEX OPR  19-May-20 12:29 UTC PGM / RUN BY / DATE 
----------------------------------------------------------- COMMENT             
GBA0                                                        MARKER NAME         
GBA0                                                        MARKER NUMBER       
GNSS Observer       Trimble                                 OBSERVER / AGENCY   
0220247377          5700                2.32                REC # / TYPE / VERS 
                    UNKNOWN EXT                             ANT # / TYPE        
 -3051022.4671  4927492.4448  2654155.8921                  APPROX POSITION XYZ 
        0.0000        0.0000        0.0000                  ANTENNA: DELTA H/E/N
     1     1     0                                          WAVELENGTH FACT L1/2
     4    C1    L1    L2    P2                              # / TYPES OF OBSERV 
  2020     5    16     5     7   51.0000000     GPS         TIME OF FIRST OBS   
  2020     5    16     6    21   11.0000000     GPS         TIME OF LAST OBS    
     0                                                      RCV CLOCK OFFS APPL 
    18                                                      LEAP SECONDS        
     9                                                      # OF SATELLITES     
   G01  4401  4401  4401  4401                              PRN / # OF OBS      
   G03  4372  4372  4372  4372                              PRN / # OF OBS      
   G07  3323  3192  3082  3082                              PRN / # OF OBS      
   G08  3921  3825  3575  3575                              PRN / # OF OBS      
   G11  4401  4401  4401  4401                              PRN / # OF OBS      
   G17  4401  4401  4401  4401                              PRN / # OF OBS      
   G22  4401  4401  4401  4401                              PRN / # OF OBS      
   G28  4401  4401  4401  4401                              PRN / # OF OBS      
   G30  4372  4372  4372  4372                              PRN / # OF OBS      
CARRIER PHASE MEASUREMENTS: PHASE SHIFTS REMOVED            COMMENT             
                                                            END OF HEADER       
 20  5 16  5  7 51.0000000  0  7G01G07G08G11G17G22G28               -0.000052029
  20072461.63317    -69764.94117    -34986.62959  20072462.49259
  20820069.94516    -49148.93816    -13305.18859  20820068.75059
  22904204.02316    -24883.35916     -9676.39159  22904206.48459
  20982843.21917    -32486.75417     -8587.79758  20982840.04358
  24162565.05514    -73091.91014     -4286.15058  24162565.48458
  22737759.07016    -85914.35916    -26535.42258  22737756.06658
  23873845.19515    -87752.73815     -1992.86357  23873843.68457
 20  5 16  5  7 52.0000000  0  7G01G07G08G11G17G22G28               -0.000054573
  20071759.477 7    -73455.344 7    -37862.27349  20071760.57049
  20819471.641 6    -52293.789 6    -15755.74249  20819470.73849
  22903799.086 6    -27011.766 6    -11334.88749  22903801.45749
  20982436.906 7    -34622.883 7    -10252.29348  20982433.28948
  24161518.477 4    -78594.281 4     -8573.71948  24161518.40648
  22736682.273 6    -91574.316 6    -30945.77748  22736678.75448
  23872608.453 5    -94250.441 5     -7056.02047  23872607.14147
 20  5 16  5  7 53.0000000  0  7G01G07G08G11G17G22G28               -0.000057119
  20071056.844 7    -77147.223 7    -40739.05949  20071057.79749
  20818872.836 6    -55440.164 6    -18207.46949  20818871.10949
  22903393.141 5    -29142.332 5    -12995.07449  22903396.00449
  20982029.922 7    -36760.848 7    -11918.24248  20982026.59848
  24160470.500 4    -84098.617 4    -12862.80948  24160470.82448
  22735604.781 6    -97236.121 6    -35357.57848  22735601.44548
  23871371.656 5   -100750.402 5    -12120.92246  23871370.07046
 20  5 16  5  7 54.0000000  0  7G01G07G08G11G17G22G28               -0.000059668
  20070353.883 7    -80840.602 7    -43617.02049  20070354.90649
  20818274.375 6    -58588.043 6    -20660.35949  20818272.75049
  22902987.633 5    -31275.070 5    -14656.95349  22902990.19549
  20981622.305 7    -38900.676 7    -13585.64548  20981619.20748
  24159422.852 4    -89604.953 4    -17153.45748  24159423.50848
  22734526.859 6   -102899.707 6    -39770.75848  22734523.84048
  23870134.281 5   -107252.578 5    -17187.55547  23870133.36347
 20  5 16  5  7 55.0000000  0  7G01G07G08G11G17G22G28               -0.000062216
  20069650.922 7    -84535.582 7    -46496.22349  20069651.67649
  20817674.461 6    -61737.598 6    -23114.55949  20817673.25849
  22902581.086 5    -33410.184 5    -16320.67649  22902584.00849
  20981215.414 7    -41042.504 7    -15254.60548  20981212.09448
  24158374.195 4    -95113.441 4    -21445.78548  24158374.98848
  22733448.594 6   -108565.281 6    -44185.49248  22733445.66848
  23868896.859 5   -113757.129 5    -22256.03347  23868895.72347
 20  5 16  5  7 56.0000000  0  7G01G07G08G11G17G22G28               -0.000064766
  20068947.406 7    -88232.047 7    -49376.59049  20068948.48849
  20817074.977 7    -64888.672 7    -25569.93449  20817073.72749
  22902174.961 5    -35547.488 5    -17986.11349  22902176.75049
  20980807.188 6    -43186.168 6    -16925.00448  20980804.00848
  24157325.961 4   -100623.984 4    -25739.71148  24157326.16048
  22732370.227 6   -114232.652 6    -48601.63348  22732366.98048
  23867658.758 5   -120263.973 5    -27326.30947  23867657.56647
 20  5 16  5  7 57.0000000  0  7G01G07G08G11G17G22G28               -0.000067320
  20068243.719 7    -91929.941 7    -52258.06649  20068245.07049
  20816474.953 7    -68041.207 7    -28026.46149  20816473.43449
  22901767.141 5    -37686.906 5    -19653.18849  22901769.68849
  20980398.906 7    -45331.621 7    -18596.78548  20980395.71148
  24156277.109 4   -106136.449 4    -30035.14148  24156277.38748
  22731291.039 6   -119901.816 6    -53019.17648  22731288.25448
  23866419.148 4   -126773.012 4    -32398.28546  23866418.57846
 20  5 16  5  7 58.0000000  0  7G01G07G08G11G17G22G28               -0.000069872
  20067539.891 7    -95629.137 7    -55140.55149  20067540.95749
  20815874.977 7    -71195.105 7    -30484.04349  20815873.20749
  22901359.820 5    -39828.391 5    -21321.87149  22901362.02049
  20979990.438 6    -47478.754 6    -20269.87548  20979987.16448
  24155228.070 4   -111650.762 4    -34332.00848  24155227.69148
  22730211.805 6   -125572.609 6    -57437.97748  22730209.35248
  23865180.336 4   -133284.094 4    -37471.84847  23865179.39147
 20  5 16  5  7 59.0000000  0  7G01G07G08G11G17G22G28               -0.000072426
  20066835.742 7    -99329.492 7    -58023.94549  20066836.49249
  20815274.500 7    -74350.219 7    -32942.57049  20815272.76249
  22900952.734 5    -41971.703 5    -22991.99649  22900954.61749
  20979581.258 6    -49627.426 6    -21944.16848  20979578.67648
  24154177.906 4   -117166.797 4    -38630.22348  24154178.15248
  22729132.898 6   -131244.914 6    -61857.95347  22729129.81347
  23863941.016 5   -139797.090 5    -42546.91446  23863940.47746
 20  5 16  5  8  0.0000000  0  7G01G07G08G11G17G22G28               -0.000074982
  20066131.227 7   -103030.938 7    -60908.19549  20066132.17649
  20814673.398 6    -77506.422 6    -35401.95749  20814672.14549
  22900544.195 5    -44116.820 5    -24663.51249  22900546.52749
  20979171.844 6    -51777.539 6    -23619.58248  20979169.23848
  24153128.484 4   -122684.430 4    -42929.68048  24153128.15648
  22728053.273 6   -136918.617 6    -66279.01648  22728050.35248
  23862700.969 4   -146311.953 4    -47623.41846  23862700.22746
 20  5 16  5  8  1.0000000  0  7G01G07G08G11G17G22G28               -0.000077538
  20065426.633 7   -106733.289 7    -63793.14549  20065427.77749
  20814072.703 7    -80663.570 7    -37862.07449  20814072.01249
  22900135.977 5    -46263.520 5    -26336.27049  22900137.59049
  20978762.922 6    -53928.953 6    -25296.00848  20978759.62948
  24152077.930 3   -128203.453 3    -47230.21948  24152078.23848
  22726973.219 6   -142593.543 6    -70701.03147  22726970.37147
  23861461.281 4   -152828.480 4    -52701.23846  23861460.17646
 20  5 16  5  8  2.0000000  0  7G01G07G08G11G17G22G28               -0.000080095
  20064722.320 7   -110436.441 7    -66678.71949  20064722.82449
  20813472.344 7    -83821.566 7    -40322.85249  20813470.35549
  22899726.461 5    -48411.770 5    -28010.23449  22899728.50849
  20978353.297 7    -56081.496 7    -26973.31348  20978350.27048
  24151027.469 3   -133723.871 3    -51531.84048  24151027.92648
  22725893.453 6   -148269.617 6    -75123.94547  22725890.37147
  23860220.992 5   -159346.578 5    -57780.27346  23860219.65246
 20  5 16  5  8  3.0000000  0  7G01G07G08G11G17G22G28               -0.000082653
  20064017.453 7   -114140.301 7    -69564.84449  20064018.00449
  20812870.945 7    -86980.332 7    -42784.22749  20812869.67649
  22899317.734 5    -50561.367 5    -29685.25449  22899319.78149
  20977943.711 7    -58235.145 7    -28651.48848  20977940.16448
  24149976.586 3   -139245.559 3    -55834.44548  24149976.91448
  22724813.242 6   -153946.750 6    -79547.68447  22724809.70347
  23858980.516 5   -165866.172 5    -62860.47746  23858978.81346
 20  5 16  5  8  4.0000000  0  7G01G07G08G11G17G22G28               -0.000085213
  20063312.492 7   -117844.770 7    -72451.44149  20063313.25449
  20812269.906 7    -90139.723 7    -45246.08649  20812267.93449
  22898908.039 5    -52712.348 5    -31361.34849  22898910.66449
  20977533.539 7    -60389.770 7    -30330.41848  20977530.01248
  24148925.797 4   -144768.320 4    -60137.88748  24148925.63348
  22723732.469 6   -159624.801 6    -83972.14547  22723729.28547
  23857739.664 5   -172387.098 5    -67941.73046  23857738.24246
 20  5 16  5  8  5.0000000  0  7G01G07G08G11G17G22G28               -0.000087770
  20062607.414 7   -121549.617 7    -75338.33649  20062608.27049
  20811668.781 6    -93299.566 6    -47708.30949  20811666.63349
  22898499.055 5    -54864.418 5    -33038.28549  22898500.83649
  20977123.320 7    -62545.129 7    -32009.91448  20977119.93048
  24147874.922 4   -150292.078 4    -64442.11748  24147875.13748
  22722651.797 6   -165303.586 6    -88397.18048  22722648.85548
  23856498.438 5   -178909.191 5    -73023.89146  23856497.25046
 20  5 16  5  8  6.0000000  0  7G01G07G08G11G17G22G28               -0.000090332
  20061902.305 7   -125254.777 7    -78225.48049  20061903.00049
  20811066.961 6    -96459.730 6    -50170.77349  20811065.24249
  22898089.320 5    -57017.535 5    -34716.03549  22898091.10949
  20976712.867 7    -64701.203 7    -33689.96948  20976710.20748
  24146823.203 3   -155816.621 3    -68746.95748  24146823.55148
  22721571.109 6   -170983.020 6    -92822.71147  22721568.17247
  23855257.516 5   -185432.398 5    -78106.89546  23855255.59046
 20  5 16  5  8  7.0000000  0  7G01G07G08G11G17G22G28               -0.000092892
  20061197.289 7   -128960.328 7    -81112.91849  20061197.87149
  20810465.555 6    -99620.316 6    -52633.56349  20810463.73849
  22897679.367 5    -59171.699 5    -36394.61349  22897681.24249
  20976302.680 7    -66858.012 7    -35370.60548  20976299.41448
  24145771.992 3   -161342.066 3    -73052.50048  24145772.19548
  22720490.289 6   -176663.172 6    -97248.79747  22720487.42247
  23854016.031 5   -191956.727 5    -83190.78146  23854013.98446
 20  5 16  5  8  8.0000000  0  7G01G07G08G11G17G22G28               -0.000095453
  20060492.023 7   -132665.988 7    -84000.44949  20060492.94949
  20809864.242 6   -102781.082 6    -55096.50449  20809862.32049
  22897268.680 5    -61326.738 5    -38073.87149  22897271.22749
  20975892.211 6    -69015.305 6    -37051.61348  20975889.02048
  24144720.031 3   -166868.184 3    -77358.57448  24144720.51648
  22719408.820 6   -182343.750 6   -101675.22347  22719405.93447
  23852773.898 4   -198481.914 4    -88275.33246  23852772.39846
 20  5 16  5  8  9.0000000  0  7G01G07G08G11G17G22G28               -0.000098015
  20059787.156 7   -136371.645 7    -86887.97749  20059787.89549
  20809262.789 6   -105941.883 6    -57559.46549  20809260.85549
  22896859.242 5    -63482.434 5    -39753.63349  22896860.71949
  20975481.477 6    -71172.965 6    -38732.90648  20975478.08248
  24143668.859 3   -172394.820 3    -81665.05548  24143668.88748
  22718327.961 6   -188024.680 6   -106101.91047  22718325.29347
  23851532.148 4   -205007.871 4    -93360.49646  23851530.73446
 20  5 16  5  8 10.0000000  0  7G01G07G08G11G17G22G28               -0.000100576
  20059082.047 7   -140077.141 7    -89775.37549  20059082.36749
  20808661.305 7   -109102.523 7    -60022.30149  20808659.39549
  22896448.508 5    -65638.695 5    -41433.83649  22896450.36749
  20975070.727 7    -73330.813 7    -40414.34848  20975067.41048
  24142617.906 4   -177921.840 4    -85971.82448  24142616.91848
  22717247.156 6   -193705.766 6   -110528.72747  22717244.23047
  23850290.414 4   -211534.410 4    -98446.10546  23850288.70746
 20  5 16  5  8 11.0000000  0  7G01G07G08G11G17G22G28               -0.000103140
  20058376.641 7   -143782.652 7    -92662.78949  20058377.56349
  20808059.383 7   -112263.250 7    -62485.20349  20808057.91449
  22896038.328 5    -67795.652 5    -43114.58249  22896039.80549
  20974660.172 6    -75489.074 6    -42096.10948  20974656.87148
  24141565.820 3   -183449.391 3    -90279.00848  24141565.49248
  22716165.781 6   -199387.223 6   -114955.83247  22716163.20347
  23849047.438 4   -218061.754 4   -103532.35546  23849046.48046
 20  5 16  5  8 12.0000000  0  7G01G07G08G11G17G22G28               -0.000105701
  20057671.328 7   -147488.031 7    -95550.10249  20057672.32049
  20807458.164 7   -115423.906 7    -64948.05549  20807456.12949
  22895627.578 5    -69953.199 5    -44795.78949  22895629.32849
  20974249.578 6    -77647.586 6    -43778.07048  20974246.16448
  24140513.609 4   -188977.344 4    -94586.50048  24140513.24248
  22715084.453 6   -205068.887 6   -119383.11347  22715081.73847
  23847805.922 4   -224589.742 4   -108619.10946  23847804.20346
 20  5 16  5  8 13.0000000  0  7G01G07G08G11G17G22G28               -0.000108265
  20056966.305 7   -151193.449 7    -98437.44149  20056967.30949
  20806856.977 7   -118584.625 7    -67410.95749  20806854.77049
  22895216.398 5    -72111.496 5    -46477.58249  22895218.46949
  20973838.695 7    -79806.473 7    -45460.32448  20973835.52048
  24139462.000 4   -194505.953 4    -98894.50048  24139461.46548
  22714003.250 6   -210750.898 6   -123810.65647  22714000.53147
  23846563.688 4   -231118.527 4   -113706.48446  23846561.84446
 20  5 16  5  8 14.0000000  0  7G01G07G08G11G17G22G28               -0.000110828
  20056260.961 7   -154898.762 7   -101324.69149  20056262.09849
  20806255.367 7   -121745.281 7    -69873.80149  20806253.45349
  22894805.773 5    -74270.371 5    -48159.82049  22894807.62549
  20973427.602 7    -81965.641 7    -47142.79348  20973424.56348
  24138410.039 4   -200034.906 4   -103202.76648  24138408.80948
  22712922.406 6   -216433.152 6   -128238.38747  22712919.51247
  23845321.547 4   -237647.977 4   -118794.35946  23845319.46146
 20  5 16  5  8 15.0000000  0  7G01G07G08G11G17G22G28               -0.000113394
  20055556.438 7   -158604.086 7   -104211.96549  20055557.05549
  20805653.820 7   -124905.953 7    -72336.66849  20805651.95749
  22894394.805 5    -76429.973 5    -49842.62149  22894396.73049
  20973016.758 6    -84125.207 6    -48825.56648  20973013.45348
  24137357.273 5   -205564.418 5   -107511.46948  24137356.72348
  22711840.633 6   -222115.746 6   -132666.38747  22711838.17647
  23844078.102 5   -244178.203 5   -123882.84046  23844076.59446
 20  5 16  5  8 16.0000000  0  7G01G07G08G11G17G22G28               -0.000115957
  20054851.109 7   -162309.191 7   -107099.05949  20054851.98049
  20805052.664 7   -128066.500 7    -74799.42649  20805050.71949
  22893983.586 5    -78590.027 5    -51525.78549  22893985.76249
  20972605.398 7    -86284.887 7    -50508.43848  20972602.28148
  24136304.961 5   -211094.246 5   -111820.41848  24136304.01648
  22710759.141 6   -227798.441 6   -137094.46147  22710756.22747
  23842835.516 5   -250708.941 5   -128971.72346  23842834.02346
 20  5 16  5  8 17.0000000  0  7G01G07G08G11G17G22G28               -0.000118521
  20054146.102 7   -166014.070 7   -109985.98049  20054147.32849
  20804451.078 6   -131226.813 6    -77262.01649  20804449.27749
  22893572.523 5    -80750.648 5    -53209.39149  22893574.57449
  20972194.602 7    -88444.734 7    -52191.43848  20972192.03548
  24135252.719 5   -216624.410 5   -116129.64148  24135251.80948
  22709678.555 6   -233481.250 6   -141522.62947  22709675.00847
  23841593.344 5   -257240.258 5   -134061.06346  23841591.05546
 20  5 16  5  8 18.0000000  0  7G01G07G08G11G17G22G28               -0.000121086
  20053440.852 7   -169718.707 7   -112872.71149  20053442.01249
  20803849.578 6   -134386.957 6    -79724.46549  20803847.48449
  22893161.891 5    -82911.719 5    -54893.35249  22893163.24249
  20971783.852 7    -90604.719 7    -53874.53948  20971780.64848
  24134200.391 5   -222154.836 5   -120439.06648  24134199.49648
  22708596.750 6   -239164.176 6   -145950.87947  22708593.59447
  23840349.992 5   -263772.078 5   -139150.79346  23840348.53546
 20  5 16  5  8 19.0000000  0  7G01G07G08G11G17G22G28               -0.000123652
  20052735.914 7   -173423.176 7   -115759.31349  20052736.94149
  20803248.242 6   -137546.980 6    -82186.82449  20803246.58249
  22892749.570 5    -85073.285 5    -56577.69549  22892752.29349
  20971372.984 7    -92764.883 7    -55557.78148  20971369.90248
  24133147.461 5   -227685.645 5   -124748.78948  24133147.31348
  22707515.086 6   -244847.246 6   -150379.24647  22707512.30547
  23839106.789 4   -270304.523 4   -144241.02046  23839105.61746
 20  5 16  5  8 20.0000000  0  9G01G03G07G08G11G17G22G28G30         -0.000126217
  20052031.297 7   -177127.426 7   -118645.73449  20052032.49249
  23514710.13314   -219359.21514   -121495.18058  23514713.47758
  20802647.156 6   -140706.789 6    -84649.01249  20802645.21949
  22892338.828 5    -87235.398 5    -58262.46149  22892340.35549
  20970961.445 6    -94925.219 6    -57241.16848  20970958.62148
  24132095.883 5   -233216.730 5   -129058.72348  24132094.76648
  22706433.547 6   -250530.410 6   -154807.68847  22706430.95347
  23837863.336 4   -276837.500 4   -149331.64546  23837862.23846
  21681708.57016   -166793.81316   -117532.69159  21681709.64159
 20  5 16  5  8 21.0000000  0  9G01G03G07G08G11G17G22G28G30         -0.000128782
  20051326.500 7   -180831.387 7   -121531.94149  20051327.40649
  23513418.570 4   -226147.137 4   -126784.46548  23513421.35948
  20802045.594 6   -143866.352 6    -87111.00449  20802043.64849
  22891927.156 5    -89397.922 5    -59947.53949  22891929.06349
  20970550.984 6    -97085.598 6    -58924.57848  20970547.29348
  24131042.453 5   -238748.055 5   -133368.84048  24131042.33248
  22705352.516 6   -256213.617 6   -159236.15648  22705349.23048
  23836620.289 5   -283370.949 5   -154422.63746  23836618.77346
  21680730.688 6   -171931.863 6   -121536.35949  21680731.65649
 20  5 16  5  8 22.0000000  0  9G01G03G07G08G11G17G22G28G30         -0.000131348
  20050621.531 7   -184534.980 7   -124417.85549  20050622.27049
  23512126.984 4   -232935.434 4   -132074.04748  23512129.94148
  20801444.625 7   -147025.594 7    -89572.75449  20801442.23449
  22891515.938 5    -91560.762 5    -61632.86749  22891517.83649
  20970139.375 6    -99246.008 6    -60608.01648  20970136.10548
  24129990.031 5   -244279.621 5   -137679.14848  24129989.73448
  22704270.406 6   -261896.820 6   -163664.63348  22704267.65248
  23835376.289 5   -289904.777 5   -159513.93046  23835375.33246
  21679753.211 6   -177069.637 6   -125539.82849  21679753.80149
 20  5 16  5  8 23.0000000  0  9G01G03G07G08G11G17G22G28G30         -0.000133915
  20049917.070 7   -188238.438 7   -127303.66849  20049918.37149
  23510834.344 3   -239724.137 3   -137363.93848  23510838.34848
  20800843.766 7   -150184.738 7    -92034.42649  20800841.06649
  22891104.414 5    -93724.195 5    -63318.66849  22891105.71949
  20969727.992 6   -101406.633 6    -62291.62548  20969725.29748
  24128937.367 5   -249811.516 5   -141989.71148  24128936.98448
  22703188.797 6   -267580.191 6   -168093.23448  22703186.87148
  23834133.594 5   -296439.262 5   -164605.74246  23834132.02346
  21678775.352 6   -182207.336 6   -129543.22749  21678776.51649
 20  5 16  5  8 24.0000000  0  9G01G03G07G08G11G17G22G28G30         -0.000136482
  20049212.250 7   -191941.645 7   -130189.28949  20049213.27349
  23509542.898 4   -246513.266 4   -142654.16848  23509546.33248
  20800242.203 6   -153343.680 6    -94495.94549  20800239.73449
  22890692.320 5    -95888.082 5    -65004.81649  22890694.14149
  20969316.930 7   -103567.398 7    -63975.33648  20969314.15648
  24127884.500 5   -255343.723 5   -146300.52048  24127884.21548
  22702107.477 6   -273263.652 6   -172521.89847  22702104.59047
  23832890.164 5   -302974.242 5   -169697.93046  23832888.48046
  21677797.664 6   -187344.844 6   -133546.48049  21677798.30949
 20  5 16  5  8 25.0000000  0  9G01G03G07G08G11G17G22G28G30         -0.000139048
  20048507.945 7   -195644.605 7   -133074.71149  20048509.06649
  23508250.945 4   -253302.824 4   -147944.73448  23508253.93048
  20799641.094 7   -156502.426 7    -96957.30549  20799638.68849
  22890280.547 5    -98052.414 5    -66691.31349  22890282.42649
  20968905.773 6   -105728.285 6    -65659.14848  20968903.34048
  24126832.117 5   -260876.227 5   -150611.55148  24126831.34048
  22701026.250 6   -278947.219 6   -176950.65247  22701023.53547
  23831645.859 5   -309509.777 5   -174790.54347  23831644.54347
  21676819.914 6   -192482.203 6   -137549.61749  21676820.46949
 20  5 16  5  8 26.0000000  0  9G01G03G07G08G11G17G22G28G30         -0.000141615
  20047803.117 7   -199347.309 7   -135959.93449  20047804.15649
  23506958.539 4   -260092.715 4   -153235.55148  23506962.06648
  20799040.250 6   -159660.934 6    -99418.47749  20799037.93449
  22889868.188 5   -100217.188 5    -68378.14549  22889870.27049
  20968494.734 6   -107889.254 6    -67343.01248  20968491.59848
  24125779.398 5   -266408.996 5   -154922.78948  24125778.58648
  22699944.891 6   -284630.836 6   -181379.44548  22699942.03148
  23830402.180 5   -316045.746 5   -179883.50846  23830400.69546
  21675842.727 6   -197619.344 6   -141552.58649  21675843.21949
 20  5 16  5  8 27.0000000  0  9G01G03G07G08G11G17G22G28G30         -0.000144182
  20047098.469 7   -203049.793 7   -138844.98849  20047099.32049
  23505666.227 4   -266883.035 4   -158526.69548  23505670.01648
  20798439.156 6   -162819.289 6   -101879.53549  20798437.12949
  22889456.445 5   -102382.477 5    -70065.39149  22889457.80149
  20968083.375 7   -110050.387 7    -69027.00848  20968080.37948
  24124725.938 5   -271942.066 5   -159234.27348  24124726.01648
  22698863.016 6   -290314.547 6   -185808.31348  22698860.33648
  23829158.766 5   -322582.293 5   -184976.91046  23829156.62146
  21674865.281 6   -202756.320 6   -145555.42649  21674865.95349
 20  5 16  5  8 28.0000000  0  9G01G03G07G08G11G17G22G28G30         -0.000146749
  20046393.891 7   -206751.949 7   -141729.77749  20046394.96549
  23504374.266 4   -273673.699 4   -163818.10948  23504377.25048
  20797838.234 6   -165977.340 6   -104340.35249  20797835.41849
  22889044.273 5   -104548.160 5    -71752.93449  22889046.17249
  20967672.336 7   -112211.563 7    -70711.03948  20967669.38748
  24123673.063 5   -277475.320 5   -163545.90248  24123672.98448
  22697781.438 6   -295998.305 6   -190237.21948  22697778.44548
  23827914.594 5   -329119.293 5   -190070.67246  23827912.35546
  21673887.773 6   -207893.055 6   -149558.07449  21673888.00049
 20  5 16  5  8 29.0000000  0  9G01G03G07G08G11G17G22G28G30         -0.000149319
  20045689.234 7   -210453.809 7   -144614.34849  20045690.65649
  23503082.031 4   -280464.652 4   -169109.75848  23503085.09048
  20797237.516 7   -169135.180 7   -106801.01249  20797235.41449
  22888632.086 5   -106714.250 5    -73440.80149  22888633.97749
  20967260.820 7   -114372.844 7    -72395.15648  20967258.16848
  24122619.625 5   -283008.937 5   -167857.81048  24122620.07848
  22696699.672 6   -301682.082 6   -194666.14148  22696696.88748
  23826670.820 5   -335656.773 5   -195164.82446  23826668.88346
  21672909.891 6   -213029.563 6   -153560.54349  21672911.16449
 20  5 16  5  8 30.0000000  0  9G01G03G07G08G11G17G22G28G30         -0.000151886
  20044984.836 7   -214155.453 7   -147498.74649  20044985.83649
  23501789.797 4   -287256.047 4   -174401.75448  23501792.60948
  20796636.789 7   -172292.770 7   -109261.46949  20796634.26249
  22888220.203 5   -108880.832 5    -75129.04349  22888221.23849
  20966849.438 7   -116534.266 7    -74079.39148  20966846.77748
  24121566.344 5   -288542.742 5   -172169.85548  24121566.85248
  22695618.203 6   -307365.957 6   -199095.13348  22695615.40648
  23825426.031 4   -342194.758 4   -200259.35546  23825424.73846
  21671932.711 6   -218165.902 6   -157562.89149  21671933.59849
 20  5 16  5  8 31.0000000  0  9G01G03G07G08G11G17G22G28G30         -0.000154455
  20044280.656 7   -217856.805 7   -150382.91849  20044281.82049
  23500497.719 4   -294047.809 4   -179694.03147  23500500.26647
  20796036.000 7   -175450.148 7   -111721.76649  20796033.53549
  22887807.703 5   -111047.781 5    -76817.58249  22887808.97349
  20966438.203 7   -118695.754 7    -75763.67248  20966435.29348
  24120513.398 5   -294076.813 5   -176482.10948  24120513.68448
  22694536.523 6   -313049.910 6   -203524.18048  22694534.07448
  23824181.828 5   -348733.219 5   -205354.25046  23824180.58646
  21670955.242 6   -223302.023 6   -161565.06649  21670955.78949
 20  5 16  5  8 32.0000000  0  9G01G03G07G08G11G17G22G28G30         -0.000157022
  20043576.516 7   -221557.859 7   -153266.85949  20043577.37949
  23499205.008 3   -300839.855 3   -184986.53147  23499208.35947
  20795435.094 7   -178607.273 7   -114181.85949  20795432.37149
  22887395.906 5   -113215.168 5    -78506.45749  22887396.65649
  20966027.109 7   -120857.313 7    -77448.00448  20966024.39848
  24119459.867 5   -299611.145 5   -180794.56648  24119460.38348
  22693455.492 6   -318733.875 6   -207953.24648  22693451.92248
  23822937.539 5   -355272.168 5   -210449.53546  23822936.09046
  21669978.016 6   -228437.906 6   -165567.04749  21669978.55949
 20  5 16  5  8 33.0000000  0  9G01G03G07G08G11G17G22G28G30         -0.000159592
  20042872.102 7   -225258.672 7   -156150.60549  20042873.30949
  23497912.977 4   -307632.316 4   -190279.35947  23497914.86747
  20794834.141 7   -181764.223 7   -116641.81649  20794831.86749
  22886982.773 5   -115383.051 5    -80195.71949  22886984.02349
  20965615.711 7   -123018.996 7    -79132.43048  20965612.71948
  24118406.656 5   -305145.758 5   -185107.24648  24118407.25048
  22692373.391 6   -324417.926 6   -212382.37948  22692370.52748
  23821693.406 5   -361811.648 5   -215545.22746  23821691.42646
  21669000.836 6   -233573.625 6   -169568.91449  21669001.09049
 20  5 16  5  8 34.0000000  0  9G01G03G07G08G11G17G22G28G30         -0.000162161
  20042167.648 7   -228959.254 7   -159034.18449  20042169.10949
  23496619.523 4   -314425.234 4   -195572.53948  23496622.61348
  20794233.680 7   -184920.938 7   -119101.59849  20794230.79749
  22886570.367 5   -117551.348 5    -81885.30149  22886571.75849
  20965204.258 7   -125180.836 7    -80816.98048  20965201.82848
  24117353.617 4   -310680.664 4   -189420.16048  24117354.33648
  22691292.156 6   -330102.094 6   -216811.60248  22691288.53148
  23820448.352 5   -368351.660 5   -220641.35246  23820447.16046
  21668024.063 6   -238709.156 6   -173570.62549  21668024.66049
 20  5 16  5  8 35.0000000  0  9G01G03G07G08G11G17G22G28G30         -0.000164730
  20041463.828 7   -232659.496 7   -161917.48449  20041465.43849
  23495327.445 4   -321218.387 4   -200865.90248  23495330.13748
  20793632.992 6   -188077.355 6   -121561.14849  20793630.71149
  22886157.297 5   -119720.047 5    -83575.19549  22886158.90649
  20964792.914 7   -127342.719 7    -82501.56348  20964790.21948
  24116300.992 5   -316215.770 5   -193733.23448  24116300.93448
  22690210.094 6   -335786.223 6   -221240.78948  22690206.98048
  23819204.305 5   -374892.109 5   -225737.78946  23819202.76246
  21667046.430 6   -243844.434 6   -177572.14549  21667046.99249
 20  5 16  5  8 36.0000000  0  9G01G03G07G08G11G17G22G28G30         -0.000167299
  20040759.383 7   -236359.434 7   -164800.55549  20040760.97349
  23494034.258 4   -328011.891 4   -206159.53548  23494036.96548
  20793032.359 6   -191233.535 6   -124020.51249  20793029.80149
  22885744.633 5   -121889.133 5    -85265.39149  22885746.13749
  20964381.211 7   -129504.656 7    -84186.18848  20964378.44148
  24115247.563 5   -321751.109 5   -198046.49248  24115247.53948
  22689128.938 6   -341470.414 6   -225670.03148  22689125.03548
  23817959.664 5   -381432.988 5   -230834.58246  23817957.63346
  21666069.430 6   -248979.469 6   -181573.47349  21666069.73049
 20  5 16  5  8 37.0000000  0  9G01G03G07G08G11G17G22G28G30         -0.000169870
  20040055.703 7   -240058.977 7   -167683.32049  20040057.26249
  23492741.328 4   -334805.672 4   -211453.40248  23492744.00848
  20792431.766 7   -194389.336 7   -126479.58649  20792429.67249
  22885332.039 5   -124058.523 5    -86955.82049  22885333.03149
  20963970.117 6   -131666.563 6    -85870.79348  20963967.53948
  24114193.875 5   -327286.590 5   -202359.85948  24114193.84448
  22688047.391 6   -347154.531 6   -230099.21547  22688043.57047
  23816713.922 5   -387974.273 5   -235931.69146  23816713.09846
  21665092.102 6   -254114.184 6   -185574.55149  21665093.24249
 20  5 16  5  8 38.0000000  0  9G01G03G07G08G11G17G22G28G30         -0.000172440
  20039351.938 7   -243758.145 7   -170565.79349  20039352.94949
  23491448.938 4   -341599.617 4   -216747.39148  23491451.55148
  20791831.672 7   -197544.820 7   -128938.40649  20791828.78549
  22884919.313 5   -126228.227 5    -88646.50049  22884920.37149
  20963558.516 7   -133828.434 7    -87555.36348  20963556.12148
  24113140.375 5   -332822.199 5   -206673.32048  24113140.92648
  22686965.563 6   -352838.551 6   -234528.31647  22686962.54747
  23815470.477 5   -394515.879 5   -241029.04746  23815468.04746
  21664115.516 6   -259248.547 6   -189575.34449  21664116.28549
 20  5 16  5  8 39.0000000  0  9G01G03G07G08G11G17G22G28G30         -0.000175009
  20038648.016 7   -247456.891 7   -173447.92649  20038649.06349
  23490155.469 4   -348393.859 4   -222041.61348  23490158.69948
  20791230.875 7   -200699.898 7   -131396.90649  20791228.14549
  22884506.039 5   -128398.281 5    -90337.45349  22884507.12149
  20963147.180 7   -135990.273 7    -89239.91848  20963145.00448
  24112086.906 5   -338357.930 5   -210986.87548  24112087.21948
  22685883.883 6   -358522.539 6   -238957.40647  22685880.73847
  23814224.883 5   -401057.891 5   -246126.72346  23814223.23446
  21663138.430 6   -264382.586 6   -193575.89549  21663139.14549
 20  5 16  5  8 40.0000000  0  9G01G03G07G08G11G17G22G28G30         -0.000177580
  20037944.211 7   -251155.309 7   -176329.80949  20037945.25849
  23488862.672 4   -355188.395 4   -227336.05548  23488865.59448
  20790631.039 6   -203854.699 6   -133855.19549  20790628.18449
  22884091.766 5   -130568.688 5    -92028.68049  22884094.26249
  20962735.938 6   -138152.164 6    -90924.51248  20962733.23848
  24111033.000 5   -343893.898 5   -215300.61748  24111033.74648
  22684802.203 6   -364206.492 6   -243386.45747  22684799.39847
  23812979.250 5   -407600.250 5   -251224.66846  23812978.22746
  21662161.398 6   -269516.336 6   -197576.22749  21662162.20349
 20  5 16  5  8 41.0000000  0  9G01G03G07G08G11G17G22G28G30         -0.000180151
  20037240.367 7   -254853.332 7   -179211.38349  20037241.86349
  23487569.414 4   -361983.164 4   -232630.66848  23487572.40248
  20790030.695 6   -207009.121 6   -136313.18049  20790028.18049
  22883679.438 5   -132739.426 5    -93720.17249  22883680.78549
  20962324.383 6   -140314.027 6    -92609.08248  20962321.98448
  24109979.602 4   -349429.969 4   -219614.43448  24109980.29348
  22683720.156 6   -369890.395 6   -247815.47348  22683717.45748
  23811734.922 5   -414143.074 5   -256322.96946  23811732.97746
  21661184.297 6   -274649.793 6   -201576.32849  21661185.44149
 20  5 16  5  8 42.0000000  0  9G01G03G07G08G11G17G22G28G30         -0.000182722
  20036536.688 7   -258550.898 7   -182092.60549  20036538.00849
  23486277.023 4   -368778.094 4   -237925.40248  23486279.36348
  20789430.055 7   -210163.168 7   -138770.88349  20789427.75449
  22883266.391 5   -134910.418 5    -95411.85249  22883268.36749
  20961913.313 7   -142475.809 7    -94293.58648  20961910.68448
  24108926.414 4   -354966.113 4   -223928.31348  24108926.98848
  22682638.789 6   -375574.164 6   -252244.37947  22682635.98047
  23810489.477 4   -420686.172 4   -261421.49646  23810488.11346
  21660207.906 6   -279782.836 6   -205576.10249  21660208.74649
 20  5 16  5  8 43.0000000  0  9G01G03G07G08G11G17G22G28G30         -0.000185293
  20035833.133 7   -262248.086 7   -184973.53149  20035834.49649
  23484983.563 4   -375573.328 4   -243220.39548  23484986.16848
  20788830.094 7   -213316.852 7   -141228.30149  20788827.55149
  22882853.328 5   -137081.715 5    -97103.77749  22882855.12949
  20961501.797 7   -144637.590 7    -95978.09048  20961499.42648
  24107873.141 4   -360502.406 4   -228242.30148  24107873.25048
  22681556.898 6   -381257.883 6   -256673.25247  22681554.62947
  23809244.398 5   -427229.625 5   -266520.28146  23809242.85546
  21659231.250 6   -284915.566 6   -209575.63349  21659232.05949
 20  5 16  5  8 44.0000000  0  9G01G03G07G08G11G17G22G28G30         -0.000187864
  20035130.047 7   -265944.887 7   -187854.15649  20035130.96549
  23483690.969 4   -382368.734 4   -248515.51248  23483693.23048
  20788230.148 7   -216470.195 7   -143685.45349  20788227.43449
  22882439.914 5   -139253.336 5    -98795.95349  22882441.78949
  20961090.273 7   -146799.340 7    -97662.57048  20961087.68848
  24106819.820 4   -366038.859 4   -232556.42248  24106819.98048
  22680475.719 6   -386941.563 6   -261102.09847  22680472.46947
  23807999.430 5   -433773.434 5   -271619.34046  23807997.41046
  21658254.781 6   -290047.969 6   -213574.90649  21658255.34449
 20  5 16  5  8 45.0000000  0  9G01G03G07G08G11G17G22G28G30         -0.000190435
  20034426.031 7   -269641.313 7   -190734.49249  20034428.03149
  23482397.703 4   -389164.484 4   -253810.90248  23482399.87548
  20787630.266 7   -219623.215 7   -146142.35949  20787627.57049
  22882026.555 5   -141425.313 5   -100488.40649  22882028.10249
  20960679.164 7   -148961.098 7    -99347.05948  20960676.55148
  24105766.461 4   -371575.488 4   -236870.68848  24105766.17248
  22679394.258 6   -392625.223 6   -265530.92247  22679391.42247
  23806753.797 5   -440317.699 5   -276718.76646  23806751.93446
  21657277.844 6   -295180.094 6   -217573.96949  21657278.47749
 20  5 16  5  8 46.0000000  0  9G01G03G07G08G11G17G22G28G30         -0.000193007
  20033723.094 7   -273337.414 7   -193614.57449  20033724.26649
  23481104.109 4   -395960.469 4   -259106.46948  23481107.13748
  20787030.141 6   -222775.914 6   -148599.01249  20787027.42649
  22881613.641 5   -143597.613 5   -102181.10949  22881615.00449
  20960267.789 7   -151122.875 7   -101031.56348  20960265.43848
  24104712.961 5   -377112.297 5   -241185.08648  24104712.44148
  22678311.766 6   -398308.781 6   -269959.67648  22678309.54348
  23805508.180 5   -446862.352 5   -281818.49246  23805506.86346
  21656301.367 6   -300311.906 6   -221572.78149  21656302.35949
 20  5 16  5  8 47.0000000  0  9G01G03G07G08G11G17G22G28G30         -0.000195578
  20033019.406 7   -277033.008 7   -196494.25449  20033020.73849
  23479810.336 4   -402756.660 4   -264402.20348  23479813.52748
  20786430.125 7   -225928.203 7   -151055.34049  20786427.74249
  22881200.008 5   -145770.176 5   -103874.02049  22881201.52049
  20959856.250 7   -153284.555 7   -102715.98448  20959854.00848
  24103659.094 5   -382649.152 5   -245499.51248  24103658.80148
  22677230.609 6   -403992.281 6   -274388.37948  22677228.23848
  23804263.711 5   -453407.273 5   -286918.42646  23804261.43846
  21655324.930 6   -305443.289 6   -225571.26649  21655326.01249
 20  5 16  5  8 48.0000000  0  9G01G03G07G08G11G17G22G28G30         -0.000198149
  20032316.594 7   -280728.184 7   -199373.61349  20032317.90649
  23478517.344 4   -409553.016 4   -269698.06348  23478520.26648
  20785830.594 6   -229080.086 6   -153511.35249  20785828.21149
  22880786.797 5   -147943.000 5   -105567.13349  22880787.96549
  20959445.094 7   -155446.184 7   -104400.37548  20959442.82048
  24102605.414 5   -388186.113 5   -249814.02048  24102605.25048
  22676149.094 6   -409675.625 6   -278816.94547  22676146.81647
  23803017.555 5   -459952.582 5   -292018.68046  23803016.11746
  21654348.430 6   -310574.352 6   -229569.49249  21654349.41449
 20  5 16  5  8 49.0000000  0  9G01G03G07G08G11G17G22G28G30         -0.000200722
  20031613.359 7   -284422.898 7   -202252.60949  20031614.86349
  23477224.758 4   -416349.598 4   -274994.09048  23477226.67648
  20785230.992 7   -232231.563 7   -155967.05149  20785228.56649
  22880373.102 5   -150116.117 5   -107260.47749  22880374.51649
  20959033.602 7   -157607.711 7   -106084.68448  20959031.12948
  24101551.781 5   -393723.172 5   -254128.61348  24101551.39148
  22675067.328 6   -415358.867 6   -283245.44547  22675065.23047
  23801771.906 5   -466498.152 5   -297119.13746  23801770.56346
  21653372.109 6   -315705.008 6   -233567.41849  21653373.58649
 20  5 16  5  8 50.0000000  0  9G01G03G07G08G11G17G22G28G30         -0.000203293
  20030910.273 7   -288117.148 7   -205131.24249  20030911.80149
  23475930.711 4   -423146.281 4   -280290.20748  23475933.44148
  20784630.898 6   -235382.594 6   -158422.39849  20784628.97749
  22879959.063 5   -152289.414 5   -108953.95749  22879961.08249
  20958622.313 7   -159769.164 7   -107768.93448  20958620.06348
  24100498.789 5   -399260.281 5   -258443.24648  24100497.77748
  22673986.039 6   -421041.969 6   -287673.83647  22673983.92247
  23800525.984 5   -473044.008 5   -302219.79746  23800524.35946
  21652395.555 6   -320835.250 6   -237565.00849  21652397.02349
 20  5 16  5  8 51.0000000  0  9G01G03G07G08G11G17G22G28G30         -0.000205866
  20030207.461 7   -291810.848 7   -208009.45749  20030209.19949
  23474638.273 4   -429943.113 4   -285586.43048  23474640.05948
  20784032.039 7   -238533.141 7   -160877.37549  20784029.41049
  22879545.523 5   -154462.910 5   -110647.59049  22879547.76649
  20958211.219 7   -161930.422 7   -109453.02748  20958208.75848
  24099445.000 5   -404797.359 5   -262757.86348  24099443.72748
  22672904.711 6   -426724.820 6   -292102.02747  22672902.30147
  23799280.063 4   -479590.082 4   -307320.63346  23799278.68046
  21651419.617 6   -325965.016 6   -241562.22349  21651420.80949
 20  5 16  5  8 52.0000000  0  9G01G03G07G08G11G17G22G28G30         -0.000208437
  20029504.820 7   -295504.109 7   -210887.32449  20029506.44149
  23473344.430 4   -436740.073 4   -290882.76048  23473346.68848
  20783432.094 6   -241683.277 6   -163332.02749  20783429.98449
  22879131.891 5   -156636.656 5   -112341.41849  22879134.06349
  20957799.656 7   -164091.613 7   -111137.07848  20957797.55948
  24098390.727 5   -410334.539 5   -267072.55548  24098390.36748
  22671823.633 6   -432407.578 6   -296530.14547  22671821.31347
  23798034.828 5   -486136.500 5   -312421.72346  23798032.99246
  21650443.602 6   -331094.387 6   -245559.13749  21650445.05149
 20  5 16  5  8 53.0000000  0  9G01G03G07G08G11G17G22G28G30         -0.000211010
  20028802.008 7   -299196.977 7   -213764.88349  20028803.64549
  23472050.938 4   -443537.320 4   -296179.31648  23472053.00048
  20782832.609 6   -244833.043 6   -165786.39549  20782830.85949
  22878718.453 5   -158810.684 5   -114035.46549  22878720.12549
  20957388.633 7   -166252.762 7   -112821.08248  20957386.41448
  24097337.563 5   -415871.840 5   -271387.32848  24097336.66448
  22670742.016 6   -438090.246 6   -300958.19147  22670739.25847
  23796789.188 5   -492683.238 5   -317523.08246  23796787.32846
  21649467.367 6   -336223.430 6   -249555.79349  21649469.19149
 20  5 16  5  8 54.0000000  0  9G01G03G07G08G11G17G22G28G30         -0.000213583
  20028099.078 7   -302889.359 7   -216642.06649  20028101.00849
  23470756.961 4   -450334.676 4   -301475.95348  23470759.32048
  20782233.289 6   -247982.391 6   -168240.42249  20782231.37949
  22878304.664 5   -160984.977 5   -115729.72749  22878306.18049
  20956977.438 7   -168413.828 7   -114505.03148  20956975.28148
  24096283.313 5   -421409.230 5   -275702.16048  24096282.68848
  22669661.164 6   -443772.789 6   -305386.15647  22669658.52347
  23795543.797 5   -499230.273 5   -322624.66046  23795541.36746
  21648491.813 6   -341352.063 6   -253552.13749  21648492.92249
 20  5 16  5  8 55.0000000  0  9G01G03G07G08G11G17G22G28G30         -0.000216154
  20027396.875 7   -306581.254 7   -219518.87149  20027398.40649
  23469463.523 4   -457132.215 4   -306772.73448  23469466.04348
  20781634.500 7   -251131.301 7   -170694.11749  20781632.19549
  22877890.867 5   -163159.473 5   -117424.13749  22877892.65249
  20956565.953 7   -170574.766 7   -116188.87948  20956563.80548
  24095229.992 5   -426946.672 5   -280017.03548  24095229.28548
  22668579.422 6   -449455.176 6   -309813.99247  22668576.84447
  23794296.656 5   -505777.629 5   -327726.49646  23794295.60546
  21647515.805 6   -346480.277 6   -257548.14849  21647517.32049
 20  5 16  5  8 56.0000000  0  9G01G03G07G08G11G17G22G28G30         -0.000218727
  20026694.398 7   -310272.637 7   -222395.27049  20026696.19549
  23468170.375 4   -463929.859 4   -312069.60548  23468172.57848
  20781035.148 7   -254279.688 7   -173147.40649  20781033.28149
  22877476.977 5   -165334.137 5   -119118.68449  22877478.94949
  20956155.180 7   -172735.555 7   -117872.61748  20956152.75848
  24094176.039 5   -432484.113 5   -284331.92248  24094175.29348
  22667498.430 6   -455137.340 6   -314241.64847  22667496.00047
  23793051.039 5   -512325.145 5   -332828.44546  23793049.37146
  21646539.688 6   -351608.047 6   -261543.81649  21646541.61349
 20  5 16  5  8 57.0000000  0  9G01G03G07G08G11G17G22G28G30         -0.000221300
  20025992.563 7   -313963.441 7   -225271.21949  20025993.74649
  23466876.586 4   -470727.543 4   -317366.50048  23466879.23848
  20780436.078 6   -257427.582 6   -175600.32049  20780434.07849
  22877063.148 5   -167509.000 5   -120813.38749  22877065.07449
  20955743.539 7   -174896.145 7   -119556.19548  20955741.73048
  24093122.570 5   -438021.508 5   -288646.77748  24093121.28948
  22666417.234 6   -460819.289 6   -318669.14147  22666414.66447
  23791805.055 5   -518872.906 5   -337930.60246  23791803.30946
  21645564.516 6   -356735.254 6   -265539.04349  21645565.82849
 20  5 16  5  8 58.0000000  0  9G01G03G07G08G11G17G22G28G30         -0.000223873
  20025289.945 7   -317653.781 7   -228146.80949  20025291.36349
  23465582.391 4   -477525.438 4   -322663.55948  23465585.61348
  20779837.180 6   -260575.059 6   -178052.90249  20779835.27749
  22876649.305 5   -169684.051 5   -122508.23449  22876651.13749
  20955332.820 7   -177056.641 7   -121239.69548  20955330.32848
  24092068.992 5   -443558.961 5   -292961.67648  24092067.43848
  22665335.797 6   -466501.116 6   -323096.53147  22665333.24247
  23790559.695 5   -525420.969 5   -343032.99646  23790557.24646
  21644588.977 6   -361862.113 6   -269533.99249  21644590.41849
 20  5 16  5  8 59.0000000  0  9G01G03G07G08G11G17G22G28G30         -0.000226446
  20024587.828 7   -321343.625 7   -231022.01249  20024589.08249
  23464288.820 4   -484323.438 4   -327960.70348  23464292.01648
  20779238.609 7   -263722.066 7   -180505.11349  20779236.43049
  22876235.234 5   -171859.344 5   -124203.26249  22876237.43849
  20954921.563 7   -179217.020 7   -122923.10948  20954919.29348
  24091014.875 5   -449096.488 5   -297276.63348  24091013.80948
  22664254.250 6   -472182.719 6   -327523.75047  22664252.63347
  23789313.133 5   -531969.289 5   -348135.58646  23789311.43446
  21643613.023 6   -366988.520 6   -273528.59849  21643614.80549
 20  5 16  5  9  0.0000000  0  9G01G03G07G08G11G17G22G28G30         -0.000229019
  20023885.516 7   -325032.941 7   -233896.80949  20023887.22349
  23462996.016 4   -491121.516 4   -333257.89548  23462998.51248
  20778639.531 6   -266868.574 6   -182956.93849  20778637.68049
  22875821.500 5   -174034.797 5   -125898.42649  22875823.28549
  20954510.461 7   -181377.230 7   -124606.39148  20954507.99248
  24089960.938 5   -454633.996 5   -301591.57448  24089960.39148
  22663173.859 6   -477864.156 6   -331950.85247  22663171.23047
  23788067.047 5   -538517.820 5   -353238.34446  23788064.92646
  21642637.438 6   -372114.449 6   -277522.82449  21642639.16049
 20  5 16  5  9  1.0000000  0  9G01G03G07G08G11G17G22G28G30         -0.000231592
  20023183.508 7   -328721.734 7   -236771.18849  20023184.80549
  23461702.000 4   -497919.781 4   -338555.24248  23461705.26248
  20778040.922 6   -270014.629 6   -185408.40249  20778038.98449
  22875407.539 5   -176210.434 5   -127593.73449  22875409.05949
  20954099.227 7   -183537.297 7   -126289.55948  20954096.77748
  24088907.625 5   -460171.543 5   -305906.53948  24088906.57848
  22662092.625 6   -483545.398 6   -336377.78947  22662089.84447
  23786820.672 5   -545066.621 5   -358341.30146  23786818.83246
  21641662.172 6   -377239.961 6   -281516.72749  21641663.51649
 20  5 16  5  9  2.0000000  0  9G01G03G07G08G11G17G22G28G30         -0.000234165
  20022481.539 7   -332410.047 7   -239645.20349  20022483.55149
  23460408.016 4   -504718.117 4   -343852.64848  23460411.30548
  20777442.758 6   -273160.227 6   -187859.52749  20777440.76649
  22874993.070 5   -178386.250 5   -129289.17649  22874995.09449
  20953688.602 7   -185697.266 7   -127972.65648  20953686.68048
  24087853.320 5   -465709.137 5   -310221.53548  24087853.04348
  22661011.102 6   -489226.480 6   -340804.60947  22661008.62547
  23785574.117 5   -551615.684 5   -363444.46546  23785572.69146
  21640686.875 6   -382365.023 6   -285510.28549  21640688.64549
 20  5 16  5  9  3.0000000  0  9G01G03G07G08G11G17G22G28G30         -0.000236740
  20021780.148 7   -336097.883 7   -242518.84049  20021781.46549
  23459114.578 4   -511516.664 4   -349150.21548  23459117.58648
  20776843.703 6   -276305.387 6   -190310.30149  20776841.57049
  22874578.961 5   -180562.309 5   -130984.81349  22874580.76249
  20953277.438 7   -187857.102 7   -129655.64848  20953274.92648
  24086799.281 5   -471246.730 5   -314536.54348  24086799.01648
  22659930.000 6   -494907.383 6   -345231.28547  22659927.84047
  23784327.898 4   -558165.016 4   -368547.84046  23784326.57846
  21639711.758 6   -387489.660 6   -289503.50849  21639713.40649
 20  5 16  5  9  4.0000000  0  9G01G03G07G08G11G17G22G28G30         -0.000239313
  20021078.469 7   -339785.086 7   -245391.98449  20021080.19149
  23457820.406 4   -518315.180 4   -354447.75448  23457823.96548
  20776245.563 6   -279449.945 6   -192760.60549  20776243.68049
  22874165.117 5   -182738.453 5   -132680.50449  22874166.93049
  20952866.211 7   -190016.680 7   -131338.43048  20952864.31648
  24085745.930 5   -476784.281 5   -318851.52048  24085745.52048
  22658849.078 6   -500587.992 6   -349657.73447  22658846.70747
  23783080.758 5   -564714.496 5   -373651.32446  23783080.04746
  21638736.945 6   -392613.742 6   -293496.29749  21638738.15249
 20  5 16  5  9  5.0000000  0  9G01G03G07G08G11G17G22G28G30         -0.000241886
  20020376.609 7   -343471.723 7   -248264.69149  20020378.35949
  23456527.336 4   -525113.773 4   -359745.35948  23456530.22348
  20775647.414 6   -282594.004 6   -195210.51249  20775645.42249
  22873750.453 5   -184914.742 5   -134376.30949  22873752.94549
  20952455.688 7   -192176.090 7   -133021.09448  20952453.39848
  24084691.930 5   -482321.805 5   -323166.47348  24084691.95348
  22657768.641 6   -506268.418 6   -354084.03947  22657765.99247
  23781835.273 5   -571264.164 5   -378754.96146  23781833.76646
  21637761.930 6   -397737.340 6   -297488.71149  21637763.14149
 20  5 16  5  9  6.0000000  0  9G01G03G07G08G11G17G22G28G30         -0.000244461
  20019674.844 7   -347157.953 7   -251137.07849  20019677.10249
  23455233.141 4   -531912.598 4   -365043.14148  23455236.84048
  20775048.953 7   -285737.688 7   -197660.14149  20775047.29749
  22873336.391 5   -187091.352 5   -136072.37149  22873338.80549
  20952044.609 7   -194335.434 7   -134703.69548  20952042.89148
  24083638.117 5   -487859.422 5   -327481.50448  24083637.87148
  22656687.227 6   -511948.672 6   -358510.20347  22656685.12947
  23780588.648 4   -577814.199 4   -383858.89546  23780587.32046
  21636787.375 6   -402860.570 6   -301480.84049  21636788.11749
 20  5 16  5  9  7.0000000  0  9G01G03G07G08G11G17G22G28G30         -0.000247034
  20018973.859 7   -350843.746 7   -254009.12149  20018975.66449
  23453939.438 4   -538711.563 4   -370341.03148  23453942.98048
  20774450.805 7   -288880.969 7   -200109.45349  20774448.78149
  22872922.711 5   -189268.172 5   -137768.59449  22872924.34049
  20951633.773 7   -196494.738 7   -136386.27748  20951631.70348
  24082583.508 5   -493397.145 5   -331796.60548  24082583.81348
  22655606.211 6   -517628.848 6   -362936.32448  22655604.31648
  23779342.156 5   -584364.555 5   -388963.07046  23779340.85946
  21635812.164 6   -407983.426 6   -305472.67649  21635813.41049
 20  5 16  5  9  8.0000000  0  9G01G03G07G08G11G17G22G28G30         -0.000249609
  20018272.688 7   -354528.938 7   -256880.69949  20018274.54749
  23452645.109 4   -545510.637 4   -375639.00848  23452649.48848
  20773853.000 7   -292023.711 7   -202558.34049  20773851.20749
  22872508.117 5   -191445.152 5   -139464.94549  22872509.87149
  20951222.727 7   -198653.785 7   -138068.64848  20951220.59448
  24081530.102 5   -498934.805 5   -336111.64548  24081530.37148
  22654525.492 6   -523308.770 6   -367362.23847  22654523.44547
  23778095.742 4   -590915.039 4   -394067.34046  23778094.26646
  21634837.484 6   -413105.742 6   -309464.09049  21634838.62149
 20  5 16  5  9  9.0000000  0  9G01G03G07G08G11G17G22G28G30         -0.000252182
  20017571.359 7   -358213.520 7   -259751.79749  20017573.69149
  23451351.563 4   -552309.715 4   -380936.98848  23451355.26248
  20773255.195 7   -295165.859 7   -205006.77349  20773253.04349
  22872094.383 5   -193622.207 5   -141161.35949  22872095.48849
  20950811.773 7   -200812.625 7   -139750.85948  20950810.27748
  24080475.891 4   -504472.395 4   -340426.64848  24080476.32448
  22653444.328 6   -528988.406 6   -371787.93048  22653442.48848
  23776849.492 5   -597465.703 5   -399171.73846  23776848.04346
  21633862.898 6   -418227.551 6   -313455.10549  21633863.94949
 20  5 16  5  9 10.0000000  0  9G01G03G07G08G11G17G22G28G30         -0.000254757
  20016870.375 7   -361897.637 7   -262622.53549  20016872.37949
  23450057.148 4   -559108.945 4   -386235.08648  23450061.75448
  20772657.141 7   -298307.594 7   -207454.87949  20772655.83649
  22871679.906 5   -195799.520 5   -142857.96149  22871681.52049
  20950401.344 7   -202971.344 7   -141432.97748  20950399.26248
  24079422.328 5   -510010.047 5   -344741.71548  24079422.90248
  22652364.266 6   -534667.898 6   -376213.50447  22652361.82047
  23775602.648 5   -604016.652 5   -404276.36346  23775601.13346
  21632888.125 6   -423348.898 6   -317445.76649  21632889.41049
 20  5 16  5  9 11.0000000  0  9G01G03G07G08G11G17G22G28G30         -0.000257330
  20016169.789 7   -365581.176 7   -265492.82849  20016171.37549
  23448763.867 4   -565908.219 4   -391533.21548  23448767.66048
  20772059.375 7   -301448.766 7   -209902.54749  20772057.48449
  22871265.719 5   -197976.906 5   -144554.62949  22871267.12949
  20949990.406 7   -205129.852 7   -143114.93448  20949988.57048
  24078368.539 5   -515547.625 5   -349056.71948  24078368.93048
  22651283.258 5   -540347.102 5   -380638.85547  22651280.96947
  23774355.773 5   -610567.762 5   -409381.12546  23774354.93046
  21631913.781 6   -428469.766 6   -321436.05549  21631914.75049
 20  5 16  5  9 12.0000000  0  9G01G03G07G08G11G17G22G28G30         -0.000259905
  20015468.875 7   -369264.125 7   -268362.66049  20015470.59449
  23447470.508 4   -572707.510 4   -396831.34948  23447473.86748
  20771461.984 7   -304589.434 7   -212349.81649  20771460.08649
  22870851.188 5   -200154.477 5   -146251.43049  22870852.90649
  20949580.195 7   -207288.195 7   -144796.76248  20949578.28548
  24077315.367 5   -521085.188 5   -353371.70348  24077314.99648
  22650202.344 5   -546026.086 5   -385064.03947  22650200.23047
  23773108.789 5   -617119.066 5   -414486.04746  23773108.14846
  21630938.938 6   -433590.094 6   -325425.91849  21630940.33249
 20  5 16  5  9 13.0000000  0  9G01G03G07G08G11G17G22G28G30         -0.000262478
  20014768.164 7   -372946.613 7   -271232.12949  20014770.00049
  23446175.922 4   -579507.031 4   -402129.66448  23446180.09048
  20770864.203 7   -307729.648 7   -214796.73849  20770862.73849
  22870436.914 5   -202332.246 5   -147948.40249  22870438.41849
  20949168.977 7   -209446.395 7   -146478.47748  20949167.55948
  24076261.156 4   -526622.801 4   -357686.73448  24076261.35548
  22649122.359 6   -551704.918 6   -389489.10947  22649119.64847
  23771862.836 5   -623670.680 5   -419591.20346  23771861.07846
  21629964.813 6   -438709.992 6   -329415.45349  21629965.91449
 20  5 16  5  9 14.0000000  0  9G01G03G07G08G11G17G22G28G30         -0.000265053
  20014067.242 7   -376628.570 7   -274101.19549  20014069.06649
  23444881.773 4   -586306.621 4   -407428.05148  23444886.00848
  20770266.820 7   -310869.383 7   -217243.28949  20770265.32049
  22870022.172 5   -204510.234 5   -149645.53549  22870023.84049
  20948758.328 6   -211604.473 6   -148160.09848  20948756.78948
  24075207.727 4   -532160.398 4   -362001.74648  24075207.07448
  22648041.883 6   -557383.551 6   -393914.02047  22648039.16447
  23770615.930 4   -630222.516 4   -424696.53146  23770614.41446
  21628990.602 6   -443829.453 6   -333404.64549  21628991.65649
 20  5 16  5  9 15.0000000  0  9G01G03G07G08G11G17G22G28G30         -0.000267628
  20013366.750 7   -380309.949 7   -276969.79749  20013369.03949
  23443587.797 4   -593106.297 4   -412726.49248  23443592.40248
  20769669.438 7   -314008.613 7   -219689.44149  20769667.54349
  22869607.398 5   -206688.383 5   -151342.79349  22869609.64549
  20948347.164 6   -213762.316 6   -149841.53148  20948345.63748
  24074153.469 4   -537698.023 4   -366316.78148  24074153.17648
  22646961.055 6   -563061.949 6   -398338.74247  22646958.40647
  23769369.047 4   -636774.535 4   -429802.00446  23769367.62546
  21628016.875 6   -448948.430 6   -337393.45749  21628017.41049
 20  5 16  5  9 16.0000000  0  9G01G03G07G08G11G17G22G28G30         -0.000270203
  20012666.016 7   -383990.879 7   -279838.05549  20012668.30949
  23442294.063 4   -599906.102 4   -418025.03548  23442298.24248
  20769071.930 7   -317147.379 7   -222135.23849  20769070.63749
  22869193.125 5   -208866.691 5   -153040.17649  22869194.83649
  20947936.781 6   -215920.098 6   -151522.92248  20947935.20748
  24073098.984 4   -543235.688 4   -370631.84048  24073099.78548
  22645880.375 6   -568740.180 6   -402763.33247  22645878.06347
  23768122.602 4   -643326.832 4   -434907.68046  23768120.81646
  21627042.906 6   -454066.961 6   -341381.91849  21627043.73049
 20  5 16  5  9 17.0000000  0  9G01G03G07G08G11G17G22G28G30         -0.000272778
  20011965.719 7   -387671.266 7   -282705.88749  20011967.62949
  23441000.016 4   -606706.000 4   -423323.65648  23441004.30548
  20768474.813 7   -320285.672 7   -224580.66049  20768473.60549
  22868778.289 5   -211045.195 5   -154737.71549  22868780.67249
  20947526.492 6   -218077.711 6   -153204.18448  20947524.75848
  24072046.336 4   -548773.292 4   -374946.84548  24072046.05148
  22644799.992 6   -574418.215 6   -407187.77347  22644797.39147
  23766875.828 5   -649879.379 5   -440013.55946  23766873.80146
  21626068.914 6   -459185.043 6   -345370.03149  21626069.59049
 20  5 16  5  9 18.0000000  0  9G01G03G07G08G11G17G22G28G30         -0.000275352
  20011265.891 7   -391351.195 7   -285573.36349  20011267.89849
  23439705.906 4   -613506.094 4   -428622.43048  23439710.30148
  20767877.570 7   -323423.559 7   -227025.76649  20767877.00049
  22868363.641 5   -213223.977 5   -156435.46549  22868365.34049
  20947115.898 6   -220235.238 6   -154885.37148  20947114.25848
  24070992.227 3   -554311.051 3   -379261.97748  24070992.29348
  22643719.422 6   -580096.086 6   -411612.08647  22643716.75847
  23765628.617 4   -656432.230 4   -445119.66846  23765626.70346
  21625094.961 6   -464302.707 6   -349357.82449  21625095.76249
 20  5 16  5  9 19.0000000  0  9G01G03G07G08G11G17G22G28G30         -0.000277927
  20010565.484 7   -395030.652 7   -288440.47349  20010567.42249
  23438412.109 4   -620306.320 4   -433921.31348  23438416.61748
  20767280.984 7   -326560.992 7   -229470.52049  20767279.14149
  22867949.594 5   -215402.996 5   -158133.40249  22867951.23449
  20946705.328 6   -222392.691 6   -156566.50048  20946703.37548
  24069938.688 3   -559848.840 3   -383577.13748  24069938.82848
  22642638.969 6   -585773.875 6   -416036.33647  22642636.48447
  23764381.453 4   -662985.352 4   -450225.98446  23764379.85546
  21624121.094 6   -469419.984 6   -353345.31649  21624121.72749
 20  5 16  5  9 20.0000000  0  9G01G03G07G08G11G17G22G28G30         -0.000280502
  20009865.844 7   -398709.594 7   -291307.18049  20009867.71949
  23437118.211 4   -627106.660 4   -439220.28148  23437122.68448
  20766683.828 7   -329697.957 7   -231914.91449  20766682.35249
  22867534.859 5   -217582.148 5   -159831.44549  22867536.36749
  20946294.867 6   -224549.961 6   -158247.49248  20946293.33648
  24068884.836 3   -565386.648 3   -387892.32448  24068885.02048
  22641558.664 6   -591451.426 6   -420460.39847  22641556.10947
  23763134.453 4   -669538.723 4   -455332.50846  23763132.72346
  21623147.430 6   -474536.801 6   -357332.45349  21623148.43849
 20  5 16  5  9 21.0000000  0  9G01G03G07G08G11G17G22G28G30         -0.000283077
  20009165.531 7   -402387.898 7   -294173.39849  20009167.23049
  23435823.953 4   -633907.043 4   -444519.27348  23435828.18848
  20766086.898 7   -332834.328 7   -234358.83249  20766085.56649
  22867120.203 5   -219761.410 5   -161529.57449  22867121.77049
  20945884.289 6   -226706.984 6   -159928.28548  20945882.72748
  24067829.984 2   -570924.367 2   -392207.43447  24067831.30547
  22640477.945 6   -597128.699 6   -424884.24247  22640475.94947
  23761887.648 4   -676092.238 4   -460439.13746  23761885.98046
  21622173.609 6   -479653.043 6   -361319.13749  21622174.09449
 20  5 16  5  9 22.0000000  0  9G01G03G07G08G11G17G22G28G30         -0.000285652
  20008465.742 7   -406065.648 7   -297039.18049  20008467.85949
  23434530.023 4   -640707.457 4   -449818.29748  23434534.52348
  20765490.242 7   -335970.195 7   -236802.37149  20765489.02349
  22866705.711 5   -221940.828 5   -163227.82849  22866707.16449
  20945473.906 6   -228863.809 6   -161608.93048  20945472.25848
  24066776.563 3   -576462.035 3   -396522.50447  24066776.85247
  22639398.336 5   -602805.707 5   -429307.88347  22639395.30947
  23760639.961 4   -682645.945 4   -465545.92246  23760638.75846
  21621200.609 6   -484768.789 6   -365305.43049  21621200.64149
 20  5 16  5  9 23.0000000  0  9G01G03G07G08G11G17G22G28G30         -0.000288227
  20007765.766 7   -409742.836 7   -299904.52049  20007767.98849
  23433235.477 4   -647507.941 4   -455117.37148  23433240.45348
