     2.10           OBSERVATION DATA    GPS(GPS)            RINEX VERSION / TYPE
cnvtToRINEX 3.07.0  convertToRINEX OPR  19-May-20 12:29 UTC PGM / RUN BY / DATE 
----------------------------------------------------------- COMMENT             
GG07                                                        MARKER NAME         
GG07                                                        MARKER NUMBER       
GNSS Observer       Trimble                                 OBSERVER / AGENCY   
0220247377          5700                2.32                REC # / TYPE / VERS 
                    UNKNOWN EXT                             ANT # / TYPE        
 -3050080.3065  4928158.9884  2654054.2231                  APPROX POSITION XYZ 
        0.0000        0.0000        0.0000                  ANTENNA: DELTA H/E/N
     1     1     0                                          WAVELENGTH FACT L1/2
     4    C1    L1    L2    P2                              # / TYPES OF OBSERV 
  2020     5    16     1    49   26.0000000     GPS         TIME OF FIRST OBS   
  2020     5    16     3     9    7.0000000     GPS         TIME OF LAST OBS    
     0                                                      RCV CLOCK OFFS APPL 
    18                                                      LEAP SECONDS        
    10                                                      # OF SATELLITES     
   G01  2568  2568  2568  2568                              PRN / # OF OBS      
   G04  4782  4782  4782  4782                              PRN / # OF OBS      
   G07  3439  3439  3439  3439                              PRN / # OF OBS      
   G08  4782  4782  4782  4782                              PRN / # OF OBS      
   G09  4782  4782  4782  4782                              PRN / # OF OBS      
   G11  4782  4782  4782  4782                              PRN / # OF OBS      
   G16  4782  4782  4782  4782                              PRN / # OF OBS      
   G26  4017  4017  4016  4016                              PRN / # OF OBS      
   G27  4764  4764  4764  4764                              PRN / # OF OBS      
   G31  1647  1647  1647  1647                              PRN / # OF OBS      
CARRIER PHASE MEASUREMENTS: PHASE SHIFTS REMOVED            COMMENT             
                                                            END OF HEADER       
 20  5 16  1 49 26.0000000  0  7G04G08G09G11G16G26G31               -0.000422661
  21368468.28116    -54992.45716    -25691.22358  21368467.16458
  20425732.92217    -73879.05517    -20433.14159  20425734.47759
  22766746.57816    -90884.32816    -41053.12159  22766746.56359
  22935114.20316   -117808.11716    -65417.43857  22935111.98057
  21496069.60916    -37436.46916     -9911.20358  21496067.05558
  22954800.81315    -26872.34015                
  23647176.03916    -17701.00816     -5622.93857  23647175.24657
 20  5 16  1 49 27.0000000  0  7G04G08G09G11G16G26G31               -0.000425220
  21367862.898 6    -58171.254 6    -28168.20748  21367862.60948
  20424734.461 7    -79126.109 7    -24521.77349  20424734.57049
  22765780.555 6    -95958.625 6    -45007.12949  22765781.15249
  22933710.336 6   -125184.145 6    -71164.98847  22933708.48047
  21495542.570 6    -40205.598 6    -12068.95348  21495540.28548
  22954361.805 5    -29178.258 5     -1086.33657  22954362.84457
  23646901.047 5    -19146.844 5     -6749.56647  23646900.15247
 20  5 16  1 49 28.0000000  0  7G04G08G09G11G16G26G31               -0.000427780
  21367257.641 6    -61351.527 6    -30646.34448  21367256.91448
  20423735.547 7    -84374.629 7    -28611.53549  20423736.12549
  22764814.820 6   -101034.355 6    -48962.25049  22764815.31349
  22932306.250 6   -132562.070 6    -76914.02047  22932304.52347
  21495014.977 6    -42976.715 6    -14228.25848  21495012.42648
  22953922.445 5    -31486.195 5     -2884.74247  22953924.01247
  23646625.289 5    -20594.418 5     -7877.55147  23646624.38747
 20  5 16  1 49 29.0000000  0  7G04G08G09G11G16G26G31               -0.000430342
  21366651.953 6    -64533.180 6    -33125.55548  21366651.71148
  20422736.453 7    -89624.605 7    -32702.43449  20422736.92649
  22763848.289 6   -106111.492 6    -52918.45749  22763849.20349
  22930901.680 6   -139941.863 6    -82664.50447  22930900.15247
  21494487.352 6    -45749.777 6    -16389.09448  21494484.86748
  22953482.695 5    -33796.117 5     -4684.68847  22953484.04747
  23646350.305 5    -22043.754 5     -9006.91847  23646349.35247
 20  5 16  1 49 30.0000000  0  7G04G08G09G11G16G26G31               -0.000432903
  21366046.570 6    -67716.102 6    -35605.75448  21366045.71548
  20421737.117 7    -94875.824 7    -36794.28949  20421737.96549
  22762882.414 6   -111189.883 6    -56875.64149  22762882.58249
  22929497.094 6   -147323.328 6    -88416.30147  22929495.60947
  21493959.305 6    -48524.617 6    -18551.30948  21493957.03948
  22953042.625 5    -36107.855 5     -6486.04347  22953044.74647
  23646073.797 5    -23494.648 5    -10137.48847  23646072.97347
 20  5 16  1 49 31.0000000  0  7G04G08G09G11G16G26G31               -0.000435467
  21365440.781 6    -70900.250 6    -38086.91048  21365439.98448
  20420737.477 7   -100128.301 7    -40887.11749  20420737.79349
  22761915.703 6   -116269.512 6    -60833.78549  22761916.21949
  22928092.016 6   -154706.461 6    -94169.39847  22928090.41847
  21493431.125 6    -51301.191 6    -20714.87548  21493428.76248
  22952602.836 5    -38421.410 5     -8288.80947  22952604.46947
  23645796.992 5    -24947.094 5    -11269.25847  23645796.67247
 20  5 16  1 49 32.0000000  0  7G04G08G09G11G16G26G31               -0.000438032
  21364834.313 6    -74085.512 6    -40568.93448  21364833.95348
  20419738.086 7   -105381.902 7    -44980.83649  20419738.94549
  22760948.555 6   -121350.223 6    -64792.77749  22760949.30949
  22926686.492 6   -162091.152 6    -99923.69547  22926685.19547
  21492902.406 6    -54079.387 6    -22879.70748  21492899.73848
  22952162.164 5    -40736.641 5    -10092.88347  22952163.93447
  23645520.352 5    -26400.941 5    -12402.13747  23645520.03947
 20  5 16  1 49 33.0000000  0  7G04G08G09G11G16G26G31               -0.000440598
  21364228.242 6    -77271.805 6    -43051.76648  21364227.65648
  20418737.844 7   -110636.543 7    -49075.35549  20418738.28549
  22759981.930 6   -126431.957 6    -68752.57049  22759982.30949
  22925280.945 6   -169477.297 6   -105679.12147  22925279.48047
  21492373.641 6    -56859.180 6    -25045.77348  21492370.98848
  22951721.008 5    -43053.461 5    -11898.19147  22951722.95747
  23645243.469 5    -27856.191 5    -13536.10947  23645243.01647
 20  5 16  1 49 34.0000000  0  7G04G08G09G11G16G26G31               -0.000443165
  21363621.609 6    -80459.082 6    -45535.35548  21363621.33648
  20417737.742 7   -115892.180 7    -53170.65249  20417738.18449
  22759014.719 6   -131514.727 6    -72713.17649  22759014.94949
  22923875.453 6   -176864.836 6   -111435.63747  22923873.57847
  21491844.500 6    -59640.473 6    -27213.01248  21491841.27748
  22951279.469 5    -45371.867 5    -13704.75047  22951281.73847
  23644966.547 5    -29312.727 5    -14671.07847  23644965.94947
 20  5 16  1 49 35.0000000  0  7G04G08G09G11G16G26G31               -0.000445732
  21363014.906 6    -83647.383 6    -48019.74648  21363014.24248
  20416738.180 7   -121148.836 7    -57266.75449  20416738.24649
  22758047.250 6   -136598.496 6    -76674.55549  22758047.53149
  22922469.352 6   -184253.906 6   -117193.35547  22922467.39547
  21491315.016 6    -62423.297 6    -29381.45748  21491312.17248
  22950838.586 5    -47691.859 5    -15512.53547  22950840.52747
  23644689.320 5    -30770.617 5    -15807.10547  23644689.12147
 20  5 16  1 49 36.0000000  0  7G04G08G09G11G16G26G31               -0.000448301
  21362407.906 6    -86836.531 6    -50504.79748  21362407.48048
  20415737.320 7   -126406.363 7    -61363.53149  20415737.85549
  22757080.016 6   -141683.117 6    -80636.59049  22757079.89849
  22921062.922 6   -191644.199 6   -122952.02047  22921061.20747
  21490785.344 6    -65207.520 6    -31550.97748  21490782.35248
  22950396.773 5    -50013.277 5    -17321.44147  22950398.66447
  23644411.523 5    -32229.648 5    -16944.01247  23644410.73047
 20  5 16  1 49 37.0000000  0  7G04G08G09G11G16G26G31               -0.000450871
  21361801.000 6    -90026.586 6    -52990.55948  21361800.33648
  20414736.500 7   -131664.805 7    -65461.01649  20414736.77349
  22756111.648 6   -146768.602 6    -84599.30549  22756112.22749
  22919655.883 6   -199035.828 6   -128711.73047  22919654.61747
  21490255.133 6    -67993.156 6    -33721.60548  21490252.13748
  22949954.922 5    -52336.152 5    -19131.48047  22949956.89147
  23644133.969 5    -33689.898 5    -18081.87147  23644132.77047
 20  5 16  1 49 38.0000000  0  7G04G08G09G11G16G26G31               -0.000453442
  21361193.859 6    -93217.422 6    -55476.92648  21361193.12948
  20413735.828 7   -136924.047 7    -69559.12949  20413736.26649
  22755143.852 6   -151854.875 6    -88562.63349  22755144.27749
  22918249.578 6   -206428.684 6   -134472.39547  22918247.61347
  21489724.414 6    -70780.078 6    -35893.23048  21489722.19948
  22949512.313 5    -54660.395 5    -20942.58647  22949514.30147
  23643855.273 5    -35151.277 5    -19220.61347  23643854.93047
 20  5 16  1 49 39.0000000  0  7G04G08G09G11G16G26G31               -0.000456011
  21360586.531 6    -96408.957 6    -57963.83648  21360585.92248
  20412734.711 7   -142184.023 7    -73657.81349  20412735.66849
  22754175.711 6   -156941.863 6    -92526.52049  22754175.77749
  22916842.398 6   -213822.664 6   -140233.94147  22916841.02047
  21489194.234 6    -73568.242 6    -38065.82848  21489191.41048
  22949069.992 5    -56985.906 5    -22754.67647  22949071.99247
  23643577.172 5    -36613.664 5    -20360.14147  23643576.78547
 20  5 16  1 49 40.0000000  0  7G04G08G09G11G16G26G31               -0.000458584
  21359979.172 6    -99601.230 6    -60451.32448  21359978.13348
  20411733.719 7   -147444.742 7    -77757.07449  20411734.21549
  22753207.813 6   -162029.613 6    -96491.00849  22753207.82449
  22915435.672 6   -221217.832 6   -145996.41447  22915433.59847
  21488663.109 6    -76357.680 6    -40239.42248  21488660.59048
  22948626.688 5    -59312.746 5    -24567.79347  22948629.43447
  23643298.492 5    -38077.133 5    -21500.51247  23643298.19547
 20  5 16  1 49 41.0000000  0  7G04G08G09G11G16G26G31               -0.000461157
  21359371.594 6   -102794.094 6    -62939.26648  21359370.45348
  20410732.406 7   -152706.105 7    -81856.84049  20410733.12149
  22752239.672 6   -167117.895 6   -100455.90649  22752239.82049
  22914027.836 6   -228614.020 6   -151759.68447  22914026.33247
  21488132.172 6    -79148.219 6    -42413.87148  21488129.56348
  22948183.961 5    -61640.738 5    -26381.81347  22948186.12947
  23643019.555 5    -39541.473 5    -22641.56347  23643019.42647
 20  5 16  1 49 42.0000000  0  7G04G08G09G11G16G26G31               -0.000463730
  21358763.672 6   -105987.535 6    -65427.66448  21358763.19948
  20409731.172 7   -157968.012 7    -85957.02349  20409731.74649
  22751271.531 6   -172206.777 6   -104421.27049  22751271.35249
  22912620.273 6   -236011.195 6   -157523.71147  22912618.48447
  21487600.992 6    -81939.836 6    -44589.15648  21487598.17648
  22947740.719 5    -63969.859 5    -28196.71547  22947742.81647
  23642741.141 5    -41006.723 5    -23783.31347  23642740.57847
 20  5 16  1 49 43.0000000  0  7G04G08G09G11G16G26G31               -0.000466305
  21358155.883 6   -109181.523 6    -67916.48048  21358155.22348
  20408729.641 7   -163230.516 7    -90057.67649  20408730.41849
  22750303.000 6   -177296.203 6   -108387.05149  22750303.30149
  22911212.711 6   -243409.363 6   -163288.50847  22911210.86347
  21487069.359 6    -84732.539 6    -46765.28548  21487067.30948
  22947297.563 5    -66300.113 5    -30012.50447  22947299.44547
  23642462.180 5    -42472.813 5    -24925.72747  23642462.14147
 20  5 16  1 49 44.0000000  0  8G04G08G09G11G16G26G27G31            -0.000468882
  21357547.656 6   -112375.918 6    -70405.62148  21357547.59848
  20407728.195 7   -168493.422 7    -94158.64149  20407728.77749
  22749334.344 6   -182386.043 6   -112353.16049  22749334.59849
  22909804.445 6   -250808.383 6   -169053.98047  22909802.89547
  21486537.930 6    -87526.191 6    -48942.15648  21486534.86348
  22946853.563 5    -68631.344 5    -31829.05147  22946855.69147
  20054687.21117   -114352.86317    -68157.01659  20054686.73459
  23642182.977 5    -43939.656 5    -26068.72747  23642182.65247
 20  5 16  1 49 45.0000000  0  8G04G08G09G11G16G26G27G31            -0.000471457
  21356939.695 6   -115570.875 6    -72895.20348  21356939.39148
  20406726.859 7   -173756.918 7    -98260.06649  20406727.02749
  22748366.094 6   -187476.434 6   -116319.69949  22748365.51249
  22908396.320 6   -258208.406 6   -174820.23047  22908394.48847
  21486005.695 6    -90320.926 6    -51119.87148  21486003.43048
  22946410.375 5    -70963.734 5    -33646.50447  22946411.86347
  20054093.977 7   -117468.137 7    -70584.50449  20054093.77349
  23641903.539 5    -45407.375 5    -27212.41047  23641903.28547
 20  5 16  1 49 46.0000000  0  8G04G08G09G11G16G26G27G31            -0.000474033
  21356332.133 6   -118766.238 6    -75385.09448  21356331.30948
  20405725.188 7   -179020.828 7   -102361.81649  20405725.67649
  22747397.188 6   -192567.246 6   -120286.56649  22747397.10949
  22906988.281 6   -265609.273 6   -180587.15247  22906986.02747
  21485473.859 6    -93116.602 6    -53298.32048  21485471.35248
  22945965.766 5    -73297.105 5    -35464.71547  22945968.02747
  20053501.281 7   -120583.848 7    -73012.33249  20053501.21949
  23641624.453 5    -46875.844 5    -28356.67647  23641623.84447
 20  5 16  1 49 47.0000000  0  8G04G08G09G11G16G26G27G31            -0.000476610
  21355724.031 6   -121962.023 6    -77875.32048  21355723.66048
  20404723.234 7   -184285.121 7   -106463.85949  20404723.56349
  22746428.391 6   -197658.430 6   -124253.72749  22746428.04749
  22905579.695 6   -273010.945 6   -186354.69147  22905577.95347
  21484941.844 6    -95913.184 6    -55477.47348  21484939.06648
  22945521.789 5    -75631.414 5    -37283.65647  22945523.79347
  20052908.320 7   -123699.949 7    -75440.46149  20052908.39549
  23641344.672 5    -48345.000 5    -29501.47347  23641344.56347
 20  5 16  1 49 48.0000000  0  8G04G08G09G11G16G26G27G31            -0.000479187
  21355115.602 6   -125158.098 6    -80365.77048  21355114.86748
  20403721.500 7   -189549.762 7   -110566.18449  20403722.07449
  22745459.211 6   -202749.918 6   -128221.12549  22745459.14549
  22904170.938 6   -280413.363 6   -192122.80547  22904169.25847
  21484409.648 6    -98710.590 6    -57657.27348  21484406.98048
  22945077.234 5    -77966.645 5    -39103.32047  22945079.68847
  20052315.117 7   -126816.383 7    -77868.84849  20052315.28149
  23641065.570 5    -49814.793 5    -30646.77047  23641064.61347
 20  5 16  1 49 49.0000000  0  8G04G08G09G11G16G26G27G31            -0.000481766
  21354507.547 6   -128354.422 6    -82856.41048  21354506.51648
  20402719.414 7   -194814.703 7   -114668.73449  20402720.14849
  22744490.320 6   -207841.688 6   -132188.73849  22744490.48449
  22902761.680 6   -287816.492 6   -197891.47747  22902760.23847
  21483876.688 6   -101508.785 6    -59837.68448  21483874.14548
  22944633.445 5    -80302.655 5    -40923.58247  22944635.16047
  20051722.172 7   -129933.082 7    -80297.44949  20051722.41049
  23640785.633 5    -51285.188 5    -31792.53947  23640785.23047
 20  5 16  1 49 50.0000000  0  8G04G08G09G11G16G26G27G31            -0.000484343
  21353899.164 6   -131551.059 6    -85347.29748  21353898.11348
  20401717.602 7   -200079.926 7   -118771.50049  20401717.91449
  22743521.695 6   -212933.727 6   -136156.55949  22743521.64849
  22901353.031 6   -295220.309 6   -203660.68047  22901351.18047
  21483344.570 6   -104307.777 6    -62018.72348  21483341.99248
  22944188.711 5    -82639.555 5    -42744.54747  22944190.76247
  20051129.008 7   -133050.070 7    -82726.27049  20051128.88749
  23640504.719 5    -52756.145 5    -32938.73447  23640504.84047
 20  5 16  1 49 51.0000000  0  8G04G08G09G11G16G26G27G31            -0.000486923
  21353290.508 6   -134747.969 6    -87838.39848  21353290.02748
  20400715.648 7   -205345.484 7   -122874.53149  20400715.88749
  22742552.328 6   -218026.043 6   -140124.59849  22742552.34049
  22899944.070 6   -302624.891 6   -209430.48047  22899942.35547
  21482812.117 6   -107107.598 6    -64200.40248  21482808.81348
  22943743.477 5    -84977.320 5    -44566.18447  22943745.71547
  20050535.906 7   -136167.383 7    -85155.34849  20050535.72349
  23640225.367 5    -54227.750 5    -34085.44147  23640225.25847
 20  5 16  1 49 52.0000000  0  8G04G08G09G11G16G26G27G31            -0.000489502
  21352682.180 6   -137945.137 6    -90329.69548  21352681.43448
  20399713.211 7   -210611.297 7   -126977.76249  20399714.03949
  22741582.930 6   -223118.613 6   -144092.83649  22741583.46149
  22898534.930 6   -310030.105 6   -215200.77347  22898533.30947
  21482278.836 6   -109908.188 6    -66382.68448  21482276.09848
  22943298.594 5    -87315.902 5    -46388.45747  22943300.53947
  20049942.492 7   -139284.922 7    -87584.59849  20049942.46149
  23639945.539 5    -55699.898 5    -35232.58247  23639945.06647
 20  5 16  1 49 53.0000000  0  8G04G08G09G11G16G26G27G31            -0.000492083
  21352073.891 6   -141142.516 6    -92821.16448  21352073.12548
  20398711.375 7   -215877.352 7   -131081.18449  20398711.96949
  22740613.922 6   -228211.371 6   -148061.21949  22740614.06349
  22897125.820 6   -317435.992 6   -220971.60247  22897123.92647
  21481745.633 6   -112709.523 6    -68565.54748  21481742.98048
  22942853.695 5    -89655.289 5    -48211.36347  22942855.49647
  20049349.023 7   -142402.719 7    -90014.04749  20049349.43049
  23639665.266 5    -57172.590 5    -36380.13747  23639664.33647
 20  5 16  1 49 54.0000000  0  8G04G08G09G11G16G26G27G31            -0.000494663
  21351465.266 6   -144340.082 6    -95312.77348  21351464.44548
  20397709.352 7   -221143.605 7   -135184.75849  20397710.10949
  22739644.805 6   -233304.375 6   -152029.78949  22739644.92249
  22895715.984 6   -324842.508 6   -226742.91047  22895714.48847
  21481212.492 6   -115511.563 6    -70748.95748  21481209.87948
  22942407.711 5    -91995.430 5    -50034.85247  22942410.34847
  20048755.820 7   -145520.691 7    -92443.63749  20048755.73449
  23639384.594 5    -58645.793 5    -37528.09047  23639383.82047
 20  5 16  1 49 55.0000000  0  8G04G08G09G11G16G26G27G31            -0.000497244
  21350857.328 6   -147537.848 6    -97804.54748  21350856.20348
  20396706.945 7   -226410.055 7   -139288.48849  20396707.70349
  22738675.664 6   -238397.504 6   -155998.46149  22738675.80949
  22894306.656 6   -332249.629 6   -232514.68847  22894305.02747
  21480678.961 6   -118314.316 6    -72932.92248  21480676.79348
  22941962.391 5    -94336.328 5    -51858.93047  22941964.88747
  20048162.492 7   -148638.879 7    -94873.39549  20048162.48449
  23639104.102 5    -60119.469 5    -38676.41847  23639103.82047
 20  5 16  1 49 56.0000000  0  8G04G08G09G11G16G26G27G31            -0.000499825
  21350248.117 6   -150735.766 6   -100296.43048  21350247.66448
  20395704.984 7   -231676.664 7   -143392.33649  20395705.55149
  22737706.289 6   -243490.824 6   -159967.28149  22737706.69949
  22892897.391 6   -339657.355 6   -238286.94147  22892895.52747
  21480146.164 6   -121117.758 6    -75117.41848  21480142.86348
  22941516.750 5    -96677.953 5    -53683.57447  22941518.94147
  20047569.039 7   -151757.219 7    -97303.27049  20047569.36349
  23638823.859 5    -61593.688 5    -39825.15647  23638823.02747
 20  5 16  1 49 57.0000000  0  8G04G08G09G11G16G26G27G31            -0.000502407
  21349639.656 6   -153933.895 6   -102788.47348  21349638.80148
  20394702.672 7   -236943.527 7   -147496.38749  20394703.14149
  22736737.148 6   -248584.348 6   -163936.26649  22736736.87549
  22891487.375 6   -347065.707 6   -244059.68447  22891485.30147
  21479611.945 6   -123921.914 6    -77302.48048  21479609.28548
  22941070.828 5    -99020.355 5    -55508.82447  22941073.09047
  20046975.695 7   -154875.789 7    -99733.32849  20046975.66049
  23638542.813 5    -63068.395 5    -40974.28147  23638542.16447
 20  5 16  1 49 57.9990000  0  8G04G08G09G11G16G26G27G31             0.000495014
  21349032.011 6   -157128.926 6   -105278.10548  21349031.20648
  20393701.347 7   -242205.211 7   -151596.39849  20393701.97649
  22735768.605 6   -253672.871 6   -167901.34449  22735769.19449
  22890079.003 6   -354467.180 6   -249827.06647  22890077.16747
  21479079.003 6   -126723.898 6    -79485.84048  21479076.12848
  22940625.558 5   -101361.117 5    -57332.80147  22940628.15947
  20046382.659 7   -157991.359 7   -102161.04349  20046382.67949
  23638262.901 5    -64542.070 5    -42122.59847  23638261.98047
 20  5 16  1 49 58.9990000  0  8G04G08G09G11G16G26G27G31             0.000492432
  21348422.909 6   -160327.242 6   -107770.30148  21348422.51948
  20392699.190 7   -247472.262 7   -155700.59849  20392699.57349
  22734799.667 6   -258766.535 6   -171870.44149  22734799.35549
  22888668.940 6   -361876.570 6   -255600.62147  22888667.27247
  21478544.878 6   -129529.293 6    -81671.86348  21478541.95248
  22940179.183 5   -103704.840 5    -59159.07447  22940181.83547
  20045789.401 7   -161110.137 7   -104591.26249  20045789.04649
  23637982.081 5    -66017.582 5    -43272.34847  23637981.16347
 20  5 16  1 49 59.9990000  0  8G04G08G09G11G16G26G27G31             0.000489847
  21347814.339 6   -163525.668 6   -110262.58248  21347814.09348
  20391696.972 7   -252739.434 7   -159804.88349  20391697.27649
  22733829.948 6   -263860.336 6   -175839.63749  22733830.42949
  22887258.378 6   -369286.512 6   -261374.60547  22887257.24547
  21478010.995 6   -132335.301 6    -83858.36348  21478008.31548
  22939734.042 5   -106049.254 5    -60985.89147  22939735.50747
  20045195.894 7   -164229.031 7   -107021.57449  20045195.64449
  23637701.237 5    -67493.527 5    -44422.43847  23637699.92547
 20  5 16  1 50  0.9990000  0  8G04G08G09G11G16G26G27G31             0.000487265
  21347205.886 6   -166724.172 6   -112754.93048  21347205.15548
  20390694.628 7   -258006.734 7   -163909.27749  20390695.12849
  22732861.089 6   -268954.219 6   -179808.89149  22732861.17149
  22885848.495 6   -376696.980 6   -267148.99247  22885846.83547
  21477477.120 6   -135141.949 6    -86045.35948  21477474.35848
  22939287.472 5   -108394.344 5    -62813.23847  22939289.61647
  20044602.245 7   -167348.020 7   -109451.94549  20044601.90949
  23637420.362 5    -68969.930 5    -45572.87547  23637419.01947
 20  5 16  1 50  1.9990000  0  8G04G08G09G11G16G26G27G31             0.000484680
  21346597.245 6   -169922.734 6   -115247.31348  21346596.59348
  20389692.245 7   -263274.059 7   -168013.68449  20389692.53049
  22731891.315 6   -274048.137 6   -183778.18049  22731891.78449
  22884438.409 6   -384107.910 6   -272923.74647  22884436.82747
  21476942.511 6   -137949.148 6    -88232.78948  21476940.01948
  22938841.386 5   -110740.023 5    -64641.03947  22938843.23747
  20044008.597 7   -170467.063 7   -111882.37149  20044008.80849
  23637139.362 5    -70446.660 5    -46723.58247  23637138.17547
 20  5 16  1 50  2.9990000  0  8G04G08G09G11G16G26G27G31             0.000482096
  21345988.511 6   -173121.328 6   -117739.72748  21345987.85548
  20388690.042 7   -268541.449 7   -172118.14549  20388690.28849
  22730921.862 6   -279142.094 6   -187747.50049  22730922.41349
  22883027.714 6   -391519.309 6   -278698.85947  22883026.19847
  21476408.253 6   -140756.895 6    -90420.64548  21476405.72248
  22938394.690 5   -113086.332 5    -66469.33647  22938396.81247
  20043415.519 7   -173586.156 7   -114312.83649  20043415.14049
  23636857.855 5    -71923.746 5    -47874.54747  23636856.62847
 20  5 16  1 50  3.9990000  0  8G04G08G09G11G16G26G27G31             0.000479511
  21345379.620 6   -176319.871 6   -120232.09848  21345379.30048
  20387687.948 7   -273808.820 7   -176222.58649  20387688.08149
  22729952.730 6   -284235.984 6   -191716.76649  22729953.05449
  22881617.862 6   -398931.098 6   -284474.28547  22881615.54647
  21475873.815 6   -143565.137 6    -92608.88748  21475871.13648
  22937948.159 5   -115433.160 5    -68298.03547  22937950.03847
  20042821.792 7   -176705.238 7   -116743.28949  20042821.48749
  23636577.144 5    -73401.102 5    -49025.73847  23636575.74547
 20  5 16  1 50  4.9990000  0  8G04G08G09G11G16G26G27G31             0.000476925
  21344771.511 6   -179518.438 6   -122724.48448  21344770.70248
  20386685.097 7   -279076.219 7   -180327.05549  20386685.50749
  22728983.448 6   -289329.906 6   -195686.05149  22728983.76149
  22880207.230 6   -406343.336 6   -290250.05147  22880205.26947
  21475339.222 6   -146373.922 6    -94797.55148  21475336.91348
  22937501.433 5   -117780.578 5    -70127.19547  22937503.36247
  20042228.136 7   -179824.313 7   -119173.73849  20042228.00349
  23636295.401 5    -74878.820 5    -50177.20747  23636294.64447
 20  5 16  1 50  5.9990000  0  8G04G08G09G11G16G26G27G31             0.000474340
  21344162.214 6   -182717.039 6   -125216.90648  21344161.81548
  20385682.698 7   -284343.652 7   -184431.55149  20385683.03049
  22728014.440 6   -294423.848 6   -199655.35549  22728014.08549
  22878796.683 6   -413756.031 6   -296026.18047  22878795.22647
  21474804.480 6   -149183.273 6    -96986.65648  21474802.06548
  22937054.659 5   -120128.605 5    -71956.82447  22937056.56247
  20041634.526 7   -182943.449 7   -121604.23849  20041634.42549
  23636014.308 5    -76356.852 5    -51328.92247  23636013.14047
 20  5 16  1 50  6.9990000  0  8G04G08G09G11G16G26G27G31             0.000471754
  21343553.698 6   -185915.563 6   -127709.26248  21343552.90548
  20384680.448 7   -289611.043 7   -188536.00849  20384680.96049
  22727045.417 6   -299517.738 6   -203624.62549  22727045.64049
  22877385.456 6   -421169.098 6   -301802.59847  22877384.05847
  21474270.222 6   -151993.039 6    -99176.08248  21474267.87448
  22936607.808 5   -122477.125 5    -73786.84047  22936609.75347
  20041041.144 7   -186062.523 7   -124034.68849  20041040.57749
  23635733.058 5    -77835.148 5    -52480.83647  23635732.04247
 20  5 16  1 50  7.9990000  0  8G04G08G09G11G16G26G27G31             0.000469168
  21342945.089 6   -189114.047 6   -130201.58648  21342944.09348
  20383677.917 7   -294878.406 7   -192640.44549  20383678.71449
  22726075.597 6   -304611.539 6   -207593.82049  22726075.62049
  22875975.128 6   -428582.508 6   -307579.27747  22875973.46047
  21473735.409 6   -154803.293 6   -101365.89148  21473732.63248
  22936160.198 5   -124826.172 5    -75617.26247  22936162.44447
  20040447.753 7   -189181.555 7   -126465.09849  20040447.49549
  23635451.565 5    -79313.707 5    -53632.96547  23635450.67547
 20  5 16  1 50  8.9990000  0  8G04G08G09G11G16G26G27G31             0.000466581
  21342336.495 6   -192312.566 6   -132693.94548  21342335.70248
  20382675.683 7   -300145.781 7   -196744.89849  20382676.40949
  22725106.253 6   -309705.398 6   -211563.05949  22725106.38249
  22874564.034 6   -435996.426 6   -313356.35947  22874562.64047
  21473200.378 6   -157614.121 6   -103556.14548  21473198.00748
  22935713.362 5   -127175.824 5    -77448.16047  22935715.64047
  20039854.065 7   -192300.637 7   -128895.55549  20039853.74149
  23635170.026 5    -80792.633 5    -54785.38347  23635168.94847
 20  5 16  1 50  9.9990000  0  8G04G08G09G11G16G26G27G31             0.000463995
  21341728.214 6   -195510.934 6   -135186.17648  21341727.29248
  20381673.487 7   -305413.047 7   -200849.26249  20381673.54649
  22724137.019 6   -314799.055 6   -215532.14849  22724136.86249
  22873153.659 6   -443410.609 6   -319133.64147  22873152.10547
  21472665.222 6   -160425.332 6   -105746.70748  21472662.89748
  22935266.058 5   -129525.910 5    -79279.39847  22935268.37847
  20039260.261 7   -195419.594 7   -131325.91049  20039260.59349
  23634889.034 5    -82271.730 5    -55937.92647  23634887.45247
 20  5 16  1 50 10.9990000  0  8G04G08G09G11G16G26G27G31             0.000461407
  21341119.440 6   -198709.336 6   -137678.44148  21341118.97248
  20380670.933 7   -310680.340 7   -204953.64549  20380671.52649
  22723167.253 6   -319892.789 6   -219501.29349  22723167.88249
  22871742.401 6   -450825.266 6   -324911.29747  22871740.96447
  21472130.394 6   -163237.074 6   -107937.67648  21472127.85848
  22934818.425 5   -131876.578 5    -81111.09447  22934821.12047
  20038666.909 7   -198538.566 7   -133756.27749  20038666.78849
  23634607.151 5    -83751.164 5    -57090.74247  23634606.24547
 20  5 16  1 50 11.9990000  0  8G04G08G09G11G16G26G27G31             0.000458820
  21340510.292 6   -201907.699 6   -140170.67648  21340510.15548
  20379668.636 7   -315947.617 7   -209058.01649  20379668.98749
  22722198.628 6   -324986.469 6   -223470.39549  22722198.55849
  22870331.339 6   -458240.297 6   -330689.24647  22870329.86647
  21471595.339 6   -166049.305 6   -110129.02748  21471592.66748
  22934371.394 5   -134227.789 5    -82943.20747  22934373.64747
  20038073.394 7   -201657.535 7   -136186.64849  20038073.05049
  23634325.480 5    -85230.895 5    -58243.77347  23634324.30847
 20  5 16  1 50 12.9990000  0  8G04G08G09G11G16G26G27G31             0.000456232
  21339902.628 6   -205105.930 6   -142662.80148  21339901.53048
  20378666.448 7   -321214.770 7   -213162.28949  20378667.41749
  22721229.190 6   -330080.004 6   -227439.38349  22721228.86249
  22868920.167 6   -465655.641 6   -336467.43447  22868918.35847
  21471059.745 6   -168861.906 6   -112320.66048  21471057.62448
  22933923.308 5   -136579.410 5    -84775.64147  22933925.96047
  20037479.714 7   -204776.367 7   -138616.90649  20037479.82349
  23634044.464 5    -86710.797 5    -59396.94547  23634042.68747
 20  5 16  1 50 13.9990000  0  8G04G08G09G11G16G26G27G31             0.000453644
  21339292.823 6   -208304.020 6   -145154.82048  21339292.76148
  20377664.511 7   -326481.797 7   -217266.46549  20377664.62849
  22720259.792 6   -335173.363 6   -231408.23849  22720260.15549
  22867509.433 6   -473071.242 6   -342245.81647  22867507.50347
  21470524.987 6   -171674.891 6   -114512.59848  21470522.09348
  22933475.839 5   -138931.484 5    -86608.42647  22933478.60847
  20036886.534 7   -207895.039 7   -141047.03949  20036886.55849
  23633762.355 5    -88190.883 5    -60550.27047  23633761.17147
 20  5 16  1 50 14.9990000  0  8G04G08G09G11G16G26G27G31             0.000451056
  21338684.972 6   -211501.953 6   -147646.71548  21338684.01548
  20376661.987 7   -331748.660 7   -221370.51649  20376662.23049
  22719290.417 6   -340266.633 6   -235377.02049  22719290.72649
  22866097.855 6   -480487.156 6   -348024.44947  22866096.40947
  21469989.558 6   -174488.266 6   -116704.84448  21469986.89748
  22933028.190 5   -141283.961 5    -88441.52747  22933030.48747
  20036293.011 7   -211013.602 7   -143477.09449  20036292.92549
  23633480.558 5    -89671.129 5    -61703.71547  23633479.92147
 20  5 16  1 50 15.9990000  0  8G04G08G09G11G16G26G27G31             0.000448465
  21338076.237 6   -214699.914 6   -150138.63748  21338075.55048
  20375659.417 7   -337015.566 7   -225474.60249  20375660.11249
  22718321.909 6   -345359.883 6   -239345.78149  22718321.42149
  22864686.776 6   -487903.488 6   -353803.41847  22864685.38247
  21469454.401 6   -177302.156 6   -118897.48848  21469451.40148
  22932581.058 5   -143637.086 5    -90275.13347  22932582.98747
  20035699.675 7   -214132.199 7   -145907.16849  20035699.35149
  23633198.534 5    -91151.699 5    -62857.40647  23633197.72647
 20  5 16  1 50 16.9990000  0  8G04G08G09G11G16G26G27G31             0.000445877
  21337467.831 6   -217897.797 6   -152630.49248  21337466.98048
  20374657.183 7   -342282.422 7   -229578.64549  20374657.95249
  22717351.683 6   -350453.051 6   -243314.48449  22717352.19049
  22863275.198 6   -495320.195 6   -359582.66847  22863273.65947
  21468918.917 6   -180116.531 6   -121090.50848  21468915.72648
  22932132.597 5   -145990.637 5    -92109.06647  22932135.00747
  20035106.230 7   -217250.738 7   -148337.19949  20035106.15949
  23632916.495 5    -92632.543 5    -64011.31647  23632916.44047
 20  5 16  1 50 17.9990000  0  8G04G08G09G11G16G26G27G31             0.000443287
  21336859.433 6   -221095.703 6   -155122.37148  21336858.70248
  20373655.050 7   -347549.297 7   -233682.69949  20373655.19049
  22716382.956 6   -355546.230 6   -247283.19549  22716382.88249
  22861863.964 6   -502737.340 6   -365362.26247  22861862.48347
  21468383.019 6   -182931.410 6   -123283.92248  21468380.38648
  22931685.144 5   -148344.777 5    -93943.46547  22931687.15547
  20034512.753 7   -220369.293 7   -150767.23849  20034512.57749
  23632635.300 5    -94113.684 5    -65165.44947  23632634.33147
 20  5 16  1 50 18.9990000  0  8G04G08G09G11G16G26G27G31             0.000440699
  21336251.269 6   -224293.488 6   -157614.15248  21336250.18348
  20372652.808 7   -352816.094 7   -237786.69549  20372653.15149
  22715413.972 6   -360639.270 6   -251251.79749  22715414.06249
  22860452.503 6   -510154.824 6   -371142.11747  22860450.72647
  21467847.659 6   -185746.727 6   -125477.67248  21467844.65548
  22931236.925 5   -150699.418 5    -95778.25047  22931238.99147
  20033919.284 7   -223487.750 7   -153197.19949  20033919.06949
  23632352.925 5    -95595.059 5    -66319.77047  23632352.68347
 20  5 16  1 50 19.9990000  0  8G04G08G09G11G16G26G27G31             0.000438108
  21335642.089 6   -227491.117 6   -160105.81348  21335641.33948
  20371650.339 7   -358082.789 7   -241890.61349  20371650.87449
  22714444.370 6   -365732.203 6   -255220.31649  22714445.05849
  22859040.862 6   -517572.570 6   -376922.17247  22859038.92947
  21467311.847 6   -188562.422 6   -127671.71948  21467308.74548
  22930788.730 5   -153054.488 5    -97613.37147  22930790.61247
  20033325.644 7   -226606.082 7   -155627.07449  20033325.49149
  23632071.089 5    -97076.613 5    -67474.23047  23632070.92947
 20  5 16  1 50 20.9990000  0  8G04G08G09G11G16G26G27G31             0.000435518
  21335033.987 6   -230688.699 6   -162597.43848  21335033.40548
  20370648.331 7   -363349.406 7   -245994.46949  20370648.80849
  22713475.167 6   -370825.000 6   -259188.73049  22713475.32749
  22857629.636 6   -524990.637 6   -382702.48847  22857627.45247
  21466775.808 6   -191378.531 6   -129866.08648  21466772.65548
  22930340.112 5   -155410.004 5    -99448.84047  22930342.44847
  20032732.347 7   -229724.336 7   -158056.88349  20032732.55449
  23631789.651 5    -98558.383 5    -68628.85947  23631789.17547
 20  5 16  1 50 21.9990000  0  8G04G08G09G11G16G26G27G31             0.000432926
  21334425.003 6   -233886.195 6   -165088.99248  21334424.75748
  20369646.339 7   -368615.984 7   -250098.30149  20369647.04649
  22712506.386 6   -375917.785 6   -263157.13349  22712506.39749
  22856217.690 6   -532409.125 6   -388483.13347  22856215.55047
  21466239.315 6   -194195.141 6   -132060.84048  21466236.80848
  22929892.136 5   -157766.086 5   -101284.75047  22929894.43747
  20032138.964 7   -232842.539 7   -160486.66049  20032138.80849
  23631507.409 5   -100040.414 5    -69783.70347  23631507.03847
 20  5 16  1 50 22.9990000  0  8G04G08G09G11G16G26G27G31             0.000430336
  21333816.620 6   -237083.730 6   -167580.57848  21333815.98748
  20368644.183 7   -373882.586 7   -254202.14549  20368644.53049
  22711536.651 6   -381010.543 6   -267125.52349  22711537.53449
  22854805.675 6   -539828.020 6   -394264.09047  22854804.44047
  21465703.300 6   -197012.266 6   -134256.00448  21465700.65148
  22929443.605 5   -160122.727 5   -103121.09847  22929445.51947
  20031545.847 7   -235960.758 7   -162916.43849  20031545.69049
  23631225.933 5   -101522.816 5    -70938.82847  23631224.78447
 20  5 16  1 50 23.9990000  0  8G04G08G09G11G16G26G27G31             0.000427744
  21333208.198 6   -240281.066 6   -170072.00848  21333207.63648
  20367642.081 7   -379149.016 7   -258305.85549  20367642.42149
  22710568.042 6   -386103.144 6   -271093.78349  22710568.26149
  22853394.198 6   -547247.168 6   -400045.24647  22853392.12447
  21465167.190 6   -199829.719 6   -136451.42648  21465164.62848
  22928994.980 5   -162479.750 5   -104957.74247  22928997.24547
  20030952.409 7   -239078.828 7   -165346.10249  20030952.65149
  23630943.620 5   -103005.332 5    -72094.03947  23630942.92147
 20  5 16  1 50 24.9990000  0  8G04G08G09G11G16G26G27G31             0.000425152
  21332600.003 6   -243478.262 6   -172563.33648  21332599.24548
  20366639.776 7   -384415.313 7   -262409.46149  20366640.39449
  22709598.683 6   -391195.570 6   -275061.91449  22709599.23349
  22851982.065 6   -554666.605 6   -405826.62547  22851980.16347
  21464630.823 6   -202647.578 6   -138647.16048  21464628.52648
  22928546.073 5   -164837.207 5   -106794.72747  22928548.70647
  20030359.167 7   -242196.758 7   -167775.65649  20030359.32349
  23630660.995 5   -104488.023 5    -73249.38747  23630661.14747
 20  5 16  1 50 25.9990000  0  8G04G08G09G11G16G26G27G31             0.000422560
  21331991.534 6   -246675.422 6   -175054.62548  21331990.99148
  20365637.573 7   -389681.570 7   -266513.03949  20365637.94449
  22708630.425 6   -396287.945 6   -279029.99649  22708630.75749
  22850570.073 6   -562086.418 6   -411608.29747  22850568.65947
  21464094.683 6   -205465.895 6   -140843.25048  21464092.10848
  22928097.855 5   -167195.168 5   -108632.09847  22928099.78447
  20029765.839 7   -245314.648 7   -170205.18049  20029765.81949
  23630378.956 5   -105970.969 5    -74404.93447  23630378.74147
 20  5 16  1 50 26.9990000  0  8G04G08G09G11G16G26G27G31             0.000419968
  21331382.980 6   -249872.531 6   -177545.88348  21331382.64448
  20364635.433 7   -394947.770 7   -270616.57449  20364636.10149
  22707660.573 6   -401380.273 6   -282998.03949  22707661.00349
  22849157.933 6   -569506.602 6   -417390.26247  22849156.26547
  21463557.855 6   -208284.676 6   -143039.70748  21463555.72648
  22927649.019 5   -169553.676 5   -110469.89847  22927650.73347
  20029172.659 7   -248432.500 7   -172634.68049  20029172.33549
  23630096.097 5   -107454.230 5    -75560.72347  23630096.61647
 20  5 16  1 50 27.9990000  0  8G04G08G09G11G16G26G27G31             0.000417376
  21330775.175 6   -253069.563 6   -180037.07448  21330773.87048
  20363633.480 7   -400213.922 7   -274720.07449  20363634.06949
  22706691.745 6   -406472.527 6   -286966.02749  22706692.42949
  22847746.167 6   -576927.156 6   -423172.50847  22847743.97247
  21463021.433 6   -211103.914 6   -145236.51648  21463018.99948
  22927200.167 5   -171912.672 5   -112308.08647  22927202.22247
  20028579.237 7   -251550.297 7   -175064.12949  20028579.17549
  23629814.394 5   -108937.691 5    -76716.67647  23629813.81247
 20  5 16  1 50 28.9990000  0  8G04G08G09G11G16G26G27G31             0.000414782
  21330166.534 6   -256266.543 6   -182528.22748  21330166.01948
  20362631.190 7   -405480.008 7   -278823.52049  20362631.99149
  22705723.464 6   -411564.719 6   -290933.97349  22705723.42149
  22846334.105 6   -584348.059 6   -428955.02747  22846331.96047
  21462485.050 6   -213923.625 6   -147433.69148  21462482.97648
  22926750.659 5   -174272.172 5   -114146.65247  22926753.09747
  20027985.933 7   -254668.051 7   -177493.55149  20027985.89749
  23629532.144 5   -110421.402 5    -77872.82047  23629531.90947
 20  5 16  1 50 29.9990000  0  8G04G08G09G11G16G26G27G31             0.000412189
  21329558.222 6   -259463.395 6   -185019.27748  21329557.55448
  20361629.198 7   -410746.043 7   -282926.92249  20361629.57349
  22704753.886 6   -416656.762 6   -294901.79749  22704754.20249
  22844921.565 6   -591769.262 6   -434737.77747  22844920.14747
  21461948.612 6   -216743.727 6   -149631.18048  21461946.07348
  22926302.034 5   -176632.125 5   -115985.57847  22926304.45247
  20027392.581 7   -257785.684 7   -179922.87549  20027392.45649
  23629250.183 5   -111905.309 5    -79029.11347  23629249.37447
 20  5 16  1 50 30.9990000  0  8G04G08G09G11G16G26G27G31             0.000409595
  21328949.894 6   -262660.121 6   -187510.23048  21328949.06548
  20360627.198 7   -416011.938 7   -287030.21149  20360627.69449
  22703784.511 6   -421748.688 6   -298869.53149  22703785.07749
  22843509.480 6   -599190.785 6   -440520.78947  22843507.89747
  21461411.690 6   -219564.230 6   -151828.97748  21461409.61248
  22925852.948 5   -178992.539 5   -117824.86347  22925854.64747
  20026799.464 7   -260903.199 7   -182352.10549  20026799.14049
  23628967.862 5   -113389.438 5    -80185.57447  23628966.84747
 20  5 16  1 50 31.9990000  0  8G04G08G09G11G16G26G27G31             0.000407001
  21328341.347 6   -265856.691 6   -190001.07448  21328340.72648
  20359625.042 7   -421277.691 7   -291133.39549  20359625.58949
  22702815.214 6   -426840.445 6   -302837.13349  22702815.89749
  22842097.089 6   -606612.563 6   -446303.98847  22842095.24947
  21460875.167 6   -222385.094 6   -154027.05548  21460872.34748
  22925403.519 5   -181353.344 5   -119664.44947  22925405.53847
  20026206.198 7   -264020.578 7   -184781.23449  20026206.10849
  23628685.323 5   -114873.699 5    -81342.14147  23628684.50747
 20  5 16  1 50 32.9990000  0  8G04G08G09G11G16G26G27G31             0.000404408
  21327733.081 6   -269053.156 6   -192491.82848  21327732.40148
  20358623.089 7   -426543.359 7   -295236.51249  20358623.51149
  22701846.987 6   -431932.098 6   -306804.65249  22701847.61649
  22840684.800 6   -614034.672 6   -452087.44947  22840682.88647
  21460338.042 6   -225206.383 6   -156225.46148  21460335.53848
  22924954.464 5   -183714.621 5   -121504.41047  22924956.31547
  20025613.222 7   -267137.863 7   -187210.28949  20025613.04249
  23628402.839 5   -116358.203 5    -82498.89547  23628401.89747
 20  5 16  1 50 33.9990000  0  8G04G08G09G11G16G26G27G31             0.000401814
  21327125.097 6   -272249.512 6   -194982.49648  21327124.49948
  20357621.050 7   -431808.918 7   -299339.55149  20357621.79249
  22700877.855 6   -437023.625 6   -310772.08249  22700878.60849
  22839272.605 6   -621457.074 6   -457871.14147  22839270.51147
  21459801.042 6   -228028.063 6   -158424.17248  21459798.41748
  22924504.808 5   -186076.348 5   -123344.72347  22924506.54647
  20025019.737 7   -270255.039 7   -189639.25449  20025019.51149
  23628119.987 5   -117842.891 5    -83655.79747  23628119.79247
 20  5 16  1 50 34.9990000  0  8G04G08G09G11G16G26G27G31             0.000399220
  21326516.925 6   -275445.699 6   -197473.03548  21326516.28048
  20356619.120 7   -437074.313 7   -303442.45349  20356619.71849
  22699909.237 6   -442114.977 6   -314739.36749  22699909.58149
  22837860.026 6   -628879.766 6   -463655.05547  22837857.79647
  21459264.253 6   -230850.102 6   -160623.16848  21459261.83548
  22924055.362 5   -188438.492 5   -125185.35547  22924057.44447
  20024426.480 7   -273372.066 7   -192068.10949  20024426.64449
  23627837.730 5   -119327.715 5    -84812.80547  23627837.11247
 20  5 16  1 50 35.9990000  0  8G04G08G09G11G16G26G27G31             0.000396624
  21325908.808 6   -278641.711 6   -199963.43448  21325907.72648
  20355616.909 7   -442339.578 7   -307545.25849  20355617.64749
  22698940.433 6   -447206.156 6   -318706.52749  22698940.83949
  22836447.315 6   -636302.691 6   -469439.16047  22836445.91747
  21458727.019 6   -233672.496 6   -162822.43848  21458724.57748
  22923606.245 5   -190801.016 5   -127026.28547  22923607.78447
  20023833.144 7   -276488.938 7   -194496.84449  20023833.17549
  23627555.253 5   -120812.723 5    -85969.94947  23627554.62847
 20  5 16  1 50 36.9990000  0  8G04G08G09G11G16G26G27G31             0.000394030
  21325300.511 6   -281837.668 6   -202453.78948  21325299.58948
  20354614.980 7   -447604.766 7   -311648.00449  20354615.71049
  22697972.105 6   -452297.277 6   -322673.62949  22697971.87449
  22835034.440 6   -643725.992 6   -475223.54747  22835033.10147
  21458190.151 6   -236495.348 6   -165022.05948  21458187.43748
  22923156.355 5   -193164.039 5   -128867.60547  22923157.96847
  20023240.401 7   -279605.746 7   -196925.52349  20023240.18349
  23627272.339 5   -122297.969 5    -87127.28947  23627271.68747
 20  5 16  1 50 37.9990000  0  8G04G08G09G11G16G26G27G31             0.000391434
  21324692.581 6   -285033.465 6   -204944.02048  21324691.51148
  20353613.339 7   -452869.793 7   -315750.62149  20353613.84749
  22697003.230 6   -457388.195 6   -326640.58249  22697003.34349
  22833621.925 6   -651149.531 6   -481008.12147  22833620.52647
  21457653.003 6   -239318.547 6   -167221.95748  21457650.06548
  22922706.573 5   -195527.504 5   -130709.27047  22922708.34347
  20022647.245 7   -282722.395 7   -199354.08249  20022647.48049
  23626989.730 5   -123783.379 5    -88284.75447  23626989.01947
 20  5 16  1 50 38.9990000  0  8G04G08G09G11G16G26G27G31             0.000388838
  21324084.222 6   -288229.117 6   -207434.13348  21324083.65948
  20352611.589 7   -458134.695 7   -319853.14549  20352612.00749
  22696034.339 6   -462479.004 6   -330607.44549  22696034.83149
  22832209.331 6   -658573.367 6   -486792.92247  22832207.60547
  21457115.440 6   -242142.141 6   -169422.15648  21457112.92548
  22922255.894 5   -197891.371 5   -132551.24247  22922258.23347
  20022054.292 7   -285838.914 7   -201782.53949  20022053.98349
  23626707.128 5   -125268.953 5    -89442.34447  23626706.17147
 20  5 16  1 50 39.9990000  0  8G04G08G09G11G16G26G27G31             0.000386242
  21323476.081 6   -291424.637 6   -209924.14848  21323475.33148
  20351609.597 7   -463399.496 7   -323955.58249  20351610.31249
  22695065.144 6   -467569.672 6   -334574.20349  22695065.08149
  22830796.581 6   -665997.492 6   -492577.95347  22830794.98047
  21456578.159 6   -244966.109 6   -171622.64848  21456575.38248
  22921806.706 5   -200255.703 5   -134393.57847  22921808.66347
  20021461.347 7   -288955.328 7   -204210.91449  20021460.98049
  23626424.089 5   -126754.773 5    -90600.12547  23626423.30047
 20  5 16  1 50 40.9990000  0  8G04G08G09G11G16G26G27G31             0.000383644
  21322867.995 6   -294619.992 6   -212414.03948  21322867.39048
  20350607.831 7   -468664.121 7   -328057.89149  20350608.23349
  22694097.253 6   -472660.133 6   -338540.79749  22694097.08949
  22829383.300 6   -673421.879 6   -498363.19147  22829381.94847
  21456040.456 6   -247790.430 6   -173823.42248  21456038.08948
  22921356.378 5   -202620.395 5   -136236.19147  22921358.35547
  20020868.073 7   -292071.602 7   -206639.18049  20020867.95249
  23626140.831 5   -128240.695 5    -91757.98847  23626140.73347
 20  5 16  1 50 41.9990000  0  8G04G08G09G11G16G26G27G31             0.000381048
  21322259.964 6   -297815.250 6   -214903.85248  21322259.48348
  20349605.972 7   -473928.660 7   -332160.12949  20349606.44849
  22693128.245 6   -477750.496 6   -342507.31349  22693128.25349
  22827970.784 6   -680846.586 6   -504148.67647  22827969.37447
  21455502.761 6   -250615.184 6   -176024.52748  21455500.77648
  22920906.730 5   -204985.582 5   -138079.19947  22920908.43747
  20020275.487 7   -295187.773 7   -209067.36349  20020275.00349
  23625858.511 5   -129726.844 5    -92916.02747  23625857.87447
 20  5 16  1 50 42.9990000  0  8G04G08G09G11G16G26G27G31             0.000378452
  21321651.870 6   -301010.426 6   -217393.60248  21321651.10148
  20348604.003 7   -479193.098 7   -336262.28549  20348604.47249
  22692159.136 6   -482840.781 6   -346473.76649  22692159.69449
  22826557.933 6   -688271.617 6   -509934.42247  22826556.08547
  21454965.308 6   -253440.363 6   -178225.96548  21454963.03848
  22920456.612 5   -207351.242 5   -139922.57447  22920458.45247
  20019682.659 7   -298303.867 7   -211495.49249  20019681.98749
  23625574.917 5   -131213.246 5    -94074.26247  23625574.64447
 20  5 16  1 50 43.9990000  0  8G04G08G09G11G16G26G27G31             0.000375854
  21321044.300 6   -304205.422 6   -219883.21548  21321043.24948
  20347602.487 7   -484457.375 7   -340364.32449  20347602.87449
  22691190.901 6   -487930.859 6   -350440.05949  22691191.05849
  22825144.901 6   -695696.895 6   -515720.34847  22825142.93747
  21454427.464 6   -256265.875 6   -180427.66448  21454425.07348
  22920006.370 5   -209717.320 5   -141766.27047  22920008.01547
  20019089.253 7   -301419.785 7   -213923.47749  20019089.25349
  23625293.073 5   -132699.773 5    -95232.60247  23625291.78847
 20  5 16  1 50 44.9990000  0  8G04G08G09G11G16G26G27G31             0.000373257
  21320436.292 6   -307400.301 6   -222372.73048  21320435.42948
  20346600.964 7   -489721.613 7   -344466.32449  20346601.53449
  22690222.073 6   -493020.871 6   -354406.30549  22690222.50749
  22823732.042 6   -703122.504 6   -521506.54347  22823730.25747
  21453889.792 6   -259091.816 6   -182629.69948  21453887.17948
  22919556.597 5   -212083.824 5   -143610.30947  22919558.07747
  20018496.573 7   -304535.625 7   -216351.40649  20018496.46049
  23625010.058 5   -134186.531 5    -96391.12547  23625008.91747
 20  5 16  1 50 45.9990000  0  8G04G08G09G11G16G26G27G31             0.000370659
  21319827.917 6   -310595.098 6   -224862.18048  21319827.45648
  20345599.128 7   -494985.719 7   -348568.22749  20345599.45249
  22689253.464 6   -498110.711 6   -358372.41849  22689253.91349
  22822318.550 6   -710548.422 6   -527292.97347  22822317.33947
  21453352.003 6   -261918.164 6   -184832.04748  21453349.52648
  22919105.253 5   -214450.809 5   -145454.70747  22919107.51147
  20017903.511 7   -307651.363 7   -218779.25449  20017903.41349
  23624727.214 5   -135673.484 5    -97549.79347  23624726.37447
 20  5 16  1 50 46.9990000  0  8G04G08G09G11G16G26G27G31             0.000368061
  21319220.261 6   -313789.730 6   -227351.50848  21319219.64448
  20344597.495 7   -500249.715 7   -352670.03549  20344597.64449
  22688285.128 6   -503200.457 6   -362338.45349  22688285.28849
  22820905.722 6   -717974.633 6   -533079.62147  22820904.08947
  21452814.214 6   -264744.906 6   -187034.70748  21452811.68748
  22918655.222 5   -216818.223 5   -147299.45347  22918656.98747
  20017310.714 7   -310766.953 7   -221206.98849  20017310.46449
  23624444.175 5   -137160.633 5    -98708.61747  23624443.24147
 20  5 16  1 50 47.9990000  0  8G04G08G09G11G16G26G27G31             0.000365463
  21318612.269 6   -316984.227 6   -229840.72748  21318611.77648
  20343595.597 7   -505513.543 7   -356771.72349  20343596.35149
  22687316.534 6   -508289.980 6   -366304.31649  22687316.55049
  22819492.378 6   -725401.102 6   -538866.48047  22819490.80447
  21452275.714 6   -267572.016 6   -189237.64848  21452273.73748
  22918204.308 5   -219186.043 5   -149144.50447  22918206.49947
  20016717.909 7   -313882.430 7   -223634.63349  20016717.52249
  23624160.901 5   -138647.902 5    -99867.53547  23624160.33147
 20  5 16  1 50 48.9990000  0  8G04G08G09G11G16G26G27G31             0.000362864
  21318004.448 6   -320178.570 6   -232329.82848  21318003.88648
  20342593.831 7   -510777.254 7   -360873.31349  20342594.52649
  22686348.073 6   -513379.402 6   -370270.10249  22686348.45249
  22818078.995 6   -732827.863 6   -544653.56647  22818077.36247
  21451738.026 6   -270399.516 6   -191440.90648  21451735.94848
  22917753.894 5   -221554.293 5   -150989.89147  22917755.83147
  20016124.948 7   -316997.758 7   -226062.16049  20016124.44849
  23623877.972 5   -140135.379 5   -101026.61747  23623877.25747
 20  5 16  1 50 49.9990000  0  8G04G08G09G11G16G26G27G31             0.000360266
  21317396.526 6   -323372.723 6   -234818.77748  21317396.20248
  20341592.151 7   -516040.777 7   -364974.76249  20341592.60549
  22685379.933 6   -518468.617 6   -374235.72349  22685379.73349
  22816665.995 6   -740254.855 6   -550440.83247  22816663.96447
  21451199.870 6   -273227.305 6   -193644.37948  21451197.70248
  22917302.964 5   -223922.895 5   -152835.55947  22917304.92147
  20015531.894 7   -320112.922 7   -228489.56349  20015531.78049
  23623594.894 5   -141622.969 5   -102185.78147  23623594.34347
 20  5 16  1 50 50.9990000  0  8G04G08G09G11G16G26G27G31             0.000357666
  21316788.440 6   -326566.770 6   -237307.64548  21316787.90948
  20340590.784 7   -521304.219 7   -369076.14549  20340591.05449
  22684411.042 6   -523557.691 6   -378201.23049  22684411.49149
  22815252.339 6   -747682.164 6   -556228.34447  22815250.85847
  21450661.683 6   -276055.531 6   -195848.19148  21450659.12848
  22916852.206 5   -226291.996 5   -154681.61747  22916854.42147
  20014939.503 7   -323227.965 7   -230916.87549  20014939.33549
  23623312.120 5   -143110.746 5   -103345.09047  23623311.01547
 20  5 16  1 50 51.9990000  0  8G04G08G09G11G16G26G27G31             0.000355066
  21316181.175 6   -329760.613 6   -239796.35248  21316180.31948
  20339589.362 7   -526567.469 7   -373177.37949  20339589.76149
  22683442.855 6   -528646.559 6   -382166.58649  22683443.03049
  22813839.128 6   -755109.645 6   -562015.99247  22813837.17147
  21450123.620 6   -278884.078 6   -198052.25448  21450121.06948
  22916401.511 5   -228661.465 5   -156527.95347  22916403.59347
  20014346.636 7   -326342.832 7   -233344.03549  20014346.53049
  23623028.683 5   -144598.660 5   -104504.50447  23623028.14047
 20  5 16  1 50 52.9990000  0  8G04G08G09G11G16G26G27G31             0.000352467
  21315573.167 6   -332954.328 6   -242284.96548  21315572.49948
  20338587.667 7   -531830.598 7   -377278.52349  20338588.12449
  22682474.386 6   -533735.277 6   -386131.82449  22682474.95649
  22812425.472 6   -762537.465 6   -567803.90647  22812423.51947
  21449585.042 6   -281713.012 6   -200256.62148  21449582.35548
  22915949.901 5   -231031.348 5   -158374.61347  22915952.22247
  20013754.097 7   -329457.586 7   -235771.11749  20013753.46449
  23622745.706 5   -146086.742 5   -105664.05547  23622744.97247
 20  5 16  1 50 53.9990000  0  8G04G08G09G11G16G26G27G31             0.000349867
  21314965.675 6   -336147.875 6   -244773.43848  21314965.15948
  20337585.870 7   -537093.563 7   -381379.53149  20337586.71449
  22681506.323 6   -538823.863 6   -390096.95749  22681506.78049
  22811011.956 6   -769965.523 6   -573592.00847  22811010.46047
  21449046.636 6   -284542.289 6   -202461.25048  21449044.04248
  22915499.253 5   -233401.621 5   -160221.57847  22915501.48347
  20013161.464 7   -332572.133 7   -238198.03949  20013160.92949
  23622462.190 5   -147574.984 5   -106823.72347  23622461.94047
 20  5 16  1 50 54.9990000  0  8G04G08G09G11G16G26G27G31             0.000347267
  21314357.753 6   -339341.246 6   -247261.78548  21314357.04648
  20336584.862 7   -542356.363 7   -385480.41449  20336585.51149
  22680538.253 6   -543912.211 6   -394061.90249  22680538.16749
  22809598.495 6   -777393.820 6   -579380.29347  22809596.99547
  21448508.292 6   -287371.914 6   -204666.15248  21448505.60148
  22915047.980 5   -235772.273 5   -162068.84447  22915050.13247
  20012568.628 7   -335686.578 7   -240624.88349  20012568.38649
  23622179.073 5   -149063.336 5   -107983.48047  23622178.64047
 20  5 16  1 50 55.9990000  0  8G04G08G09G11G16G26G27G31             0.000344667
  21313749.956 6   -342534.477 6   -249750.02048  21313749.51148
  20335583.276 7   -547619.066 7   -389581.22349  20335583.80049
  22679569.378 6   -549000.457 6   -398026.77049  22679569.29249
  22808185.151 6   -784822.422 6   -585168.81347  22808183.34347
  21447970.128 6   -290201.934 6   -206871.36748  21447967.13248
  22914596.511 5   -238143.406 5   -163916.47347  22914598.80847
  20011975.980 7   -338800.879 7   -243051.60949  20011975.64049
  23621895.800 5   -150551.910 5   -109143.41047  23621895.09747
 20  5 16  1 50 56.9990000  0  8G04G08G09G11G16G26G27G31             0.000342066
  21313142.847 6   -345727.566 6   -252238.14548  21313142.03448
  20334581.862 7   -552881.594 7   -393681.89149  20334582.14049
  22678601.636 6   -554088.512 6   -401991.49249  22678601.73749
  22806771.347 6   -792251.281 6   -590957.53147  22806770.04647
  21447431.276 6   -293032.316 6   -209076.85948  21447429.10548
  22914145.308 5   -240514.953 5   -165764.44147  22914147.61647
  20011383.448 7   -341915.035 7   -245478.22349  20011383.28849
  23621612.472 5   -152040.641 5   -110303.46547  23621611.90547
 20  5 16  1 50 57.9990000  0  8G04G08G09G11G16G26G27G31             0.000339464
  21312535.151 6   -348920.375 6   -254726.04348  21312534.25748
  20333580.503 7   -558143.852 7   -397782.35549  20333581.18349
  22677632.956 6   -559176.316 6   -405956.01649  22677633.31549
  22805357.698 6   -799680.305 6   -596746.38747  22805355.77647
  21446892.644 6   -295862.945 6   -211282.54348  21446889.98348
  22913694.034 5   -242886.750 5   -167612.59847  22913696.37847
  20010790.933 7   -345028.926 7   -247904.63349  20010790.60549
  23621329.331 5   -153529.402 5   -111463.53547  23621328.56947
 20  5 16  1 50 58.9990000  0  8G04G08G09G11G16G26G27G31             0.000336864
  21311927.355 6   -352113.027 6   -257213.82448  21311927.02248
  20332579.097 7   -563405.973 7   -401882.71149  20332579.62449
  22676665.089 6   -564263.922 6   -409920.38349  22676665.12449
  22803943.683 6   -807109.570 6   -602535.42247  22803941.88647
  21446353.940 6   -298693.949 6   -213488.51648  21446351.02248
  22913242.565 5   -245258.977 5   -169461.09447  22913244.86247
  20010198.222 7   -348142.660 7   -250330.91449  20010198.01149
  23621045.558 5   -155018.316 5   -112623.73447  23621045.17147
 20  5 16  1 50 59.9990000  0  8G04G08G09G11G16G26G27G31             0.000334263
  21311319.972 6   -355305.508 6   -259701.47348  21311319.78848
  20331578.151 7   -568667.957 7   -405982.95349  20331578.28849
  22675697.073 6   -569351.391 6   -413884.64549  22675696.82749
  22802529.605 6   -814539.105 6   -608324.66447  22802528.08947
  21445814.987 6   -301525.301 6   -215694.76648  21445812.51148
  22912791.144 5   -247631.605 5   -171309.90247  22912793.39747
  20009605.784 7   -351256.250 7   -252757.09449  20009605.34749
  23620762.198 5   -156507.375 5   -113784.03947  23620762.10847
 20  5 16  1 51  0.9990000  0  8G04G08G09G11G16G26G27G31             0.000331661
  21310712.456 6   -358497.789 6   -262188.96948  21310712.03448
  20330576.394 7   -573929.766 7   -410083.06649  20330576.97649
  22674728.644 6   -574438.625 6   -417848.71949  22674728.92949
  22801116.355 6   -821968.848 6   -614114.07447  22801114.21047
  21445276.097 6   -304356.984 6   -217901.27048  21445273.74948
  22912339.581 5   -250004.609 5   -173158.98847  22912341.76147
  20009013.534 7   -354369.656 7   -255183.12149  20009013.24149
  23620478.675 5   -157996.563 5   -114944.44947  23620478.28847
 20  5 16  1 51  1.9990000  0  8G04G08G09G11G16G26G27G31             0.000329060
  21310105.042 6   -361689.898 6   -264676.32448  21310104.33948
  20329575.151 7   -579191.348 7   -414182.99649  20329575.66749
  22673760.581 6   -579525.645 6   -421812.63349  22673760.93749
  22799702.222 6   -829398.848 6   -619903.68447  22799700.49947
  21444737.456 6   -307188.980 6   -220108.02048  21444734.58948
  22911888.034 5   -252377.988 5   -175008.37947  22911890.47647
  20008420.823 7   -357482.871 7   -257609.00449  20008420.57749
  23620195.292 5   -159485.852 5   -116104.94147  23620195.28047
 20  5 16  1 51  2.9990000  0  8G04G08G09G11G16G26G27G31             0.000326456
  21309497.589 6   -364881.734 6   -267163.47348  21309497.05448
  20328573.753 7   -584452.711 7   -418282.76249  20328574.50349
  22672792.878 6   -584612.410 6   -425776.34849  22672792.93749
  22798288.401 6   -836828.961 6   -625693.38347  22798286.55447
  21444198.558 6   -310021.238 6   -222314.97348  21444196.08148
  22911436.159 5   -254751.633 5   -176857.97747  22911438.40947
  20007828.355 7   -360595.836 7   -260034.69549  20007828.12049
