     2.10           OBSERVATION DATA    Mixed(MIXED)        RINEX VERSION / TYPE
cnvtToRINEX 3.07.0  convertToRINEX OPR  19-May-20 12:30 UTC PGM / RUN BY / DATE 
----------------------------------------------------------- COMMENT             
GBA0                                                        MARKER NAME         
GBA0                                                        MARKER NUMBER       
GNSS Observer       Trimble                                 OBSERVER / AGENCY   
0220379195          5700                2.32                REC # / TYPE / VERS 
                    TRM39105.00                             ANT # / TYPE        
 -3050462.2043  4927777.9961  2654272.6903                  APPROX POSITION XYZ 
       -0.0460        0.0000        0.0000                  ANTENNA: DELTA H/E/N
     1     1     0                                          WAVELENGTH FACT L1/2
     4    C1    L1    L2    P2                              # / TYPES OF OBSERV 
  2020     5    16     1    47   56.0000000     GPS         TIME OF FIRST OBS   
  2020     5    16     3     9    4.0000000     GPS         TIME OF LAST OBS    
     0                                                      RCV CLOCK OFFS APPL 
    18                                                      LEAP SECONDS        
    10                                                      # OF SATELLITES     
   G01  2991  2991  2991  2991                              PRN / # OF OBS      
   G04  4869  4869  4869  4869                              PRN / # OF OBS      
   G07  3928  3919  3928  3928                              PRN / # OF OBS      
   G08  4869  4869  4869  4869                              PRN / # OF OBS      
   G09  4869  4869  4869  4869                              PRN / # OF OBS      
   G11  4845  4845  4845  4845                              PRN / # OF OBS      
   G16  4869  4869  4869  4869                              PRN / # OF OBS      
   G26  4866  4838  4862  4862                              PRN / # OF OBS      
   G27  4845  4845  4845  4845                              PRN / # OF OBS      
   G31  1858  1836  1844  1844                              PRN / # OF OBS      
CARRIER PHASE MEASUREMENTS: PHASE SHIFTS REMOVED            COMMENT             
                                                            END OF HEADER       
 20  5 16  1 47 56.0000000  0  5G04G08G09G16G26                     -0.000033484
  21471399.57016    -18373.39116     -4093.57858  21471398.66458
  20563950.61716    -49002.31616    -13970.28159  20563951.55559
  22902070.13315    -37101.29715    -10316.85959  22902069.79359
  21590879.38316     -7219.37116     -2711.24258  21590876.76258
  23041431.71115     -4510.56615     -1048.09857  23041432.59057
 20  5 16  1 47 57.0000000  0  5G04G08G09G16G26                     -0.000034782
  21471161.773 6    -19623.191 6     -5067.47748  21471161.06348
  20563318.883 6    -52319.020 6    -16554.73049  20563320.25449
  22901471.586 5    -40246.336 5    -12767.53949  22901471.76249
  21590728.172 6     -8012.758 6     -3329.48048  21590725.58648
  23041370.242 5     -4835.873 5     -1301.61347  23041370.70747
 20  5 16  1 47 58.0000000  0  5G04G08G09G16G26                     -0.000036081
  21470924.117 6    -20874.664 6     -6042.66848  21470922.91048
  20562687.984 6    -55637.449 6    -19140.52349  20562688.38749
  22900872.773 5    -43393.078 5    -15219.54349  22900873.54349
  21590577.078 6     -8808.344 6     -3949.43848  21590574.41848
  23041307.391 5     -5163.410 5     -1556.85247  23041308.93047
 20  5 16  1 47 59.0000000  0  5G04G08G09G16G26                     -0.000037386
  21470685.258 6    -22127.754 6     -7019.10948  21470684.71148
  20562055.766 6    -58957.516 6    -21727.59049  20562056.58249
  22900274.422 6    -46541.457 6    -17672.82449  22900274.13349
  21590425.344 5     -9606.098 5     -4571.06648  21590422.67248
  23041244.695 6     -5493.176 6     -1813.82847  23041245.71147
 20  5 16  1 48  0.0000000  0  5G04G08G09G16G26                     -0.000038685
  21470446.977 6    -23382.473 6     -7996.82048  21470445.58248
  20561423.844 6    -62279.207 6    -24315.92649  20561425.04349
  22899674.398 5    -49691.395 5    -20127.32449  22899674.48049
  21590272.688 6    -10406.008 6     -5194.37148  21590270.34448
  23041181.367 5     -5825.145 5     -2072.52347  23041182.89847
 20  5 16  1 48  1.0000000  0  5G04G08G09G16G26                     -0.000039993
  21470208.008 6    -24638.660 6     -8975.66848  21470206.81648
  20560791.609 6    -65602.371 6    -26905.39849  20560792.44149
  22899074.563 5    -52842.840 5    -22582.99249  22899074.73049
  21590120.391 6    -11207.883 6     -5819.21148  21590117.69148
  23041118.469 6     -6159.117 6     -2332.75447  23041119.35547
 20  5 16  1 48  2.0000000  0  5G04G08G09G16G26                     -0.000041300
  21469968.852 6    -25896.199 6     -9955.55948  21469967.56648
  20560159.180 6    -68926.988 6    -29496.00449  20560159.73849
  22898474.953 5    -55995.648 5    -25039.72749  22898475.19549
  21589967.555 6    -12011.676 6     -6445.53548  21589964.98048
  23041054.180 5     -6495.063 5     -2594.52347  23041055.41447
 20  5 16  1 48  3.0000000  0  5G04G08G09G16G26                     -0.000042610
  21469728.828 6    -27155.078 6    -10936.49648  21469728.03948
  20559526.086 6    -72252.906 6    -32087.62549  20559526.73849
  22897874.688 5    -59149.801 5    -27497.50849  22897874.51249
  21589814.313 6    -12817.273 6     -7073.27348  21589811.26648
  23040989.867 5     -6832.895 5     -2857.76647  23040991.39547
 20  5 16  1 48  4.0000000  0  5G04G08G09G16G26                     -0.000043919
  21469489.305 6    -28415.043 6    -11918.28548  21469488.20748
  20558892.922 6    -75579.965 6    -34680.13749  20558893.62549
  22897274.234 5    -62305.055 5    -29956.14849  22897274.39149
  21589660.516 6    -13624.535 6     -7702.30948  21589657.90648
  23040925.516 5     -7172.430 5     -3122.33647  23040926.47347
 20  5 16  1 48  5.0000000  0  5G04G08G09G16G26                     -0.000045231
  21469249.297 6    -29676.137 6    -12900.95748  21469248.38748
  20558259.555 6    -78908.133 6    -37273.51649  20558260.39549
  22896673.422 5    -65461.418 5    -32415.64849  22896673.78949
  21589506.883 6    -14433.426 6     -8332.60948  21589504.19148
  23040860.273 5     -7513.652 5     -3388.22747  23040861.82047
 20  5 16  1 48  6.0000000  0  5G04G08G09G16G26                     -0.000046541
  21469008.836 6    -30938.301 6    -13884.46548  21469008.35548
  20557626.016 7    -82237.422 7    -39867.77349  20557626.89149
  22896072.578 5    -68618.859 5    -34876.00049  22896072.67649
  21589352.664 6    -15243.934 6     -8964.17648  21589349.70348
  23040794.398 5     -7856.547 5     -3655.42647  23040795.86347
 20  5 16  1 48  7.0000000  0  5G04G08G09G16G26                     -0.000047855
  21468768.734 6    -32201.395 6    -14868.69948  21468767.63748
  20556992.430 6    -85567.676 6    -42462.77349  20556993.14149
  22895471.086 5    -71777.281 5    -37337.10949  22895471.84449
  21589198.000 6    -16055.875 6     -9596.86348  21589195.14548
  23040729.906 5     -8200.926 5     -3923.77347  23040730.73847
 20  5 16  1 48  8.0000000  0  5G04G08G09G16G26                     -0.000049170
  21468528.016 6    -33465.277 6    -15853.53948  21468527.30148
  20556358.508 6    -88898.727 6    -45058.40249  20556359.18849
  22894870.523 5    -74936.406 5    -39798.76649  22894870.74249
  21589042.930 6    -16869.152 6    -10230.58648  21589040.17648
  23040663.523 5     -8546.680 5     -4193.19147  23040664.78547
 20  5 16  1 48  9.0000000  0  5G04G08G09G16G26                     -0.000050486
  21468287.156 6    -34729.832 6    -16838.91048  21468286.59048
  20555724.383 6    -92230.480 6    -47654.57449  20555724.96549
  22894269.461 5    -78096.270 5    -42260.99249  22894269.23849
  21588888.219 6    -17683.605 6    -10865.22748  21588885.24248
  23040597.836 5     -8893.684 5     -4463.58647  23040599.11747
 20  5 16  1 48 10.0000000  0  5G04G08G09G16G26                     -0.000051800
  21468046.773 6    -35994.973 6    -17824.73448  21468045.76648
  20555090.422 6    -95562.836 6    -50251.21549  20555090.97349
  22893667.914 5    -81256.703 5    -44723.67249  22893667.82449
  21588732.719 6    -18499.184 6    -11500.73848  21588730.51648
  23040531.977 5     -9241.844 5     -4734.87547  23040532.98847
 20  5 16  1 48 11.0000000  0  5G04G08G09G16G26                     -0.000053118
  21467805.617 6    -37260.668 6    -18810.98848  21467805.05148
  20554455.906 7    -98895.766 7    -52848.30149  20554456.70749
  22893066.211 5    -84417.719 5    -47186.80149  22893066.37949
  21588577.664 6    -19315.875 6    -12137.12148  21588574.68848
  23040465.266 5     -9591.160 5     -5007.06647  23040466.40647
 20  5 16  1 48 12.0000000  0  5G04G08G09G16G26                     -0.000054432
  21467564.648 6    -38526.785 6    -19797.57448  21467564.10548
  20553821.539 6   -102229.152 6    -55445.73849  20553822.58249
  22892464.570 5    -87579.156 5    -49650.26249  22892464.72749
  21588422.016 6    -20133.441 6    -12774.19548  21588419.27048
  23040398.672 5     -9941.441 5     -5280.01247  23040399.93047
 20  5 16  1 48 13.0000000  0  5G04G08G09G16G26                     -0.000055752
  21467324.008 6    -39793.266 6    -20784.44148  21467323.28948
  20553187.469 6   -105562.922 6    -58043.48849  20553188.39149
  22891863.031 5    -90740.973 5    -52114.01649  22891863.14149
  21588266.047 6    -20951.973 6    -13412.01248  21588263.49248
  23040331.680 5    -10292.727 5     -5553.74647  23040332.89147
 20  5 16  1 48 14.0000000  0  5G04G08G09G16G26                     -0.000057068
  21467082.758 6    -41060.090 6    -21771.58648  21467082.03148
  20552552.781 6   -108897.051 6    -60641.50849  20552553.62549
  22891261.109 5    -93903.086 5    -54578.00449  22891261.30149
  21588110.617 6    -21771.340 6    -14050.48048  21588107.44148
  23040264.828 5    -10644.867 5     -5828.14547  23040265.55547
 20  5 16  1 48 15.0000000  0  5G04G08G09G16G26                     -0.000058388
  21466841.727 6    -42327.082 6    -22758.85548  21466840.62148
  20551918.406 6   -112231.375 6    -63239.68449  20551919.33649
  22890659.625 6    -97065.414 6    -57042.15249  22890659.37149
  21587954.289 6    -22591.395 6    -14689.48048  21587951.56348
  23040197.180 6    -10997.793 6     -6103.16047  23040198.24647
 20  5 16  1 48 16.0000000  0  5G04G08G09G16G26                     -0.000059706
  21466600.570 6    -43594.207 6    -23746.22348  21466599.64148
  20551283.945 6   -115565.879 6    -65838.00049  20551284.81649
  22890057.656 5   -100227.867 5    -59506.40249  22890057.60249
  21587797.805 6    -23412.148 6    -15329.03148  21587795.30548
  23040130.250 6    -11351.434 6     -6378.72347  23040131.16847
 20  5 16  1 48 17.0000000  0  5G04G08G09G16G26                     -0.000061028
  21466359.672 6    -44861.422 6    -24733.66448  21466358.61748
  20550649.156 6   -118900.484 6    -68436.39849  20550650.43449
  22889455.578 5   -103390.410 5    -61970.71949  22889455.56649
  21587641.875 6    -24233.457 6    -15969.00448  21587638.95348
  23040063.117 5    -11705.719 5     -6654.78947  23040063.80947
 20  5 16  1 48 18.0000000  0  5G04G08G09G16G26                     -0.000062346
  21466117.938 6    -46128.672 6    -25721.13348  21466117.60548
  20550014.578 6   -122235.117 6    -71034.81349  20550015.38349
  22888853.984 5   -106553.016 5    -64435.09049  22888853.80949
  21587485.273 6    -25055.383 6    -16609.47348  21587482.63348
  23039995.258 5    -12060.613 5     -6931.33647  23039996.56347
 20  5 16  1 48 19.0000000  0  5G04G08G09G16G26                     -0.000063667
  21465877.195 6    -47395.891 6    -26708.57448  21465876.67248
  20549380.250 6   -125569.777 6    -73633.25049  20549380.96949
  22888252.516 5   -109715.566 5    -66899.41449  22888252.42649
  21587329.070 6    -25877.777 6    -17250.31348  21587325.94948
  23039927.320 5    -12416.086 5     -7208.32447  23039928.73047
 20  5 16  1 48 20.0000000  0  8G04G08G09G11G16G26G27G31            -0.000064987
  21465635.992 6    -48662.926 6    -27695.87948  21465634.97748
  20548745.461 6   -128904.258 6    -76231.54349  20548746.37949
  22887650.531 5   -112877.934 5    -69363.60249  22887650.64549
  23084728.25815   -178775.57815    -94781.66457  23084725.72757
  21587172.250 6    -26700.512 6    -17891.40248  21587169.87548
  23039859.984 5    -12771.922 5     -7485.59847  23039861.42247
  20161040.62517    -36971.53517    -20480.85259  20161040.36359
  23721780.62515     12933.70715      6886.80957  23721779.09457
 20  5 16  1 48 21.0000000  0  8G04G08G09G11G16G26G27G31            -0.000066307
  21465394.930 6    -49929.773 6    -28683.03148  21465394.52348
  20548111.039 6   -132238.559 6    -78829.69949  20548111.76249
  22887048.750 5   -116040.133 5    -71827.65649  22887048.32849
  23083693.836 5   -184210.906 5    -99016.98847  23083691.43847
  21587015.688 6    -27523.590 6    -18532.76648  21587013.05948
  23039792.445 5    -13128.156 5     -7763.18847  23039793.33647
  20160814.891 7    -38158.414 7    -21405.69149  20160814.56649
  23721873.492 5     13420.980 5      7266.49647  23721872.18447
 20  5 16  1 48 22.0000000  0  8G04G08G09G11G16G26G27G31            -0.000067627
  21465153.781 6    -51196.387 6    -29670.00048  21465153.41048
  20547476.484 6   -135572.648 6    -81427.69549  20547477.25849
  22886447.008 5   -119202.102 5    -74291.52049  22886447.07449
  23082659.914 6   -189646.469 6   -103252.49247  23082657.56347
  21586858.953 6    -28346.973 6    -19174.35248  21586856.43848
  23039724.242 5    -13484.734 5     -8041.04347  23039725.40247
  20160588.820 7    -39345.098 7    -22330.38349  20160588.51649
  23721966.242 5     13908.145 5      7646.10247  23721965.10947
 20  5 16  1 48 23.0000000  0  8G04G08G09G11G16G26G27G31            -0.000068951
  21464912.688 6    -52462.781 6    -30656.79748  21464911.85948
  20546842.297 6   -138906.531 6    -84025.52749  20546842.96949
  22885845.586 5   -122363.855 5    -76755.22749  22885845.87949
  23081625.359 6   -195082.219 6   -107488.14547  23081622.86747
  21586702.688 6    -29170.656 6    -19816.19148  21586699.48848
  23039656.336 5    -13841.691 5     -8319.18847  23039657.67647
  20160363.156 7    -40531.516 7    -23254.86349  20160362.80549
  23722059.031 5     14395.211 5      8025.63347  23722057.55547
 20  5 16  1 48 24.0000000  0  8G04G08G09G11G16G26G27G31            -0.000070271
  21464672.078 6    -53728.859 6    -31643.35948  21464671.32448
  20546207.938 6   -142240.086 6    -86623.09849  20546208.95349
  22885243.555 6   -125525.273 6    -79218.67249  22885243.85949
  23080591.180 5   -200518.113 5   -111723.91447  23080588.71147
  21586545.531 6    -29994.543 6    -20458.17648  21586543.13748
  23039588.438 5    -14198.871 5     -8597.50447  23039589.40247
  20160137.422 7    -41717.656 7    -24179.12949  20160137.14549
  23722151.453 5     14882.281 5      8405.16847  23722150.19147
 20  5 16  1 48 25.0000000  0  8G04G08G09G11G16G26G27G31            -0.000071592
  21464431.406 6    -54994.598 6    -32629.64848  21464430.74248
  20545573.570 7   -145573.352 7    -89220.44549  20545574.34049
  22884642.266 6   -128686.402 6    -81681.88749  22884642.25049
  23079556.555 6   -205954.109 6   -115959.76647  23079553.66847
  21586388.633 6    -30818.621 6    -21100.31648  21586385.88348
  23039520.133 5    -14556.316 5     -8876.04347  23039521.62547
  20159911.820 7    -42903.484 7    -25103.15249  20159911.62949
  23722244.164 5     15369.348 5      8784.69547  23722243.29747
 20  5 16  1 48 26.0000000  0  8G04G08G09G11G16G26G27G31            -0.000072914
  21464190.711 6    -56259.895 6    -33615.60248  21464189.50848
  20544939.188 7   -148906.176 7    -91817.45349  20544940.16049
  22884040.805 6   -131847.031 6    -84144.71549  22884040.84449
  23078522.047 6   -211390.129 6   -120195.62547  23078519.46947
  21586231.500 6    -31642.750 6    -21742.49648  21586228.77048
  23039452.547 5    -14913.910 5     -9154.69147  23039453.68047
  20159685.992 7    -44088.844 7    -26026.80949  20159685.99249
  23722336.602 6     15856.594 6      9164.35547  23722335.69147
 20  5 16  1 48 27.0000000  0  8G04G08G09G11G16G26G27G31            -0.000074236
  21463949.742 6    -57524.762 6    -34601.21148  21463949.15248
  20544305.281 6   -152238.598 6    -94414.15249  20544305.90249
  22883439.813 6   -135007.266 6    -86607.23449  22883439.09449
  23077487.281 6   -216826.129 6   -124431.46947  23077485.23047
  21586074.852 6    -32467.000 6    -22384.77748  21586072.17648
  23039383.961 5    -15271.621 5     -9433.43047  23039385.45347
  20159460.820 7    -45273.801 7    -26950.15249  20159460.57849
  23722429.203 5     16343.879 5      9544.05547  23722428.54347
 20  5 16  1 48 28.0000000  0  8G04G08G09G11G16G26G27G31            -0.000075558
  21463709.102 6    -58789.172 6    -35586.46948  21463708.49648
  20543671.523 6   -155570.613 6    -97010.52349  20543671.94549
  22882838.125 6   -138167.059 6    -89069.40649  22882837.83649
  23076452.891 6   -222262.164 6   -128667.33247  23076450.92247
  21585918.133 6    -33291.336 6    -23027.11348  21585915.42248
  23039316.461 5    -15629.457 5     -9712.26247  23039317.25847
  20159235.305 7    -46458.309 7    -27873.14549  20159235.10249
  23722521.523 5     16831.316 5      9923.87547  23722520.98047
 20  5 16  1 48 29.0000000  0  8G04G08G09G11G16G26G27G31            -0.000076880
  21463468.719 6    -60053.105 6    -36571.35248  21463467.92248
  20543037.281 6   -158902.164 6    -99606.53949  20543038.19949
  22882236.734 6   -141326.340 6    -91531.18849  22882237.05549
  23075418.695 5   -227698.164 5   -132903.17247  23075416.69947
  21585761.688 6    -34115.734 6    -23669.50448  21585758.55548
  23039247.953 5    -15987.445 5     -9991.21547  23039249.02347
  20159010.148 7    -47642.379 7    -28795.79749  20159009.86749
  23722614.797 5     17318.891 5     10303.81347  23722613.65647
 20  5 16  1 48 30.0000000  0  8G04G08G09G11G16G26G27G31            -0.000078201
  21463228.195 6    -61316.520 6    -37555.82448  21463227.39848
  20542403.313 6   -162233.180 6   -102202.13749  20542404.10949
  22881635.563 5   -144485.113 5    -93992.56649  22881635.99649
  23074384.117 5   -233134.043 5   -137138.92247  23074382.00047
  21585604.383 6    -34940.082 6    -24311.85948  21585601.62948
  23039180.211 5    -16345.426 5    -10270.16047  23039181.12547
  20158784.914 7    -48825.875 7    -29718.00849  20158784.66849
  23722707.688 5     17806.707 5     10683.93047  23722706.85547
 20  5 16  1 48 31.0000000  0  8G04G08G09G11G16G26G27G31            -0.000079523
  21462988.023 6    -62579.410 6    -38539.90248  21462987.09448
  20541769.508 7   -165563.699 7   -104797.34849  20541770.39549
  22881034.750 5   -147643.395 5    -96453.57049  22881035.06649
  23073349.539 5   -238569.879 5   -141374.64547  23073347.59447
  21585447.609 6    -35764.477 6    -24954.24248  21585444.61348
  23039111.680 5    -16703.473 5    -10549.15647  23039113.09847
  20158559.773 7    -50008.902 7    -30639.84849  20158559.62549
  23722800.469 5     18294.703 5     11064.19147  23722799.59047
 20  5 16  1 48 32.0000000  0  8G04G08G09G11G16G26G27G31            -0.000080845
  21462747.867 6    -63841.750 6    -39523.53948  21462746.83248
  20541135.977 6   -168893.703 6   -107392.15249  20541136.75449
  22880433.344 6   -150801.117 6    -98914.13749  22880434.26649
  23072315.375 5   -244005.598 5   -145610.25847  23072312.77047
  21585290.836 6    -36588.805 6    -25596.57448  21585287.88748
  23039043.875 5    -17061.543 5    -10828.17247  23039044.78547
  20158334.750 7    -51191.348 7    -31561.23049  20158334.67649
  23722893.570 5     18782.945 5     11444.64147  23722892.48047
 20  5 16  1 48 33.0000000  0  8G04G08G09G11G16G26G27G31            -0.000082169
  21462507.453 6    -65103.406 6    -40506.65248  21462507.02348
  20540502.258 7   -172223.094 7   -109986.48449  20540503.06649
  22879832.797 5   -153958.148 5   -101374.15649  22879833.28149
  23071281.359 5   -249441.063 5   -149845.69147  23071278.96547
  21585134.156 6    -37413.004 6    -26238.80948  21585131.14148
  23038975.695 5    -17419.535 5    -11107.13747  23038976.49647
  20158109.664 7    -52373.164 7    -32482.12949  20158109.53149
  23722986.094 5     19271.535 5     11825.34847  23722985.30147
 20  5 16  1 48 34.0000000  0  8G04G08G09G11G16G26G27G31            -0.000083488
  21462267.219 6    -66364.457 6    -41489.28948  21462266.86348
  20539869.078 7   -175551.879 7   -112580.34849  20539869.84449
  22879232.328 5   -157114.605 5   -103833.73849  22879233.08649
  23070246.242 5   -254876.375 5   -154081.00047  23070244.59447
  21584977.172 6    -38237.109 6    -26880.96548  21584974.15248
  23038907.242 5    -17777.520 5    -11386.08647  23038908.39847
  20157885.000 7    -53554.375 7    -33402.55549  20157885.08249
  23723079.711 5     19760.441 5     12206.30547  23723078.59847
 20  5 16  1 48 35.0000000  0  8G04G08G09G11G16G26G27G31            -0.000084812
  21462027.672 6    -67624.891 6    -42471.44148  21462026.95748
  20539235.898 6   -178880.055 6   -115173.73049  20539236.36749
  22878631.547 6   -160270.414 6   -106292.80549  22878632.15649
  23069212.375 5   -260311.504 5   -158316.16847  23069210.31647
  21584820.453 6    -39061.105 6    -27523.04348  21584817.41848
  23038838.930 5    -18135.418 5    -11664.96947  23038840.39847
  20157660.328 7    -54734.934 7    -34322.46949  20157660.23449
  23723172.633 5     20249.605 5     12587.47347  23723171.51647
 20  5 16  1 48 36.0000000  0  8G04G08G09G11G16G26G27G31            -0.000086132
  21461788.063 6    -68884.668 6    -43453.09048  21461787.17248
  20538602.445 6   -182207.598 6   -117766.61749  20538603.05549
  22878031.328 6   -163425.563 6   -108751.36349  22878031.95749
  23068178.344 5   -265746.453 5   -162551.18447  23068176.07047
  21584663.547 6    -39885.004 6    -28165.03948  21584660.60248
  23038771.078 5    -18493.238 5    -11943.79347  23038772.53947
  20157435.891 7    -55914.898 7    -35241.92649  20157436.03149
  23723266.164 5     20739.117 5     12968.90247  23723264.99247
 20  5 16  1 48 37.0000000  0  8G04G08G09G11G16G26G27G31            -0.000087456
  21461548.461 6    -70143.746 6    -44434.19148  21461547.52348
  20537969.773 6   -185534.441 6   -120358.96549  20537970.21149
  22877431.000 6   -166580.020 6   -111209.38349  22877431.39849
  23067144.328 5   -271181.125 5   -166785.99647  23067141.58647
  21584506.805 6    -40708.703 6    -28806.88748  21584503.73048
  23038702.992 5    -18850.941 5    -12222.52747  23038704.15647
  20157211.406 7    -57094.176 7    -36160.84449  20157211.24649
  23723358.844 5     21229.016 5     13350.62947  23723358.14847
 20  5 16  1 48 38.0000000  0  8G04G08G09G11G16G26G27G31            -0.000088776
  21461309.102 6    -71402.121 6    -45414.74648  21461308.06348
  20537336.320 6   -188860.590 6   -122950.77049  20537337.08249
  22876831.445 5   -169733.793 5   -113666.86349  22876831.30549
  23066109.977 5   -276615.520 5   -171020.58247  23066107.61347
  21584349.859 6    -41532.254 6    -29448.61348  21584347.29348
  23038634.969 5    -19208.527 5    -12501.16447  23038636.45747
  20156987.070 7    -58272.723 7    -37079.19149  20156986.96149
  23723451.859 5     21719.293 5     13732.67247  23723451.30947
 20  5 16  1 48 39.0000000  0  8G04G08G09G11G16G26G27G31            -0.000090097
  21461069.133 6    -72659.813 6    -46394.76648  21461068.87148
  20536703.703 6   -192186.098 6   -125542.07449  20536704.58649
  22876230.789 6   -172886.883 6   -116123.82049  22876231.09449
  23065075.898 5   -282049.688 5   -175255.00047  23065073.43847
  21584193.430 6    -42355.621 6    -30090.19948  21584190.32448
  23038566.750 5    -19566.016 5    -12779.72347  23038568.06347
  20156762.852 7    -59450.609 7    -37997.02349  20156762.94149
  23723545.438 5     22209.914 5     14114.96547  23723544.71147
 20  5 16  1 48 40.0000000  0  8G04G08G09G11G16G26G27G31            -0.000091419
  21460830.414 6    -73916.820 6    -47374.25048  21460829.45748
  20536070.766 6   -195510.930 6   -128132.85249  20536071.62949
  22875631.305 6   -176039.277 6   -118580.23049  22875631.28949
  23064041.180 6   -287483.598 6   -179489.21947  23064039.41447
  21584036.836 6    -43178.828 6    -30731.66848  21584033.53948
  23038498.875 5    -19923.371 5    -13058.18447  23038500.07847
  20156538.977 7    -60627.816 7    -38914.33249  20156539.04349
  23723639.305 5     22700.934 5     14497.57047  23723638.17647
 20  5 16  1 48 41.0000000  0  8G04G08G09G11G16G26G27G31            -0.000092741
  21460591.195 6    -75173.078 6    -48353.15648  21460590.71948
  20535438.484 6   -198835.043 6   -130723.07049  20535439.09049
  22875031.352 6   -179190.918 6   -121036.05949  22875031.44149
  23063007.898 6   -292917.215 6   -183723.20747  23063005.48047
  21583880.477 6    -44001.809 6    -31372.94948  21583877.37148
  23038431.148 5    -20280.559 5    -13336.51247  23038432.19947
  20156314.969 7    -61804.293 7    -39831.06649  20156315.17649
  23723732.516 5     23192.352 5     14880.49647  23723731.59847
 20  5 16  1 48 42.0000000  0  8G04G08G09G11G16G26G27G31            -0.000094061
  21460352.594 6    -76428.566 6    -49331.45748  21460351.61748
  20534805.742 6   -202158.422 6   -133312.72349  20534806.41049
  22874431.891 6   -182341.832 6   -123491.31649  22874431.78549
  23061974.094 6   -298350.516 6   -187956.95747  23061971.46547
  21583723.805 6    -44824.570 6    -32014.06648  21583720.80948
  23038363.078 5    -20637.594 5    -13614.73047  23038364.36347
  20156091.320 7    -62980.023 7    -40747.21949  20156091.28549
  23723826.414 5     23684.238 5     15263.78147  23723825.24247
 20  5 16  1 48 43.0000000  0  8G04G08G09G11G16G26G27G31            -0.000095385
  21460113.453 6    -77683.367 6    -50309.22748  21460112.75448
  20534173.883 6   -205481.105 6   -135901.82049  20534174.20349
  22873832.336 6   -185492.016 6   -125946.00849  22873832.23449
  23060940.031 6   -303783.531 6   -192190.47347  23060937.63347
  21583567.391 6    -45647.133 6    -32655.02748  21583564.05148
  23038295.367 5    -20994.449 5    -13892.79747  23038296.49647
  20155867.625 7    -64155.035 7    -41662.80949  20155868.11349
  23723919.883 5     24176.504 5     15647.34847  23723918.81347
 20  5 16  1 48 44.0000000  0  8G04G08G09G11G16G26G27G31            -0.000096704
  21459874.891 6    -78937.344 6    -51286.34848  21459874.19148
  20533541.367 7   -208803.000 7   -138490.31349  20533541.88349
  22873232.773 5   -188641.395 5   -128400.06649  22873233.24249
  23059906.391 6   -309216.195 6   -196423.71547  23059903.95747
  21583410.695 6    -46469.426 6    -33295.77048  21583407.33248
  23038227.375 5    -21351.117 5    -14170.72747  23038228.52047
  20155644.195 7    -65329.246 7    -42577.77749  20155644.40649
  23724013.500 5     24669.262 5     16031.30947  23724012.87947
 20  5 16  1 48 45.0000000  0  8G04G08G09G11G16G26G27G31            -0.000098026
  21459636.430 6    -80190.488 6    -52262.83248  21459635.78548
  20532909.234 7   -212124.055 7   -141078.14549  20532910.01249
  22872634.094 5   -191789.922 5   -130853.46149  22872633.97349
  23058872.695 6   -314648.438 6   -200656.62947  23058870.46547
  21583254.406 6    -47291.398 6    -33936.27048  21583251.35248
  23038159.875 5    -21707.492 5    -14448.42247  23038160.67647
  20155420.898 7    -66502.633 7    -43492.10549  20155420.98449
  23724107.469 5     25162.520 5     16415.65647  23724107.12547
 20  5 16  1 48 46.0000000  0  8G04G08G09G11G16G26G27G31            -0.000099346
  21459397.930 6    -81442.828 6    -53238.68448  21459397.57848
  20532277.367 6   -215444.367 6   -143665.39849  20532278.27749
  22872035.289 6   -194937.699 6   -133306.27749  22872034.89849
  23057838.844 6   -320080.348 6   -204889.28547  23057836.45747
  21583097.836 6    -48113.098 6    -34576.55148  21583094.78548
  23038091.867 5    -22063.664 5    -14725.96547  23038092.47347
  20155197.758 7    -67675.234 7    -44405.82449  20155197.77749
  23724201.906 5     25656.254 5     16800.39147  23724200.68047
 20  5 16  1 48 47.0000000  0  8G04G08G09G11G16G26G27G31            -0.000100668
  21459160.016 6    -82694.465 6    -54213.98048  21459159.55548
  20531645.977 6   -218763.969 6   -146252.10549  20531646.73049
  22871436.000 5   -198084.695 5   -135758.47849  22871436.21149
  23056805.469 6   -325511.988 6   -209121.73847  23056803.09447
  21582941.477 6    -48934.617 6    -35216.69548  21582938.27748
  23038024.148 5    -22419.707 5    -15003.39547  23038025.23447
  20154974.711 7    -68847.145 7    -45319.00449  20154974.52749
  23724295.414 5     26150.395 5     17185.44547  23724294.62547
 20  5 16  1 48 48.0000000  0  8G04G08G09G11G16G26G27G31            -0.000101986
  21458922.055 6    -83945.344 6    -55188.69948  21458921.31348
  20531014.422 6   -222082.848 6   -148838.24249  20531014.78549
  22870837.813 6   -201231.047 6   -138210.18449  22870837.17249
  23055771.680 6   -330943.344 6   -213353.96547  23055769.77047
  21582785.164 6    -49755.934 6    -35856.68448  21582781.90248
  23037956.547 5    -22775.598 5    -15280.70747  23037957.40247
  20154751.750 7    -70018.316 7    -46231.60249  20154751.45349
  23724389.297 5     26644.980 5     17570.82847  23724388.66047
 20  5 16  1 48 49.0000000  0  8G04G08G09G11G16G26G27G31            -0.000103308
  21458684.172 6    -85195.488 6    -56162.83648  21458683.45348
  20530382.867 6   -225400.957 6   -151423.78949  20530383.28549
  22870239.102 5   -204376.570 5   -140661.24649  22870238.68449
  23054737.922 6   -336374.344 6   -217585.91047  23054735.72747
  21582629.039 6    -50576.977 6    -36496.46148  21582625.89848
  23037888.219 5    -23131.223 5    -15557.81347  23037889.48847
  20154529.023 7    -71188.707 7    -47143.59449  20154529.41449
  23724483.477 5     27139.977 5     17956.54747  23724482.93047
 20  5 16  1 48 50.0000000  0  8G04G08G09G11G16G26G27G31            -0.000104628
  21458446.391 6    -86444.820 6    -57136.34048  21458445.97748
  20529751.531 6   -228718.313 6   -154008.73849  20529752.54749
  22869640.609 5   -207521.305 5   -143111.69149  22869640.30149
  23053704.984 6   -341805.023 6   -221817.60947  23053702.52047
  21582472.938 6    -51397.785 6    -37136.05148  21582469.94148
  23037820.992 5    -23486.727 5    -15834.83647  23037821.80147
  20154306.867 7    -72358.367 7    -48055.01649  20154307.05149
  23724577.609 5     27635.445 5     18342.62147  23724577.03147
 20  5 16  1 48 51.0000000  0  8G04G08G09G11G16G26G27G31            -0.000105949
  21458208.813 6    -87693.320 6    -58109.19548  21458208.01648
  20529120.508 6   -232034.867 6   -156593.06349  20529121.21549
  22869042.203 5   -210665.234 5   -145561.51249  22869042.44149
  23052671.203 6   -347235.273 6   -226048.97347  23052668.99247
  21582316.508 6    -52218.270 6    -37775.39548  21582313.68848
  23037753.023 5    -23841.922 5    -16111.60947  23037754.35547
  20154084.352 7    -73527.168 7    -48965.77349  20154084.52049
  23724672.313 5     28131.418 5     18729.08247  23724671.64147
 20  5 16  1 48 52.0000000  0  8G04G08G09G11G16G26G27G31            -0.000107267
  21457971.844 6    -88940.977 6    -59081.39548  21457970.69148
  20528489.250 6   -235350.570 6   -159176.73049  20528490.56649
  22868444.063 5   -213808.293 5   -148010.64149  22868444.17649
  23051638.242 6   -352665.156 6   -230280.05147  23051635.93847
  21582160.594 6    -53038.410 6    -38414.46548  21582157.33648
  23037685.625 5    -24196.871 5    -16388.20747  23037686.86747
  20153862.250 7    -74695.113 7    -49875.86349  20153862.05149
  23724766.984 5     28627.953 5     19115.98847  23724766.14847
 20  5 16  1 48 53.0000000  0  8G04G08G09G11G16G26G27G31            -0.000108589
  21457733.922 6    -90187.777 6    -60052.92648  21457733.54348
  20527858.945 6   -238665.438 6   -161759.74249  20527859.36749
  22867846.883 5   -216950.453 5   -150459.08249  22867845.89849
  23050605.328 6   -358094.590 6   -234510.78147  23050602.62147
  21582004.578 6    -53858.266 6    -39053.31648  21582001.28548
  23037618.133 5    -24551.516 5    -16664.55147  23037619.50047
  20153640.086 7    -75862.242 7    -50785.31349  20153639.84449
  23724861.148 5     29124.992 5     19503.28147  23724860.48447
 20  5 16  1 48 54.0000000  0  8G04G08G09G11G16G26G27G31            -0.000109907
  21457496.695 6    -91433.770 6    -61023.82848  21457496.30948
  20527228.078 6   -241979.457 6   -164342.09449  20527228.72349
  22867248.266 5   -220091.887 5   -152906.95349  22867248.52349
  23049572.094 6   -363523.664 6   -238741.22747  23049569.66047
  21581848.406 6    -54677.801 6    -39691.91448  21581845.50048
  23037551.211 5    -24905.949 5    -16940.73447  23037551.93447
  20153417.766 7    -77028.570 7    -51694.14149  20153417.85549
  23724955.891 5     29622.563 5     19891.00047  23724955.31647
 20  5 16  1 48 55.0000000  0  8G04G08G09G11G16G26G27G31            -0.000111229
  21457260.414 6    -92678.938 6    -61994.09048  21457259.67648
  20526597.219 6   -245292.742 6   -166923.87949  20526598.36349
  22866651.008 6   -223232.473 6   -155354.16449  22866650.76249
  23048538.797 6   -368952.387 6   -242971.40647  23048536.71947
  21581692.906 6    -55497.059 6    -40330.29748  21581689.71948
  23037483.258 5    -25260.109 5    -17216.69947  23037484.39147
  20153196.008 7    -78194.086 7    -52602.33649  20153196.40649
  23725051.109 5     30120.598 5     20279.07847  23725049.90247
 20  5 16  1 48 56.0000000  0  8G04G08G09G11G16G26G27G31            -0.000112547
  21457023.109 6    -93923.359 6    -62963.77048  21457022.18448
  20525967.188 6   -248605.262 6   -169505.05949  20525967.67649
  22866053.273 6   -226372.313 6   -157800.79349  22866053.73449
  23047505.344 6   -374380.781 6   -247201.31647  23047503.21147
  21581537.227 6    -56316.086 6    -40968.50048  21581533.88748
  23037415.563 5    -25614.113 5    -17492.54747  23037416.84847
  20152974.391 7    -79358.844 7    -53509.93849  20152974.63349
  23725145.586 5     30619.059 5     20667.49647  23725144.55947
 20  5 16  1 48 57.0000000  0  8G04G08G09G11G16G26G27G31            -0.000113867
  21456786.383 6    -95166.902 6    -63932.76648  21456785.93848
  20525336.820 6   -251916.941 6   -172085.59049  20525337.53549
  22865455.906 5   -229511.281 5   -160246.74649  22865456.14849
  23046472.813 6   -379808.730 6   -251430.88747  23046470.29347
  21581380.953 6    -57134.781 6    -41606.44548  21581378.00848
  23037349.117 5    -25967.828 5    -17768.16847  23037349.87147
  20152752.961 7    -80522.766 7    -54416.89149  20152753.25449
  23725241.109 5     31118.086 5     21056.34447  23725239.66847
 20  5 16  1 48 58.0000000  0  8G04G08G09G11G16G26G27G31            -0.000115185
  21456550.094 6    -96409.656 6    -64901.14848  21456549.05948
  20524706.953 6   -255227.832 6   -174665.50449  20524707.37949
  22864859.125 5   -232649.422 5   -162692.04349  22864858.82049
  23045440.234 6   -385236.324 6   -255660.17247  23045437.69547
  21581225.438 6    -57953.180 6    -42244.15648  21581222.26248
  23037281.836 5    -26321.324 5    -18043.62147  23037282.55947
  20152531.750 7    -81685.875 7    -55323.20749  20152531.59049
  23725336.086 5     31617.590 5     21445.57847  23725334.77747
 20  5 16  1 48 59.0000000  0  8G04G08G09G11G16G26G27G31            -0.000116505
  21456313.523 6    -97651.539 6    -65868.85248  21456312.84048
  20524077.148 7   -258537.875 7   -177244.76249  20524077.82449
  22864261.773 6   -235786.742 6   -165136.71149  22864261.85549
  23044407.422 6   -390663.500 6   -259889.14147  23044404.73447
  21581069.555 6    -58771.230 6    -42881.60248  21581066.86348
  23037214.156 5    -26674.496 5    -18318.82847  23037215.33247
  20152310.500 7    -82848.137 7    -56228.87149  20152310.46949
  23725431.375 5     32117.660 5     21835.22747  23725430.09847
 20  5 16  1 49  0.0000000  0  8G04G08G09G11G16G26G27G31            -0.000117823
  21456077.586 6    -98892.547 6    -66835.87148  21456076.48848
  20523447.461 6   -261847.090 6   -179823.37149  20523448.01649
  22863664.938 6   -238923.180 6   -167580.68849  22863664.95349
  23043374.992 6   -396090.238 6   -264117.76247  23043372.33647
  21580913.898 6    -59588.965 6    -43518.80148  21580911.40248
  23037147.102 5    -27027.402 5    -18593.81347  23037148.43047
  20152089.383 7    -84009.551 7    -57133.86349  20152089.55549
  23725526.445 5     32618.230 5     22225.27047  23725524.98047
 20  5 16  1 49  1.0000000  0  8G04G08G09G11G16G26G27G31            -0.000119143
  21455841.258 6   -100132.738 6    -67802.25448  21455840.55548
  20522818.211 7   -265155.484 7   -182401.34049  20522818.41449
  22863068.211 6   -242058.777 6   -170024.00849  22863068.20349
  23042341.484 6   -401516.594 6   -268346.09447  23042339.58247
  21580758.719 6    -60406.363 6    -44155.73048  21580755.24248
  23037080.078 5    -27380.043 5    -18868.60247  23037081.27347
  20151869.008 7    -85170.129 7    -58038.21549  20151868.62549
  23725621.961 5     33119.348 5     22615.74647  23725620.72747
 20  5 16  1 49  2.0000000  0  8G04G08G09G11G16G26G27G31            -0.000120461
  21455605.758 6   -101372.027 6    -68767.93448  21455605.18848
  20522188.273 6   -268463.020 6   -184978.64149  20522189.00449
  22862472.031 6   -245193.461 6   -172466.62549  22862471.73049
  23041309.734 6   -406942.500 6   -272574.07847  23041307.14147
  21580603.000 6    -61223.398 6    -44792.37948  21580600.14848
  23037013.125 5    -27732.375 5    -19143.14547  23037014.20747
  20151647.914 7    -86329.824 7    -58941.87549  20151648.21949
  23725717.102 5     33621.023 5     23006.66447  23725716.48447
 20  5 16  1 49  3.0000000  0  8G04G08G09G11G16G26G27G31            -0.000121778
  21455370.273 6   -102610.523 6    -69732.99648  21455369.42648
  20521559.195 7   -271769.770 7   -187555.32849  20521559.93449
  22861875.445 6   -248327.375 6   -174908.63749  22861875.85249
  23040277.133 6   -412368.047 6   -276801.78147  23040274.94147
  21580447.727 6    -62040.164 6    -45428.82048  21580444.68848
  23036946.102 5    -28084.480 5    -19417.51647  23036947.32447
  20151427.391 7    -87488.734 7    -59844.92249  20151427.54749
  23725812.742 5     34123.168 5     23397.95347  23725811.46147
 20  5 16  1 49  4.0000000  0  8G04G08G09G11G16G26G27G31            -0.000123096
  21455134.336 6   -103848.145 6    -70697.37148  21455133.35548
  20520930.320 7   -275075.680 7   -190131.36749  20520931.32449
  22861279.352 6   -251460.414 6   -177349.96549  22861279.77049
  23039245.102 6   -417793.156 6   -281029.13347  23039242.40647
  21580292.375 6    -62856.602 6    -46065.01248  21580289.51248
  23036878.953 5    -28436.285 5    -19691.65247  23036880.40647
  20151207.023 7    -88646.777 7    -60747.29349  20151207.12949
  23725908.484 5     34625.883 5     23789.68047  23725907.15647
 20  5 16  1 49  5.0000000  0  8G04G08G09G11G16G26G27G31            -0.000124414
  21454899.422 6   -105084.938 6    -71661.10548  21454898.60248
  20520301.281 6   -278380.781 6   -192706.77349  20520302.05949
  22860683.266 6   -254592.637 6   -179790.65649  22860683.36349
  23038212.656 6   -423217.883 6   -285256.19147  23038210.53547
  21580137.250 6    -63672.719 6    -46700.94548  21580134.03148
  23036811.953 5    -28787.859 5    -19965.61347  23036813.32047
  20150987.156 7    -89804.023 7    -61649.04349  20150986.90649
  23726003.836 5     35129.102 5     24181.78947  23726002.80947
 20  5 16  1 49  6.0000000  0  8G04G08G09G11G16G26G27G31            -0.000125732
  21454664.367 6   -106320.844 6    -72624.14848  21454663.14848
  20519672.344 6   -281685.012 6   -195281.49249  20519672.92249
  22860087.445 6   -257723.949 6   -182230.63749  22860087.85549
  23037180.336 6   -428642.164 6   -289482.90647  23037178.04747
  21579981.594 6    -64488.477 6    -47336.60248  21579978.77048
  23036745.063 5    -29139.086 5    -20239.30147  23036746.34047
  20150766.891 7    -90960.371 7    -62550.09449  20150767.00449
  23726099.781 5     35632.879 5     24574.33647  23726098.62947
 20  5 16  1 49  7.0000000  0  8G04G08G09G11G16G26G27G31            -0.000127050
  21454429.070 6   -107555.918 6    -73586.55148  21454427.91048
  20519043.898 6   -284988.430 6   -197855.58649  20519044.34449
  22859491.852 6   -260854.430 6   -184669.98049  22859491.93849
  23036148.484 6   -434066.039 6   -293709.30147  23036145.75047
  21579826.609 6    -65303.914 6    -47972.00848  21579823.51248
  23036678.711 5    -29490.070 5    -20512.79747  23036679.51647
  20150547.117 7    -92115.895 7    -63450.50449  20150546.64549
  23726196.602 5     36137.199 5     24967.30947  23726194.71147
 20  5 16  1 49  8.0000000  0  8G04G08G09G11G16G26G27G31            -0.000128366
  21454194.047 6   -108790.168 6    -74548.30548  21454193.18048
  20518415.398 6   -288291.043 6   -200429.05149  20518416.03549
  22858896.320 6   -263984.109 6   -187108.68849  22858896.33249
  23035116.305 6   -439489.527 6   -297935.39547  23035114.06347
  21579671.242 6    -66119.043 6    -48607.17648  21579668.40248
  23036611.563 5    -29840.781 5    -20786.07847  23036613.35247
  20150327.203 7    -93270.594 7    -64350.27049  20150327.40649
  23726292.047 5     36641.984 5     25360.64147  23726290.70347
 20  5 16  1 49  9.0000000  0  8G04G08G09G11G16G26G27G31            -0.000129684
  21453959.516 6   -110023.609 6    -75509.42648  21453958.84848
  20517787.273 6   -291592.867 6   -203001.89849  20517787.62149
  22858300.648 6   -267112.949 6   -189546.74649  22858301.14149
  23034083.977 6   -444912.648 6   -302161.20347  23034081.93447
  21579516.352 6    -66933.875 6    -49242.10948  21579513.34848
  23036544.984 5    -30191.301 5    -21059.21147  23036546.45747
  20150107.461 7    -94424.504 7    -65249.41849  20150107.38749
  23726388.141 5     37147.277 5     25754.37147  23726387.08247
 20  5 16  1 49 10.0000000  0  8G04G08G09G11G16G26G27G31            -0.000131001
  21453724.898 6   -111256.191 6    -76469.88348  21453724.32048
  20517158.727 6   -294893.801 6   -205574.06649  20517159.64549
  22857705.164 6   -270240.941 6   -191984.14549  22857705.36349
  23033051.844 6   -450335.348 6   -306386.68447  23033049.79347
  21579361.672 6    -67748.363 6    -49876.77348  21579358.31648
  23036478.375 5    -30541.504 5    -21332.09847  23036479.50847
  20149888.234 7    -95577.578 7    -66147.92249  20149888.10549
  23726484.602 5     37653.102 5     26148.52347  23726482.96947
 20  5 16  1 49 11.0000000  0  8G04G08G09G11G16G26G27G31            -0.000132318
  21453490.445 6   -112487.918 6    -77429.67248  21453489.91048
  20516530.836 6   -298193.934 6   -208145.59849  20516531.63749
  22857110.234 6   -273368.102 6   -194420.89149  22857110.60249
  23032020.789 6   -455757.637 6   -310611.84847  23032018.21947
  21579206.523 6    -68562.543 6    -50511.20348  21579203.77048
  23036411.813 5    -30891.453 5    -21604.79747  23036412.89547
  20149668.930 7    -96729.793 7    -67045.75449  20149668.84049
  23726581.250 5     38159.473 5     26543.09847  23726579.81347
 20  5 16  1 49 12.0000000  0  8G04G08G09G11G16G26G27G31            -0.000133635
  21453256.234 6   -113718.824 6    -78388.82448  21453255.35948
  20515902.984 7   -301493.262 7   -210716.49649  20515903.52349
  22856515.313 6   -276494.414 6   -196856.98049  22856515.60549
  23030988.656 6   -461179.543 6   -314836.70747  23030986.25047
  21579051.555 6    -69376.395 6    -51145.37548  21579048.71948
  23036345.602 5    -31241.148 5    -21877.28947  23036346.75447
  20149450.016 7    -97881.215 7    -67942.96149  20149450.07849
  23726677.773 5     38666.324 5     26938.05147  23726676.11347
 20  5 16  1 49 13.0000000  0  8G04G08G09G11G16G26G27G31            -0.000134953
  21453022.180 6   -114948.875 6    -79347.30948  21453021.40648
  20515275.484 7   -304791.762 7   -213286.76249  20515276.18449
  22855920.797 6   -279619.895 6   -199292.42649  22855920.70349
  23029956.789 6   -466601.027 6   -319061.24247  23029954.76247
  21578896.984 6    -70189.965 6    -51779.32448  21578893.66448
  23036278.641 5    -31590.551 5    -22149.55147  23036279.91447
  20149230.727 7    -99031.785 7    -68839.51249  20149230.54749
  23726773.359 5     39173.703 5     27333.41447  23726772.42247
 20  5 16  1 49 14.0000000  0  8G04G08G09G11G16G26G27G31            -0.000136269
  21452788.703 6   -116178.004 6    -80305.07048  21452788.03548
  20514648.070 7   -308089.367 7   -215856.31649  20514648.75849
  22855325.961 6   -282744.449 6   -201727.13749  22855326.54749
  23028925.242 6   -472022.004 6   -323285.37147  23028923.48047
  21578742.375 6    -71003.086 6    -52412.93048  21578739.10548
  23036212.266 5    -31939.637 5    -22421.56347  23036214.17247
  20149011.984 7   -100181.426 7    -69735.33249  20149012.26249
  23726870.500 5     39681.723 5     27729.27047  23726869.05947
 20  5 16  1 49 15.0000000  0  8G04G08G09G11G16G26G27G31            -0.000137585
  21452554.656 6   -117406.285 6    -81262.17248  21452553.94148
  20514020.695 7   -311386.117 7   -218425.21149  20514021.12149
  22854731.578 5   -285868.102 5   -204161.15249  22854731.75449
  23027893.906 6   -477442.590 6   -327509.20347  23027891.71947
  21578587.352 6    -71815.887 6    -53046.27748  21578584.32848
  23036145.703 5    -32288.422 5    -22693.34447  23036147.27047
  20148793.484 7   -101330.238 7    -70630.51249  20148793.77749
  23726967.078 5     40190.238 5     28125.50847  23726965.90247
 20  5 16  1 49 16.0000000  0  8G04G08G09G11G16G26G27G31            -0.000138901
  21452320.969 6   -118633.750 6    -82218.63748  21452320.26248
  20513393.242 7   -314682.090 7   -220993.50449  20513393.89549
  22854137.055 6   -288990.996 6   -206594.57849  22854137.93849
  23026862.430 6   -482862.809 6   -331732.75847  23026860.23847
  21578432.602 6    -72628.406 6    -53679.41448  21578429.64148
  23036079.570 5    -32636.961 5    -22964.92647  23036081.14147
  20148574.977 7   -102478.230 7    -71525.05549  20148575.08249
  23727064.648 5     40699.285 5     28522.15647  23727062.79347
 20  5 16  1 49 17.0000000  0  8G04G08G09G11G16G26G27G31            -0.000140217
  21452087.383 6   -119860.320 6    -83174.41048  21452086.97748
  20512766.141 7   -317977.156 7   -223561.08649  20512766.69549
  22853542.898 5   -292112.961 5   -209027.27749  22853543.91049
  23025831.031 6   -488282.539 6   -335955.91447  23025829.07847
  21578278.172 6    -73440.551 6    -54312.25448  21578275.07448
  23036013.398 5    -32985.176 5    -23236.27347  23036014.61747
  20148356.727 7   -103625.348 7    -72418.91449  20148356.82049
  23727160.711 5     41208.895 5     28919.25447  23727160.25847
 20  5 16  1 49 18.0000000  0  8G04G08G09G11G16G26G27G31            -0.000141531
  21451854.273 6   -121086.082 6    -84129.54748  21451854.07848
  20512139.102 6   -321271.414 6   -226128.04349  20512140.09049
  22852949.266 5   -295234.113 5   -211459.34849  22852949.76649
  23024799.688 6   -493701.902 6   -340178.79747  23024798.11347
  21578123.773 6    -74252.391 6    -54944.85548  21578120.61748
  23035947.008 5    -33333.176 5    -23507.44147  23035948.74247
  20148138.477 7   -104771.664 7    -73312.14849  20148138.86749
  23727257.930 5     41719.000 5     29316.73847  23727257.18847
 20  5 16  1 49 19.0000000  0  8G04G08G09G11G16G26G27G31            -0.000142849
  21451621.102 6   -122310.980 6    -85084.01248  21451620.77748
  20511512.734 7   -324564.848 7   -228694.35249  20511513.28149
  22852355.438 5   -298354.438 5   -213890.77049  22852355.85549
  23023768.523 6   -499120.859 6   -344401.35247  23023766.52047
  21577968.945 6    -75063.934 6    -55577.22748  21577966.02748
  23035880.656 5    -33680.875 5    -23778.37547  23035882.26247
  20147920.820 7   -105917.129 7    -74204.72349  20147920.71549
  23727355.352 5     42229.637 5     29714.63747  23727354.25847
 20  5 16  1 49 20.0000000  0  8G04G08G09G11G16G26G27G31            -0.000144163
  21451388.320 6   -123535.039 6    -86037.83248  21451387.31348
  20510885.906 7   -327857.465 7   -231260.02749  20510886.56349
  22851762.352 6   -301473.902 6   -216321.52349  22851762.23049
  23022737.156 6   -504539.418 6   -348623.59847  23022735.70347
  21577814.484 6    -75875.172 6    -56209.35948  21577811.60248
  23035814.641 5    -34028.328 5    -24049.12547  23035816.65247
  20147702.641 7   -107061.785 7    -75096.66049  20147702.47749
  23727452.250 6     42740.781 6     30112.92647  23727451.34047
 20  5 16  1 49 21.0000000  0  8G04G08G09G11G16G26G27G31            -0.000145479
  21451155.328 6   -124758.211 6    -86990.94948  21451154.94948
  20510259.680 7   -331149.184 7   -233825.00449  20510260.42649
  22851168.688 6   -304592.473 6   -218751.57449  22851169.26249
  23021706.344 6   -509957.473 6   -352845.45747  23021704.63747
  21577660.141 6    -76686.004 6    -56841.18448  21577657.04348
  23035748.313 5    -34375.484 5    -24319.63547  23035750.01247
  20147485.234 7   -108205.508 7    -75987.87149  20147485.10249
  23727550.359 6     43252.516 6     30511.67247  23727548.98847
 20  5 16  1 49 22.0000000  0  8G04G08G09G11G16G26G27G31            -0.000146793
  21450922.961 6   -125980.539 6    -87943.40648  21450922.57848
  20509633.695 7   -334440.074 7   -236389.33649  20509633.87149
  22850575.492 6   -307710.172 6   -221180.95349  22850575.96549
  23020675.563 6   -515375.133 6   -357067.01647  23020673.68447
  21577506.273 6    -77496.512 6    -57472.74648  21577503.24648
  23035682.484 5    -34722.266 5    -24589.85947  23035684.15247
  20147267.906 7   -109348.414 7    -76878.44549  20147267.68849
  23727647.109 5     43764.809 5     30910.85247  23727646.28147
 20  5 16  1 49 23.0000000  0  8G04G08G09G11G16G26G27G31            -0.000148109
  21450690.656 6   -127201.953 6    -88895.15248  21450690.06648
  20509007.547 7   -337730.090 7   -238952.98449  20509007.35549
  22849982.133 6   -310827.016 6   -223609.66049  22849982.72349
  23019645.055 6   -520792.355 6   -361288.23047  23019642.64147
  21577352.148 6    -78306.684 6    -58104.04748  21577349.05548
  23035616.344 5    -35068.805 5    -24859.88347  23035618.22747
  20147050.633 7   -110490.461 7    -77768.35949  20147050.52349
  23727745.047 6     44277.605 6     31310.43847  23727743.78147
 20  5 16  1 49 24.0000000  0  8G04G08G09G11G16G26G27G31            -0.000149422
  21450458.203 6   -128422.461 6    -89846.20348  21450457.58648
  20508381.539 7   -341019.223 7   -241515.94149  20508382.16049
  22849388.625 6   -313942.910 6   -226037.62949  22849389.78149
  23018614.211 6   -526209.082 6   -365509.05947  23018611.95747
  21577197.797 6    -79116.445 6    -58735.03148  21577194.84848
  23035551.398 5    -35415.004 5    -25129.65247  23035552.54747
  20146832.914 7   -111631.578 7    -78657.53949  20146833.21549
  23727842.875 6     44791.031 6     31710.50447  23727841.57847
 20  5 16  1 49 25.0000000  0  8G04G08G09G11G16G26G27G31            -0.000150738
  21450225.969 6   -129642.168 6    -90796.62548  21450225.64548
  20507755.602 7   -344307.590 7   -244078.30949  20507756.13749
  22848796.305 6   -317058.016 6   -228464.98849  22848796.98449
  23017583.047 6   -531625.457 6   -369729.60547  23017580.88347
  21577044.070 6    -79925.930 6    -59365.80148  21577041.07048
  23035485.008 5    -35760.957 5    -25399.23047  23035486.59447
  20146616.188 7   -112771.906 7    -79546.10549  20146616.59849
  23727940.469 6     45304.973 6     32110.97747  23727939.27347
 20  5 16  1 49 26.0000000  0  8G04G08G09G11G16G26G27G31            -0.000152052
  21449994.063 6   -130861.145 6    -91746.48048  21449993.18048
  20507130.078 6   -347595.242 6   -246640.11749  20507130.57849
  22848203.602 6   -320172.387 6   -230891.77049  22848204.14849
  23016552.695 6   -537041.523 6   -373949.91047  23016550.59847
  21576889.867 6    -80735.223 6    -59996.42248  21576887.12148
  23035419.586 5    -36106.781 5    -25668.70747  23035420.76647
  20146399.289 7   -113911.516 7    -80434.11749  20146399.67249
  23728037.953 5     45819.277 5     32511.72747  23728037.05947
 20  5 16  1 49 27.0000000  0  8G04G08G09G11G16G26G27G31            -0.000153366
  21449762.438 6   -132079.289 6    -92695.68848  21449761.71948
  20506504.875 7   -350882.074 7   -249201.28549  20506505.29749
  22847611.086 6   -323285.949 6   -233317.92249  22847611.68449
  23015521.859 6   -542457.172 6   -378169.89547  23015520.03547
  21576735.625 6    -81544.227 6    -60626.81648  21576733.39848
  23035353.344 5    -36452.316 5    -25937.95347  23035355.01647
  20146182.445 7   -115050.320 7    -81321.49649  20146182.39849
  23728136.344 5     46334.125 5     32912.90247  23728134.82447
 20  5 16  1 49 28.0000000  0  8G04G08G09G11G16G26G27G31            -0.000154680
  21449530.875 6   -133296.629 6    -93644.27048  21449530.19948
  20505879.531 6   -354168.074 6   -251761.80549  20505880.09449
  22847018.773 6   -326398.621 6   -235743.38349  22847019.39549
  23014491.508 6   -547872.469 6   -382389.61347  23014489.43847
  21576582.234 6    -82352.891 6    -61256.94548  21576579.18848
  23035287.750 5    -36797.598 5    -26207.00047  23035289.35947
  20145966.117 7   -116188.281 7    -82208.21949  20145966.28949
  23728234.438 5     46849.434 5     33314.43847  23728233.10947
 20  5 16  1 49 29.0000000  0  8G04G08G09G11G16G26G27G31            -0.000155994
  21449299.148 6   -134513.082 6    -94592.14848  21449298.77048
  20505254.094 7   -357453.266 7   -254321.69949  20505254.58649
  22846426.945 6   -329510.492 6   -238168.21949  22846426.94549
  23013461.469 6   -553287.352 6   -386608.99647  23013459.10547
  21576428.336 6    -83161.242 6    -61886.83248  21576425.32448
  23035221.844 5    -37142.598 5    -26475.83247  23035223.80947
  20145749.625 7   -117325.418 7    -83094.29749  20145750.01249
  23728332.719 5     47365.316 5     33716.42247  23728331.26247
 20  5 16  1 49 30.0000000  0  8G04G08G09G11G16G26G27G31            -0.000157307
  21449068.039 6   -135728.688 6    -95539.37948  21449067.44148
  20504629.133 7   -360737.605 7   -256880.92249  20504629.77749
  22845834.477 6   -332621.469 6   -240592.35549  22845835.41449
  23012430.906 6   -558701.789 6   -390828.03947  23012428.76647
  21576274.445 6    -83969.285 6    -62516.47748  21576271.40648
  23035156.805 5    -37487.328 5    -26744.46147  23035158.18447
  20145533.695 7   -118461.699 7    -83979.70749  20145533.55949
  23728430.977 5     47881.746 5     34118.83247  23728429.94147
 20  5 16  1 49 31.0000000  0  8G04G08G09G11G16G26G27G31            -0.000158621
  21448836.930 6   -136943.500 6    -96485.98848  21448836.23848
  20504004.359 7   -364021.164 7   -259439.54349  20504004.78949
  22845242.867 6   -335731.680 6   -243015.89549  22845243.14149
  23011400.813 6   -564115.863 6   -395046.79747  23011398.74647
  21576121.117 6    -84777.004 6    -63145.86748  21576117.95348
  23035091.172 5    -37831.801 5    -27012.88747  23035092.24247
  20145317.398 7   -119597.195 7    -84864.52049  20145317.37549
  23728529.414 5     48398.672 5     34521.63747  23728528.32847
 20  5 16  1 49 32.0000000  0  8G04G08G09G11G16G26G27G31            -0.000159933
  21448605.773 6   -138157.441 6    -97431.91048  21448605.21948
  20503379.734 7   -367303.879 7   -261997.50049  20503379.96149
  22844651.438 6   -338841.016 6   -245438.75849  22844651.73449
  23010370.695 6   -569529.555 6   -399265.25847  23010368.52047
  21575966.914 6    -85584.398 6    -63775.00448  21575964.43448
  23035025.188 5    -38176.023 5    -27281.10947  23035026.91047
  20145101.266 7   -120731.809 7    -85748.62549  20145101.48849
  23728627.617 5     48916.094 5     34924.82447  23728626.28547
 20  5 16  1 49 33.0000000  0  8G04G08G09G11G16G26G27G31            -0.000161249
  21448374.734 6   -139370.555 6    -98377.19548  21448374.48848
  20502755.102 7   -370585.762 7   -264554.80949  20502755.79349
  22844059.484 6   -341949.480 6   -247860.93849  22844060.06349
  23009340.336 6   -574942.805 6   -403483.37147  23009337.97747
  21575813.617 6    -86391.492 6    -64403.91848  21575811.05548
  23034960.148 5    -38519.984 5    -27549.13747  23034961.56647
  20144885.656 7   -121865.660 7    -86632.15249  20144885.94149
  23728726.422 5     49434.035 5     35328.41447  23728724.88347
 20  5 16  1 49 34.0000000  0  8G04G08G09G11G16G26G27G31            -0.000162560
  21448143.961 6   -140582.793 6    -99321.79348  21448143.66448
  20502130.688 6   -373866.777 6   -267111.44549  20502130.82049
  22843468.227 6   -345057.137 6   -250282.48849  22843468.18849
  23008309.656 6   -580355.613 6   -407701.14547  23008308.39847
  21575660.000 6    -87198.258 6    -65032.55948  21575657.35948
  23034894.109 5    -38863.617 5    -27816.89847  23034896.50047
  20144670.039 7   -122998.590 7    -87514.95349  20144670.19549
  23728825.008 5     49952.543 5     35732.44147  23728824.05547
 20  5 16  1 49 35.0000000  0  8G04G08G09G11G16G26G27G31            -0.000163874
  21447914.242 6   -141794.141 6   -100265.70348  21447913.52348
  20501506.391 6   -377146.895 6   -269667.38349  20501507.18449
  22842876.656 6   -348163.848 6   -252703.30549  22842877.43049
  23007280.414 6   -585767.965 6   -411918.56347  23007278.36747
  21575506.688 6    -88004.629 6    -65660.90248  21575503.76248
  23034829.477 5    -39206.934 5    -28084.42647  23034830.83647
  20144454.656 7   -124130.660 7    -88397.08649  20144454.60949
  23728923.992 5     50471.660 5     36136.94147  23728922.71547
 20  5 16  1 49 36.0000000  0  8G04G08G09G11G16G26G27G31            -0.000165186
  21447683.359 6   -143004.523 6   -101208.85248  21447682.85248
  20500882.516 7   -380426.082 7   -272222.59449  20500883.15649
  22842286.109 6   -351269.590 6   -255123.35949  22842286.44149
  23006250.367 6   -591179.797 6   -416135.56347  23006248.43047
  21575353.227 6    -88810.570 6    -66288.91048  21575350.40248
  23034763.734 5    -39549.895 5    -28351.66847  23034765.64547
  20144239.531 7   -125261.785 7    -89278.48049  20144239.55949
  23729022.758 5     50991.387 5     36541.91447  23729021.32047
 20  5 16  1 49 37.0000000  0  8G04G08G09G11G16G26G27G31            -0.000166500
  21447453.344 6   -144214.082 6   -102151.37548  21447452.62948
  20500258.516 7   -383704.473 7   -274777.18049  20500259.74249
  22841695.188 6   -354374.527 6   -257542.79349  22841695.60549
  23005220.336 6   -596591.242 6   -420352.28147  23005218.66447
  21575199.984 6    -89616.203 6    -66916.68048  21575197.08248
  23034698.711 5    -39892.586 5    -28618.71147  23034700.66847
  20144024.359 7   -126392.082 7    -90159.23849  20144024.37949
  23729121.344 6     51511.609 6     36947.28547  23729120.11347
 20  5 16  1 49 38.0000000  0  8G04G08G09G11G16G26G27G31            -0.000167810
  21447223.305 6   -145422.840 6   -103093.26648  21447222.55948
  20499635.094 7   -386982.059 7   -277331.14549  20499635.78149
  22841104.531 6   -357478.641 6   -259961.58249  22841104.74249
  23004191.000 6   -602002.305 6   -424568.69947  23004188.84447
  21575046.750 6    -90421.555 6    -67544.22748  21575043.93848
  23034633.578 5    -40235.023 5    -28885.54747  23034635.66447
  20143809.211 7   -127521.590 7    -91039.37549  20143809.55949
  23729220.797 5     52032.320 5     37353.03947  23729219.74247
 20  5 16  1 49 39.0000000  0  8G04G08G09G11G16G26G27G31            -0.000169125
  21446993.367 6   -146630.840 6   -104034.56648  21446992.66048
  20499011.398 7   -390258.926 7   -279884.55149  20499012.14549
  22840514.008 6   -360582.016 6   -262379.80149  22840514.27049
  23003160.953 6   -607413.039 6   -428784.85947  23003159.44147
  21574893.313 6    -91226.676 6    -68171.59848  21574890.89148
