     2.10           OBSERVATION DATA    Mixed(MIXED)        RINEX VERSION / TYPE
cnvtToRINEX 3.07.0  convertToRINEX OPR  19-May-20 12:31 UTC PGM / RUN BY / DATE 
----------------------------------------------------------- COMMENT             
GBA0                                                        MARKER NAME         
GBA0                                                        MARKER NUMBER       
GNSS Observer       Trimble                                 OBSERVER / AGENCY   
0440102809          TRIMBLE 5700        2.32                REC # / TYPE / VERS 
                    TRM39105.00                             ANT # / TYPE        
 -3050760.6439  4927688.1391  2654110.8609                  APPROX POSITION XYZ 
        0.0000        0.0000        0.0000                  ANTENNA: DELTA H/E/N
     1     1     0                                          WAVELENGTH FACT L1/2
     4    C1    L1    L2    P2                              # / TYPES OF OBSERV 
  2020     5    16     0     1    8.0000000     GPS         TIME OF FIRST OBS   
  2020     5    16     1    33   42.0000000     GPS         TIME OF LAST OBS    
     0                                                      RCV CLOCK OFFS APPL 
    18                                                      LEAP SECONDS        
    12                                                      # OF SATELLITES     
   G03  1656  1640  1656  1656                              PRN / # OF OBS      
   G04  5555  5555  5555  5555                              PRN / # OF OBS      
   G08  4928  4879  4649  4649                              PRN / # OF OBS      
   G09  3126  3045  3064  3064                              PRN / # OF OBS      
   G11   628   576     0     0                              PRN / # OF OBS      
   G14  4115  4115  4056  4056                              PRN / # OF OBS      
   G16  5555  5555  5555  5555                              PRN / # OF OBS      
   G21  2433  2374  1579  1579                              PRN / # OF OBS      
   G22   408   372   133   133                              PRN / # OF OBS      
   G26  5018  4962  4896  4896                              PRN / # OF OBS      
   G27  5555  5555  5555  5555                              PRN / # OF OBS      
   G31  5543  5543  5543  5543                              PRN / # OF OBS      
CARRIER PHASE MEASUREMENTS: PHASE SHIFTS REMOVED            COMMENT             
                                                            END OF HEADER       
 20  5 16  0  1  8.0000000  0  5G04G14G16G26G27                     -0.000480453
  22712615.33616    -89665.76216    -24827.32457  22712613.62557
  21626004.24216     -7765.67616     -2341.49257  21626001.74257
  20493656.39816    -49557.43016    -14101.02358  20493652.94158
  20882571.44516    -35396.69916    -16800.53559  20882571.41859
  21419989.16416    -94693.27316    -26586.06359  21419988.03559
 20  5 16  0  1  9.0000000  0  5G04G14G16G26G27                     -0.000482561
  22711451.219 6    -95781.160 6    -29592.59047  22711449.54747
  21625898.477 6     -8321.211 6     -2774.36347  21625896.08647
  20493015.977 6    -52922.660 6    -16723.27748  20493012.42248
  20882211.453 6    -37291.309 6    -18276.85249  20882211.29749
  21418789.531 6   -100998.586 6    -31499.28949  21418788.40249
 20  5 16  0  1 10.0000000  0  5G04G14G16G26G27                     -0.000484673
  22710287.297 6   -101898.176 6    -34359.09847  22710285.37947
  21625792.820 6     -8878.324 6     -3208.47747  21625790.04347
  20492375.359 6    -56289.527 6    -19346.80948  20492371.67648
  20881850.180 6    -39187.773 6    -19754.62549  20881849.55149
  21417589.133 6   -107305.500 6    -36413.76649  21417588.03149
 20  5 16  0  1 11.0000000  0  5G04G14G16G26G27                     -0.000486782
  22709122.789 6   -108016.754 6    -39126.82047  22709120.95347
  21625686.422 6     -9436.941 6     -3643.76647  21625683.05547
  20491734.125 6    -59657.898 6    -21971.52348  20491730.88748
  20881489.023 6    -41085.988 6    -21233.75849  20881489.30949
  21416388.742 6   -113613.875 6    -41329.38749  21416387.70349
 20  5 16  0  1 12.0000000  0  5G04G14G16G26G27                     -0.000488892
  22707958.109 6   -114136.664 6    -43895.57847  22707957.07847
  21625579.523 6     -9996.816 6     -4080.03547  21625577.01247
  20491093.320 6    -63027.555 6    -24597.23848  20491090.02048
  20881127.453 6    -42985.707 6    -22714.06349  20881127.35949
  21415188.148 6   -119923.504 6    -46245.98049  21415186.88349
 20  5 16  0  1 13.0000000  0  5G04G14G16G26G27                     -0.000491005
  22706793.156 6   -120257.836 6    -48665.31347  22706791.79747
  21625473.211 6    -10557.934 6     -4517.27747  21625470.11747
  20490451.500 6    -66398.477 6    -27223.92648  20490448.18448
  20880766.023 6    -44886.918 6    -24195.53149  20880765.94149
  21413987.102 6   -126234.352 6    -51163.53549  21413985.83649
 20  5 16  0  1 14.0000000  0  5G04G14G16G26G27                     -0.000493118
  22705628.398 6   -126380.496 6    -53436.22346  22705626.59846
  21625365.969 6    -11120.438 6     -4955.59847  21625363.30947
  20489810.070 6    -69770.820 6    -29851.73448  20489806.53948
  20880403.773 6    -46789.766 6    -25678.27749  20880403.76249
  21412785.766 6   -132546.633 6    -56082.19149  21412784.77349
 20  5 16  0  1 15.0000000  0  5G04G14G16G26G27                     -0.000495235
  22704462.641 6   -132504.453 6    -58208.13746  22704461.62546
  21625258.414 6    -11684.215 6     -5394.90647  21625255.44147
  20489168.430 6    -73144.488 6    -32480.56348  20489165.22748
  20880041.266 6    -48694.164 6    -27162.21949  20880041.27049
  21411584.891 6   -138860.148 6    -61001.81649  21411583.79349
 20  5 16  0  1 16.0000000  0  5G04G14G16G26G27                     -0.000497351
  22703297.500 6   -138629.449 6    -62980.85947  22703295.64547
  21625151.055 6    -12248.996 6     -5834.99647  21625147.82847
  20488525.789 6    -76519.188 6    -35110.19948  20488522.63348
  20879678.492 6    -50599.777 6    -28647.11349  20879678.41849
  21410383.078 6   -145174.641 6    -65922.19949  21410381.62949
 20  5 16  0  1 17.0000000  0  5G04G14G16G26G27                     -0.000499470
  22702131.344 6   -144755.492 6    -67754.37947  22702129.86747
  21625043.234 6    -12814.719 6     -6275.80947  21625040.55947
  20487883.367 6    -79894.832 6    -37740.57048  20487880.37548
  20879316.031 6    -52506.602 6    -30132.95349  20879315.86349
  21409181.203 6   -151490.082 6    -70843.32449  21409180.28949
 20  5 16  0  1 18.0000000  0  5G04G14G16G26G27                     -0.000501587
  22700965.602 6   -150882.605 6    -72528.75446  22700964.03146
  21624935.719 6    -13381.492 6     -6717.44947  21624932.66447
  20487240.727 6    -83271.551 6    -40371.78148  20487237.50848
  20878952.961 6    -54414.730 6    -31619.81349  20878952.93449
  21407978.945 6   -157806.555 6    -75765.25049  21407978.05149
 20  5 16  0  1 18.9990000  0  5G04G14G16G26G27                      0.000496296
  22699800.503 6   -157004.613 6    -77299.14147  22699799.01147
  21624827.628 6    -13948.656 6     -7159.39847  21624824.57747
  20486598.901 6    -86645.918 6    -43001.16048  20486595.58548
  20878590.034 6    -56322.145 6    -33106.10949  20878589.53849
  21406777.886 6   -164117.645 6    -80682.98449  21406777.21849
 20  5 16  0  1 19.9990000  0  6G04G14G16G26G27G31                   0.000494175
  22698634.276 6   -163133.852 6    -82075.17247  22698632.82347
  21624719.620 6    -14517.438 6     -7602.60947  21624716.56247
  20485955.683 6    -90024.719 6    -45633.99648  20485952.37448
  20878226.386 6    -58232.801 6    -34594.93849  20878226.10149
  21405575.847 6   -170436.105 6    -85606.46149  21405574.80049
  21558857.88616    -75986.61716    -43758.96559  21558854.82759
 20  5 16  0  1 20.9990000  0  6G04G14G16G26G27G31                   0.000492058
  22697467.940 6   -169264.000 6    -86851.91446  22697466.44446
  21624610.909 6    -15087.055 6     -8046.46947  21624607.99947
  20485312.745 6    -93404.398 6    -48267.50848  20485308.94848
  20877862.401 6    -60144.547 6    -36084.61349  20877862.64749
  21404373.050 6   -176755.422 6    -90530.60249  21404372.35849
  21558378.550 6    -78505.457 6    -45721.69949  21558375.82349
 20  5 16  0  1 21.9990000  0  6G04G14G16G26G27G31                   0.000489935
  22696301.448 6   -175395.027 6    -91629.34446  22696299.72646
  21624502.222 6    -15657.539 6     -8491.00047  21624499.33547
  20484669.800 6    -96784.945 6    -50901.70748  20484666.01148
  20877498.495 6    -62057.371 6    -37575.12549  20877498.24549
  21403170.558 6   -183075.563 6    -95455.38349  21403169.91349
  21557899.222 6    -81025.363 6    -47685.26249  21557896.16749
 20  5 16  0  1 22.9990000  0  6G04G14G16G26G27G31                   0.000487812
  22695134.433 6   -181526.965 6    -96407.47747  22695132.82747
  21624394.167 6    -16228.848 6     -8936.18047  21624390.99547
  20484026.198 6   -100166.387 6    -53536.59848  20484022.27248
  20877134.612 6    -63971.305 6    -39066.50849  20877134.00749
  21401967.628 6   -189396.500 6   -100380.80149  21401967.18749
  21557419.136 6    -83546.301 6    -49649.62949  21557416.57349
 20  5 16  0  1 23.9990000  0  6G04G14G16G26G27G31                   0.000485689
  22693967.409 6   -187659.656 6   -101186.19947  22693965.69447
  21624285.073 6    -16800.887 6     -9381.92247  21624281.70247
  20483382.144 6   -103548.551 6    -56172.05148  20483378.91348
  20876769.886 6    -65886.188 6    -40558.62149  20876769.51549
  21400764.448 6   -195718.191 6   -105306.79349  21400764.08949
  21556938.987 6    -86068.176 6    -51614.73049  21556936.19049
 20  5 16  0  1 24.9990000  0  6G04G14G16G26G27G31                   0.000483566
  22692799.761 6   -193793.164 6   -105965.54746  22692798.54246
  21624176.370 6    -17373.664 6     -9828.25047  21624172.62447
  20482738.440 6   -106931.500 6    -58808.10948  20482735.14448
  20876404.886 6    -67802.066 6    -42051.51649  20876404.94849
  21399561.675 6   -202040.609 6   -110233.35549  21399560.78849
  21556459.284 6    -88591.008 6    -53580.57849  21556456.46849
 20  5 16  0  1 25.9990000  0  6G04G14G16G26G27G31                   0.000481441
  22691632.589 6   -199927.410 6   -110745.47746  22691631.38646
  21624066.800 6    -17947.141 6    -10275.11347  21624063.59347
  20482094.831 6   -110315.156 6    -61444.72348  20482091.37048
  20876040.433 6    -69718.914 6    -43545.17249  20876040.23749
  21398358.417 6   -208363.695 6   -115160.43449  21398357.71449
  21555978.894 6    -91114.707 6    -55547.09449  21555976.11649
 20  5 16  0  1 26.9990000  0  6G04G14G16G26G27G31                   0.000479315
  22690465.159 6   -206062.359 6   -115525.96146  22690463.44846
  21623957.620 6    -18521.266 6    -10722.48847  21623955.10147
  20481450.823 6   -113699.531 6    -64081.90248  20481447.10148
  20875675.362 6    -71636.652 6    -45039.51249  20875675.35149
  21397154.995 6   -214687.418 6   -120088.01649  21397154.14049
  21555498.417 6    -93639.266 6    -57514.28549  21555495.78849
 20  5 16  0  1 27.9990000  0  6G04G14G16G26G27G31                   0.000477190
  22689297.284 6   -212198.023 6   -120306.99246  22689296.06946
  21623848.269 6    -19096.086 6    -11170.39547  21623845.70647
  20480806.878 6   -117084.586 6    -66719.60948  20480802.77248
  20875310.284 6    -73555.289 6    -46534.55549  20875310.30449
  21395951.815 6   -221011.801 6   -125016.09849  21395950.77649
  21555017.581 6    -96164.719 6    -59482.17649  21555014.85849
 20  5 16  0  1 28.9990000  0  6G04G14G16G26G27G31                   0.000475063
  22688129.964 6   -218334.266 6   -125088.48847  22688128.56247
  21623738.464 6    -19671.383 6    -11618.68047  21623735.67147
  20480161.956 6   -120470.152 6    -69357.71548  20480158.67548
  20874945.245 6    -75474.715 6    -48030.21549  20874944.86649
  21394748.042 6   -227336.707 6   -129944.59849  21394747.42549
  21554537.190 6    -98690.898 6    -61450.62549  21554534.33949
 20  5 16  0  1 29.9990000  0  6G04G14G16G26G27G31                   0.000472935
  22686962.120 6   -224471.059 6   -129870.39846  22686960.95646
  21623628.714 6    -20247.215 6    -12067.37947  21623626.28847
  20479517.909 6   -123856.277 6    -71996.25848  20479514.60548
  20874579.878 6    -77394.902 6    -49526.46949  20874579.63249
  21393544.081 6   -233662.063 6   -134873.44549  21393543.31949
  21554056.151 6   -101217.758 6    -63419.60949  21554053.67149
 20  5 16  0  1 30.9990000  0  6G04G14G16G26G27G31                   0.000470808
  22685794.112 5   -230608.355 5   -134652.70347  22685792.72247
  21623519.628 6    -20823.488 6    -12516.41847  21623516.71047
  20478873.511 6   -127242.891 6    -74635.17248  20478870.01148
  20874214.011 6    -79315.766 6    -51023.24649  20874214.00349
  21392340.230 6   -239987.855 6   -139802.64149  21392339.27249
  21553575.620 6   -103745.273 6    -65389.10549  21553572.58549
 20  5 16  0  1 31.9990000  0  6G04G14G16G26G27G31                   0.000468679
  22684626.081 6   -236746.074 6   -139435.33247  22684624.89447
  21623409.784 6    -21400.117 6    -12965.74647  21623407.31947
  20478229.433 6   -130629.863 6    -77274.37548  20478224.97648
  20873848.487 6    -81237.258 6    -52520.50849  20873848.28049
  21391136.870 6   -246314.004 6   -144732.10249  21391135.67549
  21553094.323 6   -106273.387 6    -67359.06349  21553091.55449
 20  5 16  0  1 32.9990000  0  6G04G14G16G26G27G31                   0.000466551
  22683457.878 6   -242884.281 6   -144218.34847  22683456.56947
  21623299.987 6    -21977.219 6    -13415.44147  21623297.14447
  20477584.636 6   -134017.340 6    -79913.96948  20477580.78848
  20873482.534 6    -83159.449 6    -54018.32449  20873482.63249
  21389932.550 6   -252640.641 6   -149661.94949  21389931.83149
  21552613.136 6   -108802.137 6    -69329.52349  21552610.16749
 20  5 16  0  1 33.9990000  0  6G04G14G16G26G27G31                   0.000464420
  22682290.245 5   -249023.055 5   -149001.80547  22682288.42547
  21623190.120 6    -22554.832 6    -13865.52347  21623187.93347
  20476939.503 6   -137405.367 6    -82553.98848  20476935.79248
  20873116.425 6    -85082.426 6    -55516.74649  20873116.18349
  21388728.480 6   -258967.738 6   -154592.16049  21388727.93349
  21552131.808 6   -111331.609 6    -71300.54349  21552128.50749
 20  5 16  0  1 34.9990000  0  6G04G14G16G26G27G31                   0.000462290
  22681121.651 6   -255162.371 6   -153785.68847  22681120.04647
  21623079.784 6    -23132.906 6    -14315.98047  21623077.67947
  20476295.050 6   -140793.895 6    -85194.39848  20476291.43748
  20872750.448 6    -87006.125 6    -57015.73049  20872750.59349
  21387524.737 6   -265295.297 6   -159522.71949  21387523.66349
  21551650.019 6   -113861.789 6    -73272.11749  21551647.50749
 20  5 16  0  1 35.9990000  0  6G04G14G16G26G27G31                   0.000460159
  22679953.417 6   -261302.102 6   -158569.89547  22679952.06247
  21622969.862 6    -23711.367 6    -14766.73047  21622967.06947
  20475650.065 6   -144182.820 6    -87835.11748  20475646.45648
  20872384.425 6    -88930.438 6    -58515.19549  20872384.21049
  21386320.198 6   -271623.242 6   -164453.58649  21386319.74149
  21551168.339 6   -116392.512 6    -75244.11349  21551165.53449
 20  5 16  0  1 36.9990000  0  7G03G04G14G16G26G27G31                0.000458029
  24139726.10512    -59245.31312    -33974.25857  24139726.67557
  22678785.065 6   -267442.188 6   -163354.37947  22678783.82347
  21622859.636 6    -24290.117 6    -15217.71547  21622857.55847
  20475004.972 6   -147572.078 6    -90476.09848  20475001.34748
  20872017.823 6    -90855.297 6    -60015.09049  20872017.90949
  21385116.120 6   -277951.465 6   -169384.67249  21385115.40949
  21550686.769 6   -118923.758 6    -77216.51249  21550683.92949
 20  5 16  0  1 37.9990000  0  7G03G04G14G16G26G27G31                0.000455896
  24139369.081 2    -61118.680 2    -35434.02747  24139370.08947
  22677616.386 6   -273582.645 6   -168139.14847  22677614.69847
  21622749.870 6    -24869.230 6    -15668.96147  21622746.93347
  20474360.331 6   -150961.703 6    -93117.36748  20474356.20248
  20871651.714 6    -92780.773 6    -61515.45749  20871651.84749
  21383912.003 6   -284280.012 6   -174316.00449  21383910.90949
  21550205.276 6   -121455.563 6    -79189.34449  21550202.07349
 20  5 16  0  1 38.9990000  0  7G03G04G14G16G26G27G31                0.000453766
  24139013.105 3    -62992.660 3    -36894.28147  24139013.60847
  22676447.480 6   -279723.594 6   -172924.30947  22676446.72647
  21622639.362 6    -25448.742 6    -16120.53147  21622637.24147
  20473714.745 6   -154351.773 6    -95758.98048  20473710.78848
  20871284.987 6    -94706.883 6    -63016.32049  20871285.39449
  21382707.253 6   -290608.938 6   -179247.64149  21382706.82349
  21549723.159 6   -123987.953 6    -81162.63749  21549720.40949
 20  5 16  0  1 39.9990000  0  7G03G04G14G16G26G27G31                0.000451633
  24138656.425 3    -64867.055 3    -38354.85947  24138657.01547
  22675279.159 6   -285864.875 6   -177709.71946  22675277.90546
  21622529.151 6    -26028.563 6    -16572.34447  21622526.67547
  20473069.808 6   -157742.133 6    -98400.81648  20473065.59348
  20870918.065 6    -96633.535 6    -64517.61349  20870918.46449
  21381503.190 6   -296938.145 6   -184179.49249  21381502.24149
  21549241.151 6   -126520.832 6    -83136.31349  21549238.14449
 20  5 16  0  1 40.9990000  0  7G03G04G14G16G26G27G31                0.000449501
  24138299.175 3    -66741.926 3    -39815.80147  24138300.08547
  22674110.409 6   -292006.492 6   -182495.38346  22674109.09746
  21622418.519 6    -26608.672 6    -17024.38747  21622416.07747
  20472424.120 6   -161132.824 6   -101042.91848  20472420.22648
  20870551.792 6    -98560.750 6    -66019.32849  20870551.88249
  21380298.355 6   -303267.645 6   -189111.57049  21380297.89749
  21548758.815 6   -129054.234 6    -85110.40249  21548756.27249
 20  5 16  0  1 41.9990000  0  7G03G04G14G16G26G27G31                0.000447367
  24137943.058 3    -68617.313 3    -41277.14547  24137943.40147
  22672941.753 5   -298148.520 5   -187281.38346  22672940.49546
  21622308.190 6    -27189.148 6    -17476.71147  21622305.72647
  20471779.042 6   -164523.914 6   -103685.32848  20471775.30448
  20870184.612 6   -100488.559 6    -67521.52349  20870184.73349
  21379094.050 6   -309597.488 6   -194043.91449  21379093.34749
  21548276.972 6   -131588.199 6    -87084.91849  21548273.96049
 20  5 16  0  1 42.9990000  0  7G03G04G14G16G26G27G31                0.000445232
  24137586.355 3    -70493.266 3    -42738.92647  24137586.70647
  22671772.862 6   -304291.023 6   -192067.75846  22671771.56946
  21622197.480 6    -27770.031 6    -17929.34847  21622195.20647
  20471134.011 6   -167915.473 6   -106328.09448  20471129.82348
  20869818.019 6   -102417.043 6    -69024.23849  20869817.85549
  21377889.323 6   -315927.738 6   -198976.58249  21377888.58549
  21547794.612 6   -134122.762 6    -89059.90249  21547791.51149
 20  5 16  0  1 43.9990000  0  8G03G04G14G16G22G26G27G31             0.000443098
  24137229.487 3    -72369.805 3    -44201.17247  24137229.81247
  22670603.565 5   -310433.988 5   -196854.48047  22670601.77647
  21622086.620 6    -28351.363 6    -18382.33647  21622084.56547
  20470488.558 6   -171307.469 6   -108971.21148  20470484.25348
  24517806.25314    -60969.28514    -36461.89155  24517800.68355
  20869450.784 6   -104346.211 6    -70527.49249  20869450.35849
  21376684.995 6   -322258.414 6   -203909.57849  21376683.96849
  21547311.987 6   -136657.984 6    -91035.40249  21547308.88249
 20  5 16  0  1 44.9990000  0  8G03G04G14G16G22G26G27G31             0.000440968
  24136871.230 3    -74246.660 3    -45663.66447  24136872.30047
  22669435.026 5   -316577.172 5   -201641.37547  22669433.40947
  21621976.487 6    -28932.836 6    -18835.43047  21621974.09347
  20469842.823 6   -174699.633 6   -111614.44948  20469838.65148
  24517484.034 4    -62663.301 4    -37781.92645  24517477.94445
  20869083.542 6   -106275.797 6    -72031.06349  20869083.83549
  21375479.776 6   -328589.180 6   -208842.64149  21375479.39449
  21546829.284 6   -139193.559 6    -93011.16849  21546826.46449
 20  5 16  0  1 45.9990000  0  8G03G04G14G16G22G26G27G31             0.000438833
  24136514.878 3    -76124.055 3    -47126.57447  24136515.19447
  22668265.456 5   -322720.758 5   -206428.59847  22668263.90147
  21621865.761 6    -29514.668 6    -19288.80547  21621863.39447
  20469197.495 6   -178092.203 6   -114258.01248  20469193.10148
  24517162.487 4    -64358.023 4    -39102.50845  24517155.78045
  20868716.394 6   -108205.965 6    -73535.09049  20868716.35149
  21374275.269 6   -334920.324 6   -213776.00449  21374274.58949
  21546346.534 6   -141729.691 6    -94987.38349  21546343.88649
 20  5 16  0  1 46.9990000  0  8G03G04G14G16G22G26G27G31             0.000436697
  24136156.761 3    -78001.758 3    -48589.72747  24136158.21047
  22667096.495 5   -328864.582 5   -211215.98446  22667095.30046
  21621754.815 6    -30096.688 6    -19742.33247  21621752.84347
  20468551.636 6   -181484.977 6   -116901.73448  20468547.54648
  24516839.222 4    -66053.324 4    -40423.55945  24516833.05445
  20868349.026 6   -110136.582 6    -75039.46949  20868348.85849
  21373071.019 6   -341251.641 6   -218709.49649  21373069.40949
  21545863.823 6   -144266.211 6    -96963.89149  21545861.17149
 20  5 16  0  1 47.9990000  0  8G03G04G14G16G22G26G27G31             0.000434561
  24135799.659 3    -79879.996 3    -50053.29347  24135800.92147
  22665927.261 5   -335008.773 5   -216003.66846  22665925.71046
  21621644.605 6    -30679.043 6    -20196.12147  21621641.64747
  20467905.776 6   -184878.129 6   -119545.74648  20467901.78448
  24516516.925 4    -67749.414 4    -41745.18045  24516510.19845
  20867981.386 6   -112067.785 6    -76544.30149  20867981.74149
  21371865.753 6   -347583.273 6   -223643.23449  21371864.75749
  21545381.495 6   -146803.297 6    -98940.84049  21545378.53849
 20  5 16  0  1 48.9990000  0  8G03G04G14G16G22G26G27G31             0.000432425
  24135442.433 3    -81758.625 3    -51517.16047  24135443.35847
  22664758.300 5   -341153.293 5   -220791.60246  22664756.46446
  21621533.284 6    -31261.691 6    -20650.13347  21621530.23347
  20467260.050 6   -188271.570 6   -122189.98848  20467255.79648
  24516193.440 4    -69446.141 4    -43067.29745  24516187.59745
  20867613.644 6   -113999.523 6    -78049.55549  20867613.66349
  21370660.542 6   -353915.148 6   -228577.16849  21370660.20249
  21544898.276 6   -149340.836 6   -100918.14849  21544895.57349
 20  5 16  0  1 49.9990000  0  8G03G04G14G16G22G26G27G31             0.000430288
  24135084.386 3    -83637.574 3    -52981.27347  24135085.74547
  22663588.839 5   -347298.004 5   -225579.69547  22663587.49147
  21621422.198 6    -31844.469 6    -21104.24647  21621419.80447
  20466614.136 6   -191665.191 6   -124834.37148  20466609.85848
  24515870.417 4    -71143.418 4    -44389.84045  24515864.61245
  20867246.440 6   -115931.652 6    -79555.10949  20867246.32749
  21369456.136 6   -360247.160 6   -233511.20749  21369454.95649
  21544415.651 6   -151878.723 6   -102895.72349  21544412.64749
 20  5 16  0  1 50.9990000  0  8G03G04G14G16G22G26G27G31             0.000428150
  24134727.784 3    -85516.898 3    -54445.68847  24134728.23747
  22662419.331 5   -353443.008 5   -230368.00847  22662418.05047
  21621311.511 6    -32427.453 6    -21558.51647  21621308.66747
  20465968.917 6   -195059.047 6   -127478.93448  20465964.15148
  24515547.722 5    -72841.297 5    -45712.86345  24515541.22245
  20866878.472 6   -117864.215 6    -81061.00849  20866878.43349
  21368250.636 6   -366579.375 6   -238445.40249  21368250.01549
  21543932.620 6   -154417.023 6   -104873.61749  21543929.73049
 20  5 16  0  1 51.9990000  0  8G03G04G14G16G22G26G27G31             0.000426012
  24134369.128 3    -87396.688 3    -55910.45347  24134370.10547
  22661250.276 5   -359588.320 5   -235156.56646  22661248.62846
  21621200.401 6    -33010.746 6    -22013.03147  21621197.59347
  20465322.839 6   -198453.219 6   -130123.73448  20465318.01948
  24515224.019 4    -74539.859 4    -47036.43845  24515218.08945
  20866510.894 6   -119797.352 6    -82567.34449  20866510.49149
  21367045.675 6   -372911.859 6   -243379.80549  21367044.92549
  21543448.940 6   -156955.816 6   -106851.90649  21543446.28849
 20  5 16  0  1 52.9990000  0  8G03G04G14G16G22G26G27G31             0.000423874
  24134011.480 3    -89276.852 3    -57375.52047  24134011.99147
  22660080.480 5   -365733.941 5   -239945.35946  22660079.19046
  21621089.581 6    -33594.254 6    -22467.71147  21621086.84347
  20464676.862 6   -201847.668 6   -132768.75848  20464672.28048
  24514901.878 5    -76239.055 5    -48360.48845  24514894.86645
  20866142.753 6   -121730.973 6    -84074.06349  20866142.92549
  21365840.589 6   -379244.578 6   -248314.39549  21365839.58549
  21542966.073 6   -159495.063 6   -108830.53949  21542963.40549
 20  5 16  0  1 53.9990000  0  8G03G04G14G16G22G26G27G31             0.000421736
  24133654.425 3    -91157.355 3    -58840.85247  24133654.28447
  22658910.769 5   -371879.766 5   -244734.31346  22658909.44446
  21620978.190 6    -34177.949 6    -22922.54347  21620975.59347
  20464030.847 6   -205242.313 6   -135413.93448  20464026.20648
  24514577.925 5    -77938.805 5    -49684.96145  24514571.73745
  20865774.378 6   -123664.992 6    -85581.09849  20865774.73749
  21364635.722 6   -385577.434 6   -253249.08649  21364634.43749
  21542482.855 6   -162034.656 6   -110809.43849  21542479.87049
 20  5 16  0  1 54.9990000  0  8G03G04G14G16G22G26G27G31             0.000419598
  24133296.597 3    -93038.109 3    -60306.37547  24133296.47647
  22657741.425 5   -378025.738 5   -249523.38346  22657739.87446
  21620866.878 6    -34761.770 6    -23377.47747  21620864.43747
  20463384.831 6   -208637.082 6   -138059.20348  20463379.94048
  24514254.714 5    -79639.082 5    -51009.85245  24514247.94445
  20865406.847 6   -125599.398 6    -87088.42249  20865406.87449
  21363430.425 6   -391910.387 6   -258183.85949  21363429.69849
  21541999.308 6   -164574.559 6   -112788.59049  21541996.53849
 20  5 16  0  1 55.9990000  0  8G03G04G14G16G22G26G27G31             0.000417458
  24132939.222 4    -94919.277 4    -61772.21947  24132938.42947
  22656571.980 5   -384172.012 5   -254312.68046  22656570.19846
  21620756.144 6    -35345.828 6    -23832.58647  21620753.13647
  20462738.956 6   -212032.148 6   -140704.71948  20462734.30448
  24513930.597 5    -81339.957 5    -52335.21545  24513923.99545
  20865038.612 6   -127534.293 6    -88596.13749  20865038.19449
  21362225.073 6   -398243.578 6   -263118.81349  21362224.15149
  21541516.089 6   -167114.930 6   -114768.10249  21541513.19049
 20  5 16  0  1 56.9990000  0  8G03G04G14G16G22G26G27G31             0.000415319
  24132580.839 4    -96800.832 4    -63238.36347  24132580.70247
  22655402.206 5   -390318.578 5   -259102.20346  22655400.33546
  21620644.730 6    -35930.105 6    -24287.87147  21620641.91747
  20462093.050 6   -215427.461 6   -143350.41448  20462088.05048
  24513607.175 5    -83041.492 5    -53661.07045  24513600.33145
  20864670.565 6   -129469.648 6    -90104.20749  20864669.91749
  21361020.073 6   -404576.949 6   -268053.90649  21361019.23749
  21541032.651 6   -169655.727 6   -116747.94549  21541029.84749
 20  5 16  0  1 57.9990000  0  8G03G04G14G16G22G26G27G31             0.000413179
  24132222.339 4    -98682.879 4    -64704.89547  24132222.18747
  22654232.128 5   -396465.438 5   -263891.96946  22654230.93746
  21620533.933 6    -36514.664 6    -24743.36347  21620530.42547
  20461446.628 6   -218823.043 6   -145996.32848  20461441.99148
  24513283.253 5    -84743.719 5    -54987.51245  24513276.65945
  20864301.956 6   -131405.547 6    -91612.70749  20864301.61249
  21359814.667 6   -410910.633 6   -272989.24649  21359814.14449
  21540548.995 6   -172197.027 6   -118728.17649  21540546.03449
 20  5 16  0  1 58.9990000  0  8G03G04G14G16G22G26G27G31             0.000411037
  24131863.933 4   -100565.207 4    -66171.64147  24131863.70247
  22653062.667 5   -402612.531 5   -268681.91046  22653061.08946
  21620422.362 6    -37099.410 6    -25199.00447  21620419.27247
  20460800.042 6   -222218.891 6   -148642.44548  20460795.76948
  24512959.823 5    -86446.473 5    -56314.33645  24512952.73745
  20863933.292 6   -133341.875 6    -93121.53149  20863933.47649
  21358609.495 6   -417244.434 6   -277924.67649  21358609.10549
  21540065.198 6   -174738.699 6   -120708.70349  21540062.69049
 20  5 16  0  1 59.9990000  0  8G03G04G14G16G22G26G27G31             0.000408897
  24131506.081 4   -102447.883 4    -67638.65247  24131505.99147
  22651892.706 5   -408759.898 5   -273472.07446  22651891.46846
  21620311.058 6    -37684.363 6    -25654.80947  21620307.79247
  20460154.112 6   -225614.949 6   -151288.72348  20460149.94448
  24512635.065 5    -88149.844 5    -57641.65245  24512628.25745
  20863564.636 6   -135278.668 6    -94630.72349  20863564.37849
  21357404.370 6   -423578.418 6   -282860.25449  21357403.46849
  21539581.651 6   -177280.734 6   -122689.51249  21539579.08149
 20  5 16  0  2  0.9990000  0  8G03G04G14G16G22G26G27G31             0.000406755
  24131148.534 3   -104330.898 3    -69105.93847  24131147.53847
  22650723.519 5   -414907.438 5   -278262.36347  22650721.15947
  21620200.065 6    -38269.457 6    -26110.73047  21620196.77647
  20459507.706 6   -229011.180 6   -153935.13348  20459503.50348
  24512311.089 5    -89853.766 5    -58969.38745  24512304.64045
  20863196.167 6   -137215.863 6    -96140.22749  20863195.86249
  21356198.628 6   -429912.563 6   -287795.95349  21356197.64049
  21539097.737 6   -179823.152 6   -124670.61349  21539094.96849
 20  5 16  0  2  1.9990000  0  8G03G04G14G16G22G26G27G31             0.000404615
  24130789.628 4   -106214.215 4    -70573.45347  24130789.10547
  22649553.081 5   -421055.156 5   -283052.79347  22649551.35547
  21620088.276 6    -38854.680 6    -26566.76247  21620085.24547
  20458861.253 6   -232407.574 6   -156581.66848  20458857.02248
  24511986.323 5    -91558.258 5    -60297.55545  24511980.19445
  20862827.331 6   -139153.426 6    -97650.01249  20862827.15549
  21354993.737 6   -436246.813 6   -292731.73849  21354992.76149
  21538613.355 6   -182365.922 6   -126651.98849  21538611.06249
 20  5 16  0  2  2.9990000  0  8G03G04G14G16G22G26G27G31             0.000402473
  24130431.081 4   -108097.902 4    -72041.25847  24130430.81247
  22648383.253 5   -427203.168 5   -287843.45346  22648381.36246
  21619977.026 6    -39440.133 6    -27022.95347  21619973.94447
  20458214.878 6   -235804.215 6   -159228.40248  20458210.72648
  24511662.261 4    -93263.281 4    -61626.13345  24511655.51945
  20862458.737 6   -141091.441 6    -99160.15649  20862458.56949
  21353787.862 6   -442581.262 6   -297667.66849  21353787.47649
  21538129.870 6   -184909.066 6   -128633.66849  21538127.26949
 20  5 16  0  2  3.9990000  0  8G03G04G14G16G22G26G27G31             0.000400330
  24130071.855 4   -109982.055 4    -73509.42647  24130072.03847
  22647213.237 5   -433351.535 5   -292634.40646  22647211.67946
  21619865.519 6    -40025.910 6    -27479.41447  21619862.08547
  20457569.112 6   -239201.227 6   -161875.43048  20457564.03048
  24511336.933 4    -94969.105 4    -62955.32445  24511331.11645
  20862089.472 6   -143030.070 6   -100670.77749  20862089.53049
  21352582.972 6   -448916.023 6   -302603.84449  21352582.06549
  21537646.206 6   -187452.789 6   -130615.78549  21537643.61649
 20  5 16  0  2  4.9990000  0  8G03G04G14G16G22G26G27G31             0.000398188
  24129713.097 4   -111866.613 4    -74977.91047  24129713.46447
  22646043.362 5   -439500.148 5   -297425.52346  22646041.49146
  21619753.964 6    -40611.891 6    -27936.02047  21619750.52247
  20456922.519 6   -242598.445 6   -164522.61348  20456917.81248
  24511011.722 4    -96675.477 4    -64284.97345  24511006.41745
  20861720.534 6   -144969.129 6   -102181.72749  20861720.35149
  21351377.292 6   -455250.977 6   -307540.17249  21351376.60149
  21537161.644 6   -189996.902 6   -132598.21949  21537158.87049
 20  5 16  0  2  5.9990000  0  8G03G04G14G16G22G26G27G31             0.000396044
  24129354.144 4   -113751.402 4    -76446.57447  24129354.56547
  22644873.214 5   -445648.914 5   -302216.76246  22644871.42946
  21619642.651 6    -41197.988 6    -28392.71547  21619639.15147
  20456276.050 6   -245995.816 6   -167169.91848  20456271.33948
  24510687.714 4    -98382.383 4    -65615.05145  24510681.77645
  20861351.409 6   -146908.582 6   -103692.99649  20861351.22249
  21350171.745 6   -461586.012 6   -312476.57049  21350170.96449
  21536677.612 6   -192541.320 6   -134580.88349  21536674.98349
 20  5 16  0  2  6.9990000  0  8G03G04G14G16G22G26G27G31             0.000393900
  24128995.347 4   -115636.461 4    -77915.44947  24128996.01147
  22643702.831 5   -451797.832 5   -307008.13746  22643701.06946
  21619531.089 6    -41784.180 6    -28849.49247  21619527.65947
  20455629.214 6   -249393.297 6   -169817.30548  20455624.92548
  24510363.003 5   -100089.785 5    -66945.50045  24510356.99945
  20860982.394 6   -148848.352 6   -105204.50449  20860982.40149
  21348966.073 6   -467921.121 6   -317413.02049  21348965.53849
  21536193.034 6   -195086.016 6   -136563.76249  21536190.83149
 20  5 16  0  2  7.9990000  0  8G03G04G14G16G22G26G27G31             0.000391756
  24128636.855 4   -117521.852 4    -79384.57847  24128636.99947
  22642532.901 5   -457947.016 5   -311799.71546  22642531.06546
  21619419.081 6    -42370.563 6    -29306.41447  21619415.74147
  20454982.808 6   -252791.031 6   -172464.89548  20454978.20248
  24510037.894 5   -101797.750 5    -68276.39145  24510031.32745
  20860612.933 6   -150788.594 6   -106716.37549  20860612.79249
  21347760.362 6   -474256.406 6   -322349.60549  21347759.44449
  21535709.112 6   -197631.172 6   -138547.00049  21535706.20249
 20  5 16  0  2  8.9990000  0  8G03G04G14G16G22G26G27G31             0.000389612
  24128277.784 4   -119407.543 4    -80853.94947  24128278.27247
  22641362.690 5   -464096.320 5   -316591.36746  22641360.84746
  21619307.886 6    -42957.051 6    -29763.41447  21619304.41347
  20454335.878 6   -256188.895 6   -175112.57048  20454331.62448
  24509712.964 5   -103506.250 5    -69607.69945  24509706.37445
  20860243.605 6   -152729.152 6   -108228.49649  20860243.97649
  21346554.737 6   -480591.785 6   -327286.26649  21346554.06549
  21535224.495 6   -200176.559 6   -140530.42249  21535221.80449
 20  5 16  0  2  9.9990000  0  8G03G04G14G16G22G26G27G31             0.000387468
  24127918.253 3   -121293.535 3    -82323.54747  24127919.28447
  22640192.612 5   -470245.844 5   -321383.20346  22640190.61246
  21619196.128 6    -43543.715 6    -30220.55547  21619193.17147
  20453689.355 6   -259586.941 6   -177760.39548  20453684.80048
  24509387.823 5   -105215.320 5    -70939.45745  24509381.52245
  20859874.597 6   -154670.191 6   -109740.99249  20859874.69049
  21345349.464 6   -486927.336 6   -332223.05949  21345348.46849
  21534740.026 6   -202722.348 6   -142514.15249  21534737.15949
 20  5 16  0  2 10.9990000  0  8G03G04G14G16G22G26G27G31             0.000385323
  24127560.003 3   -123179.891 3    -83793.43047  24127560.14447
  22639022.065 5   -476395.578 5   -326175.20746  22639019.80046
  21619084.230 6    -44130.535 6    -30677.81347  21619081.60847
  20453042.651 6   -262985.176 6   -180408.37148  20453038.10148
  24509062.269 5   -106924.910 5    -72271.59845  24509056.43745
  20859505.534 6   -156611.594 6   -111253.77349  20859505.42149
  21344143.917 6   -493262.992 6   -337159.93449  21344143.09749
  21534255.503 6   -205268.465 6   -144498.14549  21534252.80049
 20  5 16  0  2 11.9990000  0  8G03G04G14G16G22G26G27G31             0.000383179
  24127200.987 3   -125066.402 3    -85263.44147  24127200.99147
  22637851.987 5   -482545.379 5   -330967.25846  22637849.88246
  21618972.370 6    -44717.410 6    -31135.13347  21618969.20647
  20452396.472 6   -266383.492 6   -183056.41448  20452391.50748
  24508736.753 5   -108634.977 5    -73604.11345  24508730.90945
  20859135.401 6   -158553.320 6   -112766.80949  20859135.17149
  21342938.542 6   -499598.691 6   -342096.84849  21342937.39049
  21533771.284 6   -207814.875 6   -146482.36349  21533768.24149
 20  5 16  0  2 12.9990000  0  8G03G04G14G16G22G26G27G31             0.000381033
  24126840.909 3   -126953.125 3    -86733.61347  24126841.99947
  22636681.519 5   -488695.289 5   -335759.40246  22636679.58146
  21618860.612 6    -45304.332 6    -31592.47347  21618856.96047
  20451749.620 6   -269781.883 6   -185704.51648  20451744.91348
  24508411.003 4   -110345.477 4    -74936.96545  24508405.19845
  20858765.730 6   -160495.320 6   -114280.06349  20858765.95249
  21341732.675 6   -505934.426 6   -347033.78949  21341731.72649
  21533286.495 6   -210361.496 6   -148466.74649  21533284.01549
 20  5 16  0  2 13.9990000  0  8G03G04G14G16G22G26G27G31             0.000378887
  24126482.214 3   -128840.215 3    -88204.07447  24126483.17547
  22635511.269 5   -494845.453 5   -340551.73846  22635509.30046
  21618749.050 6    -45891.477 6    -32049.98447  21618745.96447
  20451103.026 6   -273180.504 6   -188352.78948  20451098.05048
  24508085.105 4   -112056.563 4    -76270.28545  24508079.73045
  20858396.355 6   -162437.766 6   -115793.65649  20858396.39449
  21340526.690 6   -512270.313 6   -351970.84449  21340525.82349
  21532802.222 6   -212908.527 6   -150451.44949  21532799.36249
 20  5 16  0  2 14.9990000  0  8G03G04G14G16G22G26G27G31             0.000376740
  24126122.534 3   -130727.738 3    -89674.87947  24126123.48347
  22634341.440 5   -500995.891 5   -345344.28946  22634338.71846
  21618636.917 6    -46478.809 6    -32507.64547  21618634.11247
  20450455.776 6   -276579.371 6   -191001.25448  20450451.29248
  24507759.433 5   -113768.254 5    -77604.06345  24507753.58945
  20858026.620 6   -164380.691 6   -117307.62149  20858026.62849
  21339321.253 6   -518606.438 6   -356908.08249  21339320.31949
  21532316.792 6   -215455.980 6   -152436.48049  21532314.24949
 20  5 16  0  2 15.9990000  0  8G03G04G14G16G22G26G27G31             0.000374594
  24125763.464 2   -132615.563 2    -91145.90247  24125764.65947
  22633170.956 5   -507146.598 5   -350137.03946  22633168.91346
  21618525.159 6    -47066.449 6    -32965.54747  21618522.05047
  20449809.565 6   -279978.512 6   -193649.93048  20449804.91748
  24507433.323 4   -115480.645 4    -78938.40245  24507428.36645
  20857656.855 6   -166324.094 6   -118821.96149  20857656.97249
  21338115.003 6   -524942.738 6   -361845.45349  21338114.44049
  21531832.511 6   -218003.895 6   -154421.86749  21531829.60149
 20  5 16  0  2 16.9990000  0  8G03G04G14G16G22G26G27G31             0.000372446
  24125404.167 2   -134503.660 2    -92617.15647  24125405.38247
  22631999.753 5   -513297.441 5   -354929.91446  22631998.08146
  21618413.980 6    -47654.078 6    -33423.43447  21618410.56547
  20449162.558 6   -283377.762 6   -196298.69548  20449157.99948
  24507107.683 4   -117193.473 4    -80273.09445  24507102.39745
  20857286.855 6   -168267.848 6   -120336.57449  20857286.83149
  21336909.183 6   -531279.133 6   -366782.90649  21336908.80049
  21531347.276 6   -220552.051 6   -156407.44549  21531344.78849
 20  5 16  0  2 17.9990000  0  8G03G04G14G16G22G26G27G31             0.000370298
  24125045.269 2   -136392.086 2    -94088.65247  24125046.13247
  22630829.503 5   -519448.418 5   -359722.88346  22630827.80846
  21618302.065 6    -48241.867 6    -33881.45347  21618298.44847
  20448515.769 6   -286777.180 6   -198947.59448  20448510.86648
  24506781.792 5   -118906.840 5    -81608.18445  24506776.33545
  20856916.972 6   -170211.984 6   -121851.49649  20856916.93349
  21335703.433 6   -537615.613 6   -371720.42649  21335703.01149
  21530862.323 6   -223100.566 6   -158393.30149  21530859.87049
 20  5 16  0  2 18.9990000  0  8G03G04G14G16G22G26G27G31             0.000368151
  24124685.855 2   -138280.844 2    -95560.42647  24124686.35547
  22629658.862 5   -525599.727 5   -364516.10946  22629657.14746
  21618189.737 6    -48829.910 6    -34339.66447  21618186.83547
  20447868.909 6   -290176.805 6   -201596.65648  20447863.82748
  24506455.550 4   -120620.848 4    -82943.77745  24506450.22645
  20856546.815 6   -172156.598 6   -123366.77349  20856546.81949
  21334497.792 6   -543952.309 6   -376658.11349  21334496.80849
  21530377.284 6   -225649.504 6   -160379.48849  21530374.83949
 20  5 16  0  2 19.9990000  0  9G03G04G08G14G16G22G26G27G31          0.000366003
  24124326.440 2   -140169.770 2    -97032.31647  24124327.39447
  22628488.550 5   -531750.988 5   -369309.30146  22628486.43746
  23702187.44011   -317498.64111                
  21618077.612 6    -49417.879 6    -34797.82447  21618074.95247
  20447221.683 6   -293576.434 6   -204245.71948  20447217.10548
  24506129.409 4   -122335.148 4    -84279.58645  24506124.47245
  20856177.206 6   -174101.402 6   -124882.20749  20856177.04249
  21333291.722 6   -550288.926 6   -381595.74249  21333290.99149
  21529892.378 6   -228198.578 6   -162365.78149  21529889.72249
 20  5 16  0  2 20.9990000  0  9G03G04G08G14G16G22G26G27G31          0.000363886
  24123967.065 2   -142058.969 2    -98504.41847  24123967.52247
  22627317.644 5   -537902.398 5   -374102.60246  22627316.14446
  23700828.870 1   -324627.172 1                
  21617965.769 6    -50005.965 6    -35256.08247  21617962.93747
  20446575.175 6   -296976.238 6   -206894.91848  20446569.89448
  24505803.315 4   -124050.027 4    -85615.86345  24505797.77645
  20855806.808 6   -176046.602 6   -126397.94549  20855806.83549
  21332086.644 6   -556625.664 6   -386533.46149  21332085.35849
  21529407.526 6   -230748.004 6   -164352.34849  21529404.60849
 20  5 16  0  2 21.9990000  0  9G03G04G08G14G16G22G26G27G31          0.000361736
  24123607.956 2   -143948.453 2    -99976.73847  24123608.12447
  22626147.909 5   -544053.996 5   -378896.05946  22626145.49946
  23699472.792 1   -331756.207 1                
  21617854.042 6    -50594.219 6    -35714.46147  21617851.15147
  20445927.612 6   -300376.188 6   -209544.22748  20445922.94848
  24505476.878 4   -125765.387 4    -86952.52345  24505471.49545
  20855436.823 6   -177992.141 6   -127913.95349  20855436.97249
  21330880.487 6   -562962.512 6   -391471.26249  21330879.23349
  21528921.714 6   -233297.766 6   -166339.17249  21528919.44449
 20  5 16  0  2 22.9990000  0  9G03G04G08G14G16G22G26G27G31          0.000359587
  24123247.183 2   -145838.227 2   -101449.28547  24123248.03847
  22624976.909 5   -550205.824 5   -383689.68046  22624974.79646
  23698115.651 1   -338885.719 1                
  21617741.940 6    -51182.613 6    -36172.95747  21617738.97247
  20445280.987 6   -303776.352 6   -212193.69948  20445276.30048
  24505150.425 4   -127481.336 4    -88289.64145  24505144.86245
  20855066.644 6   -179938.121 6   -129430.30549  20855066.28849
  21329674.667 6   -569299.484 6   -396409.16449  21329673.54249
  21528436.362 6   -235847.879 6   -168326.27749  21528434.18749
 20  5 16  0  2 23.9990000  0  9G03G04G08G14G16G22G26G27G31          0.000357437
  24122888.378 2   -147728.250 2   -102922.03547  24122888.25747
  22623806.292 5   -556357.734 5   -388483.37946  22623804.51946
  23696758.206 1   -346015.477 1                
  21617630.058 6    -51771.070 6    -36631.49247  21617626.83147
  20444633.456 6   -307176.566 6   -214843.21548  20444629.22648
  24504824.183 4   -129197.742 4    -89627.09445  24504818.30845
  20854695.987 6   -181884.414 6   -130946.89549  20854696.06549
  21328468.784 6   -575636.488 6   -401347.09049  21328467.76149
  21527951.690 6   -238398.215 6   -170313.55149  21527948.70649
 20  5 16  0  2 24.9990000  0  9G03G04G08G14G16G22G26G27G31          0.000355288
  24122528.308 2   -149618.508 2   -104394.96547  24122528.76147
  22622635.261 5   -562509.805 5   -393277.21146  22622633.01146
  23695401.331 1   -353145.637 1                
  21617517.980 6    -52359.637 6    -37090.11347  21617514.49147
  20443986.331 6   -310576.930 6   -217492.85248  20443981.73748
  24504497.722 4   -130914.609 4    -90964.91445  24504491.52645
  20854326.026 6   -183831.066 6   -132463.76649  20854325.35549
  21327262.464 6   -581973.578 6   -406285.08249  21327261.48749
  21527466.526 6   -240948.891 6   -172301.09849  21527463.49149
 20  5 16  0  2 25.9990000  0  9G03G04G08G14G16G22G26G27G31          0.000353136
  24122168.745 2   -151509.004 2   -105868.08647  24122168.73747
  22621464.112 5   -568661.992 5   -398071.12546  22621462.90546
  23694044.550 1   -360276.246 1                
  21617405.956 6    -52948.281 6    -37548.79747  21617402.74547
  20443339.401 6   -313977.383 6   -220142.56348  20443335.00748
  24504171.026 4   -132631.969 4    -92303.11345  24504164.98745
  20853954.995 6   -185778.023 6   -133980.87949  20853954.81549
  21326057.105 6   -588310.738 6   -411223.13349  21326055.76949
  21526980.714 6   -243499.832 6   -174288.84049  21526977.86649
 20  5 16  0  2 26.9990000  0  9G03G04G08G14G16G22G26G27G31          0.000350986
  24121809.815 2   -153399.836 2   -107341.46547  24121809.01947
  22620293.362 5   -574814.336 5   -402865.14846  22620292.00346
  23692687.550 1   -367407.223 1                
  21617294.175 6    -53537.039 6    -38007.56647  21617290.72647
  20442692.097 6   -317377.980 6   -222792.37148  20442687.94048
  24503843.987 4   -134349.820 4    -93641.72745  24503838.03445
  20853584.659 6   -187725.348 6   -135498.27349  20853584.32749
  21324851.011 6   -594647.969 6   -416161.23449  21324849.57749
  21526495.253 6   -246051.066 6   -176276.81649  21526492.35149
 20  5 16  0  2 27.9990000  0  9G03G04G08G14G16G22G26G27G31          0.000348835
  24121449.300 2   -155290.965 2   -108815.07047  24121448.94447
  22619123.292 5   -580966.918 5   -407659.35546  22619121.02646
  23691330.323 1   -374538.715 1                
  21617181.831 6    -54126.031 6    -38466.52047  21617178.44047
  20442045.019 6   -320778.844 6   -225442.39548  20442040.79648
  24503516.964 4   -136068.313 4    -94980.80945  24503511.28045
  20853214.284 6   -189673.152 6   -137016.04349  20853213.80849
  21323644.956 6   -600985.422 6   -421099.51249  21323643.64449
  21526009.683 6   -248602.750 6   -178265.14549  21526007.28449
 20  5 16  0  2 28.9990000  0  9G03G04G08G14G16G22G26G27G31          0.000346684
  24121090.081 2   -157182.465 2   -110288.96547  24121089.31547
  22617952.237 5   -587119.723 5   -412453.75446  22617950.39446
  23689972.253 1   -381670.672 1                
  21617069.886 6    -54715.160 6    -38925.58247  21617066.49547
  20441397.745 6   -324179.879 6   -228092.55548  20441393.04648
  24503189.339 4   -137787.324 4    -96320.28145  24503184.22245
  20852843.511 6   -191621.363 6   -138534.13349  20852843.01149
  21322438.909 6   -607322.988 6   -426037.87149  21322438.05449
  21525523.995 6   -251154.766 6   -180253.73049  21525521.60149
 20  5 16  0  2 29.9990000  0  9G03G04G08G14G16G22G26G27G31          0.000344532
  24120730.495 3   -159074.148 3   -111763.00047  24120728.92147
  22616781.526 5   -593272.652 5   -417248.24646  22616779.60146
  23688613.987 1   -388802.902 1                
  21616957.964 6    -55304.387 6    -39384.72347  21616954.60147
  20440750.800 6   -327581.027 6   -230742.79348  20440746.45248
  24502862.987 4   -139506.852 4    -97660.17245  24502856.82745
  20852472.315 6   -193569.898 6   -140052.47349  20852472.27249
  21321233.026 6   -613660.637 6   -430976.30549  21321231.71849
  21525038.495 6   -253707.098 6   -182242.55949  21525036.07349
 20  5 16  0  2 30.9990000  0  9G03G04G08G14G16G22G26G27G31          0.000342381
  24120370.214 2   -160966.156 2   -113237.28147  24120369.15947
  22615609.886 5   -599425.695 5   -422042.83246  22615608.55446
  23687256.284 1   -395935.602 1                
  21616845.222 6    -55893.699 6    -39843.92647  21616842.08547
  20440103.151 6   -330982.270 6   -233393.11748  20440098.77648
  24502535.628 4   -141226.785 4    -99000.38745  24502529.37045
  20852101.784 6   -195518.773 6   -141571.07449  20852101.19049
  21320026.940 6   -619998.305 6   -435914.75049  21320025.74549
  21524552.745 6   -256259.676 6   -184231.58249  21524549.94849
 20  5 16  0  2 31.9990000  0  9G03G04G08G14G16G22G26G27G31          0.000340227
  24120010.315 2   -162858.320 2   -114711.69947  24120009.26547
  22614439.839 5   -605578.863 5   -426837.51646  22614438.06946
  23685898.815 1   -403068.637 1                
  21616733.300 6    -56483.109 6    -40303.21947  21616730.02647
  20439456.308 6   -334383.648 6   -236043.53548  20439451.82348
  24502208.315 5   -142947.289 5   -100341.03145  24502202.20645
  20851730.831 6   -197467.973 6   -143089.92649  20851730.37849
  21318820.886 6   -626336.066 6   -440853.27349  21318819.64449
  21524066.855 6   -258812.566 6   -186220.84849  21524064.51949
 20  5 16  0  2 32.9990000  0  9G03G04G08G14G16G22G26G27G31          0.000338076
  24119649.159 3   -164750.828 3   -116186.39147  24119648.64747
  22613268.706 5   -611732.188 5   -431632.30947  22613266.68347
  23684541.050 1   -410202.102 1                
  21616621.409 6    -57072.625 6    -40762.57047  21616618.16347
  20438808.605 6   -337785.176 6   -238694.07448  20438804.37448
  24501881.089 5   -144668.246 5   -101682.03145  24501875.21045
  20851359.612 6   -199417.559 6   -144609.08649  20851359.57349
  21317615.097 6   -632673.922 6   -445791.86349  21317613.80049
  21523581.097 6   -261365.789 6   -188210.37949  21523578.37449
 20  5 16  0  2 33.9990000  0  9G03G04G08G14G16G22G26G27G31          0.000335922
  24119289.597 2   -166643.531 2   -117661.22747  24119288.29647
  22612097.292 5   -617885.645 5   -436427.19546  22612095.81246
  23683183.206 1   -417335.910 1                
  21616508.745 6    -57662.219 6    -41221.99647  21616505.59347
  20438161.190 6   -341186.793 6   -241344.67648  20438157.12848
  24501553.894 4   -146389.711 4   -103023.45345  24501547.28845
  20850989.065 6   -201367.465 6   -146128.49249  20850988.13649
  21316409.526 6   -639011.832 6   -450730.49649  21316407.78849
  21523095.339 6   -263919.262 6   -190200.09449  21523092.69049
 20  5 16  0  2 34.9990000  0  9G03G04G08G14G16G22G26G27G31          0.000333769
  24118929.769 2   -168536.570 2   -119136.32847  24118928.31247
  22610926.308 5   -624039.309 5   -441222.25446  22610924.81546
  23681826.948 1   -424470.180 1                
  21616396.839 6    -58251.949 6    -41681.53147  21616393.44447
  20437513.495 6   -344588.582 6   -243995.42648  20437510.06948
  24501226.120 4   -148111.699 4   -104365.25045  24501219.80445
  20850617.315 6   -203317.770 6   -147648.21149  20850617.04249
  21315202.808 6   -645349.852 6   -455669.21149  21315201.70249
  21522609.128 6   -266473.078 6   -192190.08649  21522606.69849
 20  5 16  0  2 35.9990000  0  9G03G04G08G14G16G22G26G27G31          0.000331615
  24118569.526 2   -170429.836 2   -120611.61347  24118568.26947
  22609755.550 5   -630193.051 5   -446017.37546  22609753.91346
  23680469.261 1   -431604.852 1                
  21616284.370 6    -58841.781 6    -42141.14147  21616281.22247
  20436866.276 6   -347990.480 6   -246646.26248  20436862.26948
  24500897.909 4   -149834.168 4   -105707.43045  24500892.30845
  20850246.503 6   -205268.398 6   -149168.18449  20850245.81949
  21313996.472 6   -651687.930 6   -460607.97749  21313995.35849
  21522123.261 6   -269027.180 6   -194180.29349  21522120.56249
 20  5 16  0  2 36.9990000  0  9G03G04G08G14G16G22G26G27G31          0.000329462
  24118208.784 2   -172323.469 2   -122087.17247  24118207.93347
  22608584.315 5   -636347.035 5   -450812.69146  22608582.85146
  23679110.948 1   -438739.891 1                
  21616172.308 6    -59431.773 6    -42600.87547  21616169.00347
  20436219.370 6   -351392.566 6   -249297.23848  20436214.89748
  24500569.839 4   -151557.203 4   -107050.07445  24500563.98045
  20849875.675 6   -207219.434 6   -150688.46549  20849874.54649
  21312790.651 6   -658026.145 6   -465546.84449  21312789.31549
  21521637.222 6   -271581.625 6   -196170.76649  21521634.65149
 20  5 16  0  2 37.9990000  0  9G03G04G08G14G16G22G26G27G31          0.000327307
  24117848.440 3   -174217.297 3   -123562.87947  24117847.32347
  22607413.120 5   -642501.117 5   -455608.08646  22607411.75746
  23677754.237 1   -445875.367 1                
  21616060.144 6    -60021.891 6    -43060.70747  21616056.26147
  20435571.565 6   -354794.809 6   -251948.33648  20435567.68348
  24500242.151 4   -153280.707 4   -108393.08645  24500236.18345
  20849503.886 6   -209170.836 6   -152209.04349  20849503.27649
  21311584.815 6   -664364.434 6   -470485.76649  21311582.99949
  21521151.394 6   -274136.371 6   -198161.48049  21521148.64049
 20  5 16  0  2 38.9990000  0  9G03G04G08G14G16G22G26G27G31          0.000325153
  24117488.456 3   -176111.430 3   -125038.82447  24117486.54647
  22606241.980 5   -648655.336 5   -460403.58246  22606240.45246
  23676397.511 1   -453011.223 1                
  21615947.565 6    -60612.074 6    -43520.59847  21615944.47647
  20434924.042 6   -358197.164 6   -254599.51648  20434920.09748
  24499914.206 5   -155004.738 5   -109736.51245  24499908.64745
  20849132.300 6   -211122.605 6   -153729.90649  20849131.79249
  21310378.542 6   -670702.828 6   -475424.77749  21310376.99149
  21520664.605 6   -276691.457 6   -200152.45749  21520662.25349
 20  5 16  0  2 39.9990000  0  9G03G04G08G14G16G22G26G27G31          0.000322998
  24117127.573 3   -178005.793 3   -126514.94947  24117126.13247
  22605071.198 5   -654809.750 5   -465199.22346  22605069.29246
  23675039.190 1   -460147.438 1                
  21615835.495 6    -61202.367 6    -43980.56347  21615832.19047
  20434276.870 6   -361599.629 6   -257250.78948  20434272.39048
  24499586.058 4   -156729.254 4   -111080.29745  24499580.72645
  20848760.980 6   -213074.676 6   -155250.99649  20848760.43349
  21309172.440 6   -677041.246 6   -480363.80549  21309170.93749
  21520178.323 6   -279246.801 6   -202143.62949  21520176.08149
 20  5 16  0  2 40.9990000  0  9G03G04G08G14G16G22G26G27G31          0.000320843
  24116766.628 3   -179900.395 3   -127991.25447  24116765.46047
  22603899.675 5   -660964.254 5   -469994.93446  22603898.55446
  23673680.745 1   -467284.043 1                
  21615723.183 6    -61792.719 6    -44440.57447  21615719.79647
  20433629.284 6   -365002.199 6   -259902.14148  20433625.15548
  24499257.737 5   -158454.211 5   -112424.41845  24499252.00745
  20848389.409 6   -215027.086 6   -156772.35549  20848388.83549
  21307965.956 6   -683379.730 6   -485302.89149  21307964.60149
  21519692.206 6   -281802.430 6   -204135.03549  21519689.64749
 20  5 16  0  2 41.9990000  0  9G03G04G08G14G16G22G26G27G31          0.000318687
  24116406.440 3   -181795.176 3   -129467.70347  24116405.07747
  22602728.753 5   -667118.738 5   -474790.63746  22602727.27246
  23672320.737 1   -474420.934 1                
  21615610.683 6    -62383.066 6    -44900.59047  21615607.29647
  20432981.448 6   -368404.789 6   -262553.50448  20432977.32748
  24498929.636 5   -160179.598 5   -113768.87545  24498923.87845
  20848018.081 6   -216979.734 6   -158293.89849  20848017.29649
  21306760.058 6   -689718.188 6   -490241.94949  21306758.62049
  21519206.050 6   -284358.230 6   -206126.56649  21519203.51549
 20  5 16  0  2 42.9990000  0  9G03G04G08G14G16G22G26G27G31          0.000316532
  24116045.745 3   -183690.191 3   -130944.33247  24116044.66747
  22601557.534 5   -673273.426 5   -479586.50446  22601556.03446
  23670963.019 1   -481558.234 1                
  21615498.292 6    -62973.535 6    -45360.70347  21615495.13247
  20432334.151 6   -371807.547 6   -265205.00448  20432329.74948
  24498601.065 5   -161905.469 5   -115113.66845  24498595.53845
  20847646.347 6   -218932.758 6   -159815.73849  20847645.51149
  21305553.769 6   -696056.727 6   -495181.06649  21305552.22249
  21518719.503 6   -286914.355 6   -208118.35249  21518716.91349
 20  5 16  0  2 43.9990000  0  9G03G04G08G14G16G22G26G27G31          0.000314377
  24115684.690 3   -185585.434 3   -132421.14547  24115683.92947
  22600386.401 5   -679428.199 5   -484382.43046  22600384.42946
  23669605.839 1   -488695.871 1                
  21615385.995 6    -63564.082 6    -45820.86747  21615382.73047
  20431686.503 6   -375210.387 6   -267856.57048  20431682.30048
  24498272.401 5   -163631.797 5   -116458.84845  24498266.80845
  20847274.581 6   -220886.113 6   -161337.83649  20847274.15549
  21304347.987 6   -702395.316 6   -500120.22349  21304346.20249
  21518232.605 6   -289470.742 6   -210110.34849  21518230.39449
 20  5 16  0  2 44.9990000  0  9G03G04G08G14G16G22G26G27G31          0.000312220
  24115324.386 3   -187481.004 3   -133898.21147  24115323.01147
  22599215.089 5   -685583.125 5   -489178.47746  22599213.32746
  23668246.058 1   -495833.898 1                
  21615273.909 6    -64154.738 6    -46281.12147  21615270.23347
  20431039.362 6   -378613.344 6   -270508.22748  20431035.32348
  24497944.675 5   -165358.621 5   -117804.43045  24497938.34345
  20846902.550 6   -222839.793 6   -162860.18449  20846902.48049
  21303141.956 6   -708733.969 6   -505059.43049  21303139.97649
  21517746.456 6   -292027.434 6   -212102.57049  21517743.99949
 20  5 16  0  2 45.9990000  0  9G03G04G08G14G16G22G26G27G31          0.000310062
  24114963.276 3   -189376.586 3   -135375.29747  24114962.37047
  22598044.105 5   -691738.051 5   -493974.52346  22598042.08946
  23666887.565 1   -502972.188 1                
  21615161.206 6    -64745.344 6    -46741.33247  21615158.11247
  20430391.487 6   -382016.293 6   -273159.87548  20430387.33148
  24497615.745 4   -167085.844 4   -119150.31645  24497609.81545
  20846530.534 6   -224793.680 6   -164382.69549  20846530.42549
  21301935.206 6   -715072.559 6   -509998.58649  21301933.35549
  21517260.183 6   -294584.273 6   -214094.91849  21517257.08149
 20  5 16  0  2 46.9990000  0  9G03G04G08G14G16G22G26G27G31          0.000307907
  24114601.917 3   -191272.578 3   -136852.69947  24114601.12447
  22596872.644 5   -697893.164 5   -498770.70346  22596870.92546
  23665528.815 1   -510110.883 1                
  21615048.597 6    -65336.098 6    -47201.65647  21615045.46047
  20429743.589 6   -385419.414 6   -275811.66448  20429739.64448
  24497287.659 5   -168813.559 5   -120496.60545  24497280.90145
  20846158.815 6   -226747.973 6   -165905.52049  20846158.62049
  21300729.034 6   -721411.281 6   -514937.85249  21300727.32749
  21516773.417 6   -297141.465 6   -216087.53549  21516770.78449
 20  5 16  0  2 47.9990000  0  9G03G04G08G14G16G22G26G27G31          0.000305748
  24114241.495 3   -193168.797 3   -138330.27347  24114240.80447
  22595701.464 5   -704048.426 5   -503567.02046  22595699.56246
  23664170.987 1   -517250.020 1                
  21614936.261 6    -65926.977 6    -47662.09047  21614933.12847
  20429096.230 6   -388822.684 6   -278463.55948  20429092.07348
  24496957.995 5   -170541.813 5   -121843.32045  24496951.95645
  20845786.956 6   -228702.637 6   -167428.63749  20845786.24949
  21299522.956 6   -727750.090 6   -519877.18449  21299521.28049
  21516286.300 6   -299698.992 6   -218080.42249  21516284.21849
 20  5 16  0  2 48.9990000  0  9G03G04G08G14G16G22G26G27G31          0.000303591
  24113880.253 3   -195065.160 3   -139807.96147  24113879.55447
  22594530.198 5   -710203.711 5   -508363.35546  22594528.35546
  23662812.284 1   -524389.438 1                
  21614823.940 6    -66517.852 6    -48122.50847  21614820.78047
