     2.10           OBSERVATION DATA    GPS(GPS)            RINEX VERSION / TYPE
cnvtToRINEX 3.07.0  convertToRINEX OPR  19-May-20 12:31 UTC PGM / RUN BY / DATE 
----------------------------------------------------------- COMMENT             
GBA0                                                        MARKER NAME         
GBA0                                                        MARKER NUMBER       
GNSS Observer       Trimble                                 OBSERVER / AGENCY   
0440102809          5700                2.32                REC # / TYPE / VERS 
                    TRM39105.00                             ANT # / TYPE        
 -3050766.1906  4927694.1432  2654117.1216                  APPROX POSITION XYZ 
        0.0000        0.0000        0.0000                  ANTENNA: DELTA H/E/N
     1     1     0                                          WAVELENGTH FACT L1/2
     4    C1    L1    L2    P2                              # / TYPES OF OBSERV 
  2020     5    16     5     5   52.0000000     GPS         TIME OF FIRST OBS   
  2020     5    16     6    20   49.0000000     GPS         TIME OF LAST OBS    
     0                                                      RCV CLOCK OFFS APPL 
    18                                                      LEAP SECONDS        
    10                                                      # OF SATELLITES     
   G01  4498  4498  4498  4498                              PRN / # OF OBS      
   G03  3597  3561  3574  3574                              PRN / # OF OBS      
   G07  4498  4498  4498  4498                              PRN / # OF OBS      
   G08  3005  2889  1688  1688                              PRN / # OF OBS      
   G11  3730  3643  2595  2595                              PRN / # OF OBS      
   G17  3634  3573  3579  3579                              PRN / # OF OBS      
   G19   221   181    23    23                              PRN / # OF OBS      
   G22  4498  4498  4498  4498                              PRN / # OF OBS      
   G28  4498  4498  4347  4347                              PRN / # OF OBS      
   G30  4498  4498  4498  4498                              PRN / # OF OBS      
CARRIER PHASE MEASUREMENTS: PHASE SHIFTS REMOVED            COMMENT             
                                                            END OF HEADER       
 20  5 16  5  5 52.0000000  0  6G01G07G11G22G28G30                   0.000240425
  20153882.98417    -50769.75017    -19117.15259  20153883.01259
  20888878.67216    -37355.96916    -13942.95359  20888876.41859
  21028646.65615    -13360.02315     -4077.19157  21028643.19557
  22863487.14816    -71511.45716    -25397.41058  22863484.61358
  24017580.30515    -51412.49615                
  21823559.55516    -29117.27716    -11200.81159  21823559.53559
 20  5 16  5  5 53.0000000  0  6G01G07G11G22G28G30                   0.000238157
  20153248.492 7    -54103.063 7    -21714.54349  20153249.06649
  20888349.336 6    -40139.121 6    -16111.63749  20888346.02049
  21028316.516 6    -15095.316 6     -5429.39147  21028312.45347
  22862485.414 6    -76773.340 6    -29497.58647  22862483.29347
  24016428.961 5    -57461.324 5     -2957.53257  24016424.27357
  21822655.047 6    -33874.266 6    -14907.51649  21822654.45349
 20  5 16  5  5 54.0000000  0  6G01G07G11G22G28G30                   0.000235884
  20152613.859 7    -57438.191 7    -24313.35249  20152614.17249
  20887818.805 6    -42924.125 6    -18281.77049  20887816.56349
  21027985.781 5    -16832.789 5     -6783.27047  21027982.30547
  22861483.852 6    -82037.438 6    -33599.48047  22861481.63347
  24015277.344 5    -63512.789 5                
  21821749.281 6    -38633.148 6    -18615.75849  21821748.68049
 20  5 16  5  5 55.0000000  0  6G01G07G11G22G28G30                   0.000233614
  20151978.680 7    -60775.082 7    -26913.52749  20151979.48849
  20887289.055 6    -45710.926 6    -20453.30949  20887285.97349
  21027654.992 6    -18572.434 6     -8138.83647  21027651.10547
  22860481.906 6    -87303.617 6    -37702.99247  22860479.71147
  24014125.797 5    -69566.762 5                
  21820843.078 6    -43393.863 6    -22325.41849  21820842.59849
 20  5 16  5  5 56.0000000  0  6G01G07G11G22G28G30                   0.000231342
  20151343.789 7    -64113.512 7    -29514.90249  20151344.19549
  20886758.164 6    -48499.320 6    -22626.08249  20886755.62549
  21027323.656 5    -20313.945 5     -9495.86347  21027319.52047
  22859479.469 6    -92571.727 6    -41808.00847  22859476.97347
  24012972.656 5    -75623.043 5                
  21819936.906 6    -48156.195 6    -26036.33649  21819936.66049
 20  5 16  5  5 57.0000000  0  6G01G07G11G22G28G30                   0.000229071
  20150708.078 7    -67453.449 7    -32117.44549  20150708.27349
  20886227.383 7    -51289.258 7    -24800.06649  20886224.94549
  21026991.609 6    -22057.324 6    -10854.33647  21026988.14547
  22858476.609 6    -97841.660 6    -45914.45747  22858474.07447
  24011819.719 5    -81681.605 5                
  21819030.461 6    -52920.145 6    -29748.50049  21819029.94149
 20  5 16  5  5 58.0000000  0  6G01G07G11G22G28G30                   0.000226795
  20150072.242 7    -70794.805 7    -34721.09849  20150072.71149
  20885696.305 6    -54080.629 6    -26975.15249  20885693.65249
  21026659.750 6    -23802.457 6    -12214.18047  21026655.46547
  22857473.320 6   -103113.348 6    -50022.25447  22857471.10247
  24010666.336 5    -87742.336 5                
  21818123.617 6    -57685.547 6    -33461.79349  21818122.84849
 20  5 16  5  5 59.0000000  0  6G01G07G11G22G28G30                   0.000224520
  20149435.875 7    -74137.379 7    -37325.69949  20149436.39149
  20885164.844 6    -56873.270 6    -29151.23849  20885162.19549
  21026326.961 5    -25549.203 5    -13575.28147  21026323.35247
  22856469.609 6   -108386.621 6    -54131.30147  22856467.25847
  24009512.406 5    -93805.113 5                
  21817216.414 6    -62452.234 6    -37176.10249  21817215.73849
 20  5 16  5  6  0.0000000  0  6G01G07G11G22G28G30                   0.000222242
  20148799.852 7    -77481.078 7    -39931.18449  20148800.15249
  20884633.438 6    -59667.074 6    -31328.23049  20884630.35549
  21025994.273 5    -27297.457 5    -14937.55947  21025990.48047
  22855466.094 6   -113661.391 6    -58241.51247  22855463.55947
  24008358.938 5    -99869.734 5                
  21816309.352 6    -67220.152 6    -40891.35949  21816308.28549
 20  5 16  5  6  1.0000000  0  6G01G07G11G22G28G30                   0.000219967
  20148163.500 7    -80825.773 7    -42537.43849  20148163.62949
  20884101.859 6    -62461.914 6    -33506.02749  20884098.68449
  21025661.570 6    -29047.043 6    -16300.87547  21025657.53147
  22854462.016 6   -118937.465 6    -62352.73047  22854459.42647
  24007204.688 5   -105936.141 5                
  21815401.773 6    -71989.105 6    -44607.43049  21815400.80149
 20  5 16  5  6  2.0000000  0  6G01G07G11G22G28G30                   0.000217688
  20147526.953 7    -84171.570 7    -45144.55549  20147527.26249
  20883569.406 7    -65257.887 7    -35684.71549  20883566.69949
  21025328.531 6    -30798.113 6    -17665.35247  21025324.71947
  22853457.398 6   -124215.031 6    -66465.12547  22853454.86747
  24006049.297 5   -112004.430 5                
  21814494.117 6    -76759.262 6    -48324.43449  21814493.07849
 20  5 16  5  6  3.0000000  0  6G01G07G11G22G28G30                   0.000215420
  20146889.641 7    -87518.301 7    -47752.39549  20146890.60549
  20883036.813 7    -68054.867 7    -37864.17649  20883034.36749
  21024995.266 6    -32550.488 6    -19030.83247  21024991.23847
  22852453.000 6   -129493.840 6    -70578.48047  22852450.35947
  24004894.508 5   -118074.441 5                
  21813586.086 6    -81530.441 6    -52042.23449  21813585.12949
 20  5 16  5  6  4.0000000  0  6G01G07G11G22G28G30                   0.000213139
  20146252.477 7    -90865.738 7    -50360.78549  20146253.19549
  20882504.852 6    -70852.586 6    -40044.21549  20882502.15649
  21024661.242 6    -34303.934 6    -20397.16047  21024657.81347
  22851448.563 6   -134773.770 6    -74692.71547  22851445.88747
  24003739.516 5   -124145.934 5                
  21812678.063 6    -86302.402 6    -55760.64849  21812677.07849
 20  5 16  5  6  5.0000000  0  6G01G07G11G22G28G30                   0.000210857
  20145615.680 7    -94213.980 7    -52969.80949  20145616.14149
  20881972.125 7    -73651.113 7    -42224.89149  20881969.34449
  21024326.930 6    -36058.539 6    -21764.38747  21024323.46947
  22850443.188 6   -140054.816 6    -78807.81647  22850440.75447
  24002583.531 5   -130218.992 5                
  21811769.922 6    -91075.227 6    -59479.73049  21811768.41049
 20  5 16  5  6  6.0000000  0  6G01G07G11G22G28G30                   0.000208576
  20144978.320 7    -97562.863 7    -55579.32849  20144978.80149
  20881439.445 6    -76450.344 6    -44406.10949  20881436.75449
  21023992.945 6    -37814.141 6    -23132.38747  21023989.79747
  22849438.414 6   -145336.840 6    -82923.68447  22849435.75847
  24001427.445 5   -136293.480 5                
  21810861.492 6    -95848.777 6    -63199.37949  21810860.33649
 20  5 16  5  6  7.0000000  0  6G01G07G11G22G28G30                   0.000206280
  20144341.063 7   -100912.250 7    -58189.24249  20144341.89549
  20880906.813 6    -79250.094 6    -46587.73449  20880903.62949
  21023658.703 6    -39570.633 6    -24501.08247  21023655.49247
  22848433.156 6   -150619.738 6    -87040.23047  22848430.30947
  24000271.117 5   -142369.230 5                
  21809953.156 6   -100622.898 6    -66919.47749  21809951.73049
 20  5 16  5  6  8.0000000  0  6G01G07G11G22G28G30                   0.000203997
  20143703.313 7   -104262.109 7    -60799.52049  20143704.25049
  20880374.156 6    -82050.371 6    -48769.77349  20880370.96949
  21023324.438 6    -41327.957 6    -25870.43447  21023320.92247
  22847427.281 6   -155903.441 6    -91157.39547  22847424.95747
  23999114.453 5   -148446.254 5                
  21809044.883 6   -105397.590 6    -70640.01649  21809043.34049
 20  5 16  5  6  9.0000000  0  6G01G07G11G22G28G30                   0.000201710
  20143066.203 7   -107612.398 7    -63410.14149  20143066.44549
  20879840.742 6    -84851.113 6    -50952.17649  20879838.10249
  21022989.836 6    -43086.063 6    -27240.37947  21022986.53947
  22846422.250 6   -161187.949 6    -95275.18847  22846419.33647
  23997958.047 5   -154524.438 5                
  21808136.148 6   -110172.785 6    -74360.95349  21808134.59849
 20  5 16  5  6 10.0000000  0  6G01G07G11G22G28G30                   0.000199427
  20142428.406 7   -110963.070 7    -66021.04749  20142428.83249
  20879307.570 6    -87652.313 6    -53134.92249  20879304.83249
  21022655.414 6    -44844.930 6    -28610.93047  21022651.63347
  22845416.766 6   -166473.191 6    -99393.55947  22845413.36347
  23996801.180 5   -160603.840 5                
  21807227.313 6   -114948.418 6    -78082.22749  21807225.93449
 20  5 16  5  6 11.0000000  0  6G01G07G11G22G28G30                   0.000197140
  20141790.859 7   -114314.023 7    -68632.18849  20141791.22349
  20878774.758 6    -90453.797 6    -55317.89849  20878771.75049
  21022320.641 6    -46604.453 6    -29981.98847  21022316.85947
  22844410.719 6   -171759.051 6   -103512.41047  22844407.51647
  23995643.914 5   -166684.246 5                
  21806317.836 6   -119724.418 6    -81803.78949  21806316.76649
 20  5 16  5  6 12.0000000  0  6G01G07G11G22G28G30                   0.000194855
  20141152.914 7   -117665.320 7    -71243.58649  20141153.42249
  20878241.539 7    -93255.664 7    -57501.17249  20878238.76649
  21021985.336 6    -48364.695 6    -31353.60247  21021981.84847
  22843404.578 6   -177045.605 6   -107631.80547  22843401.57447
  23994486.875 5   -172765.805 5                
  21805409.336 6   -124500.836 6    -85525.67249  21805408.35549
 20  5 16  5  6 13.0000000  0  6G01G07G11G22G28G30                   0.000192568
  20140515.258 7   -121016.711 7    -73855.06349  20140515.75049
  20877708.148 7    -96057.688 7    -59684.56649  20877705.66449
  21021650.867 6    -50125.355 6    -32725.54747  21021647.32847
  22842398.234 6   -182332.602 6   -111751.54347  22842395.81647
  23993329.148 5   -178848.227 5                
  21804500.359 6   -129277.434 6    -89247.69949  21804499.32449
 20  5 16  5  6 14.0000000  0  6G01G07G11G22G28G30                   0.000190279
  20139877.602 7   -124368.281 7    -76466.67249  20139877.97749
  20877175.281 7    -98859.914 7    -61868.11749  20877172.18449
  21021315.047 6    -51886.582 6    -34097.92247  21021311.43847
  22841392.461 6   -187620.133 6   -115871.69547  22841389.69547
  23992171.750 5   -184931.598 5                
  21803591.375 6   -134054.277 6    -92969.91449  21803590.18449
 20  5 16  5  6 15.0000000  0  6G01G07G11G22G28G30                   0.000188004
  20139239.898 7   -127719.996 7    -79078.39849  20139240.53949
  20876641.547 7   -101662.324 7    -64051.81649  20876638.84449
  21020979.461 6    -53648.305 6    -35470.69147  21020976.44147
  22840386.250 6   -192908.125 6   -119992.21147  22840383.16447
  23991013.844 5   -191015.875 5                
  21802682.039 6   -138831.336 6    -96692.30149  21802681.32849
 20  5 16  5  6 16.0000000  0  6G01G07G11G22G28G30                   0.000185715
  20138601.898 7   -131071.840 7    -81690.23049  20138602.55949
  20876108.484 7   -104464.914 7    -66235.65249  20876105.37949
  21020644.320 6    -55410.555 6    -36843.87947  21020641.10547
  22839379.883 6   -198196.660 6   -124113.15247  22839377.11747
  23989855.305 4   -197101.066 4                
  21801773.219 6   -143608.598 6   -100414.84449  21801772.40649
 20  5 16  5  6 17.0000000  0  6G01G07G11G22G28G30                   0.000183414
  20137964.031 7   -134423.809 7    -84302.15249  20137964.65649
  20875575.352 7   -107267.668 7    -68419.61749  20875572.13349
  21020308.797 5    -57173.273 5    -38217.41847  21020305.65647
  22838373.461 6   -203485.609 6   -128234.39847  22838370.61747
  23988697.938 5   -203187.176 5                
  21800864.234 6   -148386.082 6   -104137.56349  21800862.98449
 20  5 16  5  6 18.0000000  0  6G01G07G11G22G28G30                   0.000181124
  20137325.844 7   -137776.012 7    -86914.26249  20137326.62549
  20875041.586 7   -110070.660 7    -70603.77349  20875038.54349
  21019973.414 5    -58936.586 5    -39591.42647  21019970.04347
  22837366.977 5   -208775.207 5   -132356.16447  22837363.71147
  23987539.141 5   -209274.262 5                
  21799955.141 6   -153163.855 6   -107860.50449  21799953.94949
 20  5 16  5  6 19.0000000  0  6G01G07G11G22G28G30                   0.000178835
  20136688.070 7   -141128.031 7    -89526.23049  20136688.78149
  20874508.383 6   -112873.563 6    -72787.85249  20874505.24649
  21019638.023 6    -60700.117 6    -40965.60547  21019634.56647
  22836360.188 6   -214064.902 6   -136478.01247  22836357.58647
  23986380.570 5   -215361.938 5                
  21799045.344 6   -157941.520 6   -111583.35949  21799044.80149
 20  5 16  5  6 20.0000000  0  6G01G07G11G22G28G30                   0.000176544
  20136050.188 7   -144479.883 7    -92138.06649  20136051.12949
  20873974.758 6   -115676.316 6    -74971.81349  20873972.00449
  21019302.664 5    -62463.809 5    -42339.91047  21019299.31347
  22835353.586 6   -219354.824 6   -140600.02347  22835350.69947
  23985222.133 5   -221450.234 5                
  21798136.359 6   -162719.105 6   -115306.15249  21798135.53149
 20  5 16  5  6 21.0000000  0  6G01G07G11G22G28G30                   0.000174253
  20135412.656 7   -147831.699 7    -94749.87149  20135413.40249
  20873441.836 6   -118479.047 6    -77155.75849  20873438.35549
  21018966.859 6    -64227.824 6    -43714.46947  21018963.30147
  22834346.539 6   -224644.992 6   -144722.23447  22834343.70347
  23984063.758 5   -227539.227 5                
  21797227.477 6   -167496.695 6   -119028.95349  21797226.23849
 20  5 16  5  6 22.0000000  0  6G01G07G11G22G28G30                   0.000171963
  20134775.016 7   -151183.492 7    -97361.65649  20134775.57049
  20872908.031 6   -121281.824 6    -79339.74249  20872905.13349
  21018631.164 6    -65992.199 6    -45089.31347  21018627.42247
  22833340.383 6   -229935.563 6   -148844.75847  22833337.07047
  23982904.289 5   -233629.035 5                
  21796317.867 6   -172274.367 6   -122751.81649  21796317.32049
 20  5 16  5  6 23.0000000  0  6G01G07G11G22G28G30                   0.000169670
  20134136.922 7   -154535.027 7    -99973.23849  20134137.54349
  20872375.063 6   -124084.375 6    -81523.55549  20872372.13349
  21018295.227 6    -67756.684 6    -46464.23447  21018291.64847
  22832333.273 6   -235226.203 6   -152967.33247  22832330.43847
  23981745.344 5   -239719.301 5                
  21795409.180 6   -177051.844 6   -126474.52749  21795408.11349
 20  5 16  5  6 24.0000000  0  6G01G07G11G22G28G30                   0.000167379
  20133499.328 7   -157886.398 7   -102584.69549  20133499.95749
  20871841.664 6   -126886.785 6    -83707.25449  20871838.93049
  21017959.352 5    -69521.348 5    -47839.30147  21017956.14547
  22831326.516 6   -240517.023 6   -157090.04747  22831323.52747
  23980586.492 5   -245810.207 5                
  21794500.031 6   -181829.254 6   -130197.18849  21794499.21549
 20  5 16  5  6 25.0000000  0  6G01G07G11G22G28G30                   0.000165087
  20132861.258 7   -161237.648 7   -105196.05949  20132862.10549
  20871308.461 6   -129689.133 6    -85890.89549  20871305.39549
  21017624.164 6    -71286.270 6    -49214.56647  21017620.04347
  22830319.930 6   -245808.074 6   -161212.94147  22830316.67647
  23979427.961 5   -251901.746 5                
  21793590.867 6   -186606.598 6   -133919.80149  21793590.24249
 20  5 16  5  6 26.0000000  0  6G01G07G11G22G28G30                   0.000162794
  20132223.727 7   -164588.793 7   -107807.34849  20132224.75449
  20870775.063 6   -132491.406 6    -88074.48849  20870772.02349
  21017287.477 6    -73051.457 6    -50590.03547  21017284.09047
  22829312.953 6   -251099.379 6   -165336.04347  22829309.89147
  23978267.984 4   -257993.961 4                
  21792681.609 6   -191383.922 6   -137642.39149  21792681.17649
 20  5 16  5  6 27.0000000  0  6G01G07G11G22G28G30                   0.000160501
  20131586.188 7   -167939.715 7   -110418.45749  20131586.48849
  20870241.828 7   -135293.516 7    -90257.94949  20870239.21149
  21016951.898 6    -74816.777 6    -51965.60547  21016948.11347
  22828305.648 6   -256390.777 6   -169459.21147  22828302.96147
  23977109.203 4   -264086.715 4                
  21791772.758 6   -196161.094 6   -141364.85949  21791772.19549
 20  5 16  5  6 28.0000000  0  6G01G07G11G22G28G30                   0.000158209
  20130948.750 7   -171290.469 7   -113029.43049  20130949.27749
  20869708.484 6   -138095.449 6    -92441.27749  20869705.69149
  21016615.781 6    -76582.297 6    -53341.34447  21016612.09447
  22827299.117 6   -261682.355 6   -173582.51247  22827295.79347
  23975949.805 4   -270180.082 4                
  21790863.125 6   -200938.180 6   -145087.27049  21790862.95749
 20  5 16  5  6 29.0000000  0  6G01G07G11G22G28G30                   0.000155916
  20130311.273 7   -174641.031 7   -115640.25849  20130311.55149
  20869175.727 6   -140897.285 6    -94624.52749  20869172.99649
  21016279.719 6    -78348.004 6    -54717.21947  21016276.27047
  22826292.234 6   -266974.141 6   -177705.98047  22826289.16447
  23974789.648 4   -276274.047 4                
  21789954.445 6   -205715.141 6   -148809.57849  21789953.98049
 20  5 16  5  6 30.0000000  0  6G01G07G11G22G28G30                   0.000153622
  20129673.625 7   -177991.410 7   -118250.94149  20129673.99649
  20868642.438 6   -143698.938 6    -96807.63349  20868639.77049
  21015943.813 6    -80113.883 6    -56093.22747  21015940.12947
  22825284.945 6   -272266.027 6   -181829.52747  22825282.07447
  23973629.000 3   -282368.582 3                
  21789045.469 6   -210491.988 6   -152531.78949  21789045.08249
 20  5 16  5  6 31.0000000  0  6G01G07G11G22G28G30                   0.000151329
  20129036.094 7   -181341.492 7   -120861.39549  20129036.64849
  20868109.453 6   -146500.352 6    -98990.55949  20868106.61349
  21015607.961 6    -81879.820 6    -57469.28947  21015604.21147
  22824278.078 6   -277557.992 6   -185953.13747  22824274.66847
  23972470.063 4   -288463.609 4                
  21788136.500 6   -215268.613 6   -156253.83249  21788136.20749
 20  5 16  5  6 32.0000000  0  6G01G07G11G22G28G30                   0.000149050
  20128398.438 7   -184691.117 7   -123471.49249  20128399.00849
  20867576.117 6   -149301.359 6   -101173.16449  20867573.28149
  21015271.813 6    -83645.684 6    -58845.28547  21015267.99647
  22823270.867 6   -282849.859 6   -190076.67247  22823268.13347
  23971310.641 4   -294558.973 4                
  21787227.695 6   -220044.895 6   -159975.61349  21787227.28149
 20  5 16  5  6 33.0000000  0  6G01G07G11G22G28G30                   0.000146755
  20127760.813 7   -188040.422 7   -126081.34049  20127761.50449
  20867043.367 7   -152102.051 7   -103355.52049  20867040.56649
  21014935.844 6    -85411.559 6    -60221.28947  21014931.96547
  22822263.453 6   -288141.750 6   -194200.22347  22822260.46947
  23970150.328 4   -300654.746 4                
  21786318.617 6   -224820.855 6   -163697.14549  21786318.25449
 20  5 16  5  6 34.0000000  0  6G01G07G11G22G28G30                   0.000144461
  20127123.906 7   -191389.391 7   -128690.93049  20127124.29349
  20866510.461 7   -154902.457 7   -105537.66449  20866507.52349
  21014599.945 6    -87177.488 6    -61597.34847  21014595.79747
  22821256.852 6   -293433.625 6   -198323.75847  22821254.19547
  23968989.945 4   -306750.973 4                
  21785409.688 6   -229596.598 6   -167418.50449  21785409.81649
 20  5 16  5  6 35.0000000  0  6G01G07G11G22G28G30                   0.000142166
  20126486.633 7   -194737.980 7   -131300.22349  20126487.14549
  20865977.750 7   -157702.543 7   -107719.54749  20865974.61749
  21014264.016 6    -88943.418 6    -62973.39847  21014260.00047
  22820249.430 6   -298725.516 6   -202447.30547  22820247.32447
  23967830.086 4   -312847.586 4                
  21784500.516 6   -234372.035 6   -171139.63349  21784501.18049
 20  5 16  5  6 36.0000000  0  6G01G07G11G22G28G30                   0.000139872
  20125849.406 7   -198086.297 7   -133909.30549  20125850.16849
  20865444.883 6   -160502.398 6   -109901.24649  20865442.24249
  21013927.516 6    -90709.430 6    -64349.51247  21013924.06647
  22819242.844 6   -304017.445 6   -206570.88747  22819240.38747
  23966669.961 4   -318944.684 4                
  21783591.961 6   -239147.273 6   -174860.59849  21783592.17249
 20  5 16  5  6 37.0000000  0  6G01G07G11G22G28G30                   0.000137577
  20125212.383 7   -201434.238 7   -136518.09049  20125212.84449
  20864911.734 6   -163301.891 6   -112082.68449  20864908.86749
  21013592.039 6    -92475.453 6    -65725.63747  21013587.81347
  22818235.281 6   -309309.371 6   -210694.46147  22818232.83647
  23965509.359 4   -325042.250 4                
  21782683.734 6   -243922.203 6   -178581.32049  21782683.78949
 20  5 16  5  6 38.0000000  0  6G01G07G11G22G28G30                   0.000135281
  20124575.359 7   -204781.867 7   -139126.62949  20124575.70749
  20864379.523 6   -166101.121 6   -114263.91849  20864376.46149
  21013255.609 6    -94241.496 6    -67101.77347  21013251.64147
  22817229.117 6   -314601.277 6   -214818.03147  22817225.69147
  23964349.000 4   -331140.176 4                
  21781775.117 6   -248696.902 6   -182301.86749  21781774.94949
 20  5 16  5  6 39.0000000  0  6G01G07G11G22G28G30                   0.000132986
  20123938.477 7   -208129.086 7   -141734.84849  20123938.97749
  20863846.781 6   -168899.992 6   -116444.85949  20863844.00849
  21012919.695 6    -96007.508 6    -68477.88347  21012915.74647
  22816222.023 6   -319893.199 6   -218941.60247  22816218.44947
  23963188.922 4   -337238.508 4                
  21780866.320 6   -253471.246 6   -186022.13349  21780866.64549
 20  5 16  5  6 40.0000000  0  6G01G07G11G22G28G30                   0.000130690
  20123301.266 7   -211475.902 7   -144342.75849  20123301.84849
  20863314.375 6   -171698.477 6   -118625.50449  20863311.22749
  21012583.766 6    -97773.508 6    -69853.98447  21012579.87947
  22815214.633 6   -325184.996 6   -223065.08247  22815211.71147
  23962027.781 4   -343337.199 4                
  21779957.898 6   -258245.281 6   -189742.16449  21779958.24649
 20  5 16  5  6 41.0000000  0  6G01G07G11G22G28G30                   0.000128393
  20122664.719 7   -214822.250 7   -146950.29749  20122665.19549
  20862781.961 6   -174496.543 6   -120805.81349  20862778.61349
  21012247.539 6    -99539.387 6    -71229.98847  21012243.46147
  22814207.656 6   -330476.699 6   -227188.48847  22814204.67647
  23960867.602 4   -349436.199 4                
  21779049.492 6   -263018.902 6   -193461.87149  21779049.82049
 20  5 16  5  6 42.0000000  0  6G01G07G11G22G28G30                   0.000126097
  20122028.188 7   -218168.254 7   -149557.57849  20122028.73849
  20862249.398 7   -177294.336 7   -122985.91449  20862246.55949
  21011911.188 6   -101305.277 6    -72606.01647  21011907.47347
  22813200.219 6   -335768.414 6   -231311.89847  22813198.01647
  23959707.156 4   -355535.656 4                
  21778141.227 6   -267792.285 6   -197181.38749  21778141.07849
 20  5 16  5  6 43.0000000  0  6G01G07G11G22G28G30                   0.000123800
  20121391.211 7   -221513.926 7   -152164.59049  20121391.83249
  20861717.289 7   -180091.809 7   -125165.76249  20861714.11349
  21011575.164 6   -103071.238 6    -73982.09847  21011571.48447
  22812193.828 6   -341060.121 6   -235435.30547  22812190.92247
  23958546.586 4   -361635.504 4                
  21777232.695 6   -272565.363 6   -200900.66849  21777233.09449
 20  5 16  5  6 44.0000000  0  6G01G07G11G22G28G30                   0.000121506
  20120754.891 7   -224859.281 7   -154771.36349  20120755.14149
  20861184.945 6   -182888.988 6   -127345.37949  20861181.73449
  21011238.891 6   -104837.207 6    -75358.17647  21011235.54747
  22811186.453 6   -346351.852 6   -239558.73047  22811183.84847
  23957385.680 4   -367735.797 4                
  21776324.242 6   -277338.203 6   -204619.76649  21776324.78149
 20  5 16  5  6 45.0000000  0  6G01G07G11G22G28G30                   0.000119207
  20120118.422 7   -228204.168 7   -157377.77049  20120118.91849
  20860652.813 7   -185685.754 7   -129524.68449  20860649.64549
  21010903.375 6   -106603.102 6    -76734.19547  21010899.62947
  22810179.609 6   -351643.492 6   -243682.09047  22810176.91047
  23956224.453 4   -373836.418 4                
  21775416.172 6   -282110.684 6   -208338.57849  21775416.70349
 20  5 16  5  6 46.0000000  0  6G01G07G11G22G28G30                   0.000116911
  20119481.734 7   -231548.629 7   -159983.84449  20119482.16849
  20860120.930 7   -188482.145 7   -131703.69149  20860117.32849
  21010567.398 6   -108368.906 6    -78110.14847  21010563.39547
  22809173.000 6   -356935.035 6   -247805.37547  22809169.91447
  23955063.750 5   -379937.422 5                
  21774508.242 6   -286882.785 6   -212057.10249  21774508.26249
 20  5 16  5  6 47.0000000  0  6G01G07G11G22G28G30                   0.000114614
  20118845.289 7   -234892.711 7   -162589.62549  20118845.79749
  20859588.719 7   -191278.191 7   -133882.43049  20859585.46149
  21010230.914 6   -110134.738 6    -79486.12147  21010227.77747
  22808165.703 6   -362226.520 6   -251928.60547  22808163.12947
  23953902.516 5   -386038.750 5                
  21773599.883 6   -291654.602 6   -215775.40249  21773600.44149
 20  5 16  5  6 48.0000000  0  6G01G07G11G22G28G30                   0.000112316
  20118209.383 7   -238236.289 7   -165195.00449  20118209.54349
  20859056.789 7   -194073.777 7   -136060.81649  20859053.85249
  21009895.453 6   -111900.430 6    -80861.99247  21009891.32847
  22807158.906 6   -367517.898 6   -256051.75847  22807156.44547
  23952741.570 5   -392140.387 5                
  21772692.117 6   -296426.008 6   -219493.38349  21772692.36349
 20  5 16  5  6 49.0000000  0  6G01G07G11G22G28G30                   0.000110020
  20117572.977 7   -241579.566 7   -167800.15249  20117573.37149
  20858524.719 7   -196869.090 7   -138238.98849  20858521.76249
  21009559.625 6   -113666.168 6    -82237.88347  21009555.29347
  22806152.563 6   -372809.289 6   -260174.91447  22806149.72347
  23951580.172 4   -398242.484 4                
  21771784.734 6   -301197.141 6   -223211.14849  21771784.36749
 20  5 16  5  6 50.0000000  0  6G01G07G11G22G28G30                   0.000107721
  20116936.945 7   -244922.402 7   -170404.96549  20116937.22349
  20857992.703 7   -199664.004 7   -140416.83649  20857990.13349
  21009223.313 6   -115431.863 6    -83613.75447  21009219.40247
  22805145.109 6   -378100.590 6   -264297.99647  22805142.27047
  23950419.250 5   -404344.938 5                
  21770876.117 6   -305967.906 6   -226928.62549  21770876.58249
 20  5 16  5  6 51.0000000  0  6G01G07G11G22G28G30                   0.000105425
  20116300.922 7   -248264.793 7   -173009.43049  20116301.03549
  20857460.938 7   -202458.535 7   -142594.39149  20857458.53549
  21008887.438 6   -117197.422 6    -84989.51647  21008883.27047
  22804138.125 6   -383391.777 6   -268421.00447  22804135.60547
  23949258.242 5   -410447.672 5                
  21769968.328 6   -310738.328 6   -230645.84049  21769968.41849
 20  5 16  5  6 52.0000000  0  6G01G07G11G22G28G30                   0.000103127
  20115664.977 7   -251606.746 7   -175613.54349  20115665.55949
  20856929.406 6   -205252.621 6   -144771.60949  20856926.64549
  21008551.813 6   -118962.949 6    -86365.25847  21008547.39847
  22803131.789 6   -388682.887 6   -272543.94547  22803128.79747
  23948096.695 5   -416550.766 5                
  21769060.922 6   -315508.359 6   -234362.75449  21769060.90249
 20  5 16  5  6 53.0000000  0  6G01G07G11G22G28G30                   0.000100828
  20115029.172 7   -254948.273 7   -178217.33649  20115029.34049
  20856397.563 6   -208046.375 6   -146948.56649  20856394.54749
  21008215.375 6   -120728.410 6    -87740.94147  21008211.41847
  22802124.859 6   -393973.934 6   -276666.84847  22802121.98847
  23946935.383 5   -422654.219 5                
  21768152.898 6   -320278.059 6   -238079.40249  21768153.15649
 20  5 16  5  6 54.0000000  0  6G01G07G11G22G28G30                   0.000098530
  20114393.133 7   -258289.285 7   -180820.71949  20114393.39849
  20855866.117 6   -210839.625 6   -149125.12149  20855863.17249
  21007879.852 6   -122493.738 6    -89116.52347  21007875.21547
  22801117.945 6   -399264.773 6   -280789.58647  22801114.87147
  23945773.984 5   -428757.883 5                
  21767245.320 6   -325047.301 6   -241795.68849  21767245.44549
 20  5 16  5  6 55.0000000  0  6G01G07G11G22G28G30                   0.000096233
  20113757.492 7   -261629.793 7   -183423.71149  20113757.69149
  20855334.891 6   -213632.402 6   -151301.31649  20855331.78949
  21007544.250 6   -124258.910 6    -90491.98447  21007539.46947
  22800111.344 6   -404555.465 6   -284912.19547  22800108.31647
  23944612.125 5   -434861.859 5                
  21766337.727 6   -329816.109 6   -245511.64549  21766337.82049
 20  5 16  5  6 56.0000000  0  6G01G07G11G22G28G30                   0.000093935
  20113121.602 7   -264969.863 7   -186026.36349  20113122.07849
  20854803.430 6   -216424.793 6   -153477.20749  20854800.78949
  21007207.906 6   -126024.012 6    -91867.39847  21007203.34447
  22799104.422 6   -409846.094 6   -289034.75847  22799101.40647
  23943450.945 4   -440966.160 4                
  21765430.820 6   -334584.555 6   -249227.31349  21765430.54349
 20  5 16  5  6 57.0000000  0  6G01G07G11G22G28G30                   0.000091637
  20112486.453 7   -268309.297 7   -188628.52349  20112486.80549
  20854272.070 6   -219216.586 6   -155652.63349  20854269.55549
  21006871.977 6   -127788.852 6    -93242.59047  21006868.00847
  22798097.516 6   -415136.387 6   -293157.07047  22798095.03547
  23942289.242 4   -447070.578 4                
  21764523.273 6   -339352.438 6   -252942.54749  21764523.25449
 20  5 16  5  6 58.0000000  0  6G01G07G11G22G28G30                   0.000089338
  20111851.133 7   -271648.344 7   -191230.37549  20111851.09049
  20853740.594 6   -222008.023 6   -157827.77749  20853738.19549
  21006535.867 6   -129553.664 6    -94617.77047  21006532.27347
  22797090.883 6   -420426.672 6   -297279.37147  22797088.50447
  23941127.766 4   -453175.375 4                
  21763616.086 6   -344120.023 6   -256657.55149  21763615.89849
 20  5 16  5  6 59.0000000  0  6G01G07G11G22G28G30                   0.000087038
  20111215.906 7   -274986.906 7   -193831.84849  20111216.19149
  20853209.828 6   -224799.035 6   -160002.59049  20853206.98049
  21006200.445 6   -131318.371 6    -95992.86347  21006196.43847
  22796084.023 6   -425716.805 6   -301401.54347  22796081.34447
  23939966.063 4   -459280.477 4                
  21762708.977 6   -348887.184 6   -260372.21949  21762708.82049
 20  5 16  5  7  0.0000000  0  6G01G07G11G22G28G30                   0.000084726
  20110580.727 7   -278324.961 7   -196432.93849  20110580.50049
  20852679.180 6   -227589.531 6   -162177.00449  20852675.99649
  21005864.695 6   -133082.934 6    -97367.84847  21005860.55547
  22795077.578 6   -431006.750 6   -305523.57847  22795074.75847
  23938803.414 4   -465385.832 4                
  21761802.422 6   -353653.902 6   -264086.55149  21761801.25449
 20  5 16  5  7  1.0000000  0  6G01G07G11G22G28G30                   0.000082428
  20109945.602 7   -281662.543 7   -199033.65249  20109945.52749
  20852147.969 6   -230379.633 6   -164351.11749  20852144.85249
  21005529.359 6   -134847.395 6    -98742.75047  21005525.14547
  22794071.242 6   -436296.613 6   -309645.55147  22794068.30147
  23937642.039 4   -471491.500 4                
  21760895.000 6   -358420.223 6   -267800.56649  21760894.69949
 20  5 16  5  7  2.0000000  0  6G01G07G11G22G28G30                   0.000080143
  20109310.367 7   -284999.539 7   -201633.90649  20109310.53549
  20851617.234 7   -233169.188 7   -166524.78949  20851614.44949
  21005193.250 6   -136611.629 6   -100117.47347  21005189.19547
  22793063.805 6   -441586.184 6   -313767.28947  22793061.77047
  23936479.922 5   -477597.352 5                
  21759988.102 6   -363186.023 6   -271514.17649  21759987.45749
 20  5 16  5  7  3.0000000  0  6G01G07G11G22G28G30                   0.000077843
  20108675.648 7   -288336.070 7   -204233.80149  20108675.98849
  20851086.352 7   -235958.320 7   -168698.14549  20851083.18049
  21004857.461 6   -138375.742 6   -101492.10547  21004853.36347
  22792057.672 6   -446875.645 6   -317888.94947  22792055.12547
  23935318.344 5   -483703.512 5                
  21759081.523 6   -367951.445 6   -275227.49249  21759080.89149
 20  5 16  5  7  4.0000000  0  6G01G07G11G22G28G30                   0.000075529
  20108040.641 7   -291672.137 7   -206833.33249  20108040.98049
  20850555.227 6   -238747.051 6   -170871.18449  20850552.58649
  21004521.313 6   -140139.789 6   -102866.68847  21004517.82847
  22791051.133 6   -452165.012 6   -322010.53547  22791048.60947
  23934156.570 5   -489809.957 5                
  21758174.617 6   -372716.492 6   -278940.52049  21758174.14549
 20  5 16  5  7  5.0000000  0  6G01G07G11G22G28G30                   0.000073231
  20107405.969 7   -295007.633 7   -209432.42249  20107406.27349
  20850025.266 6   -241535.180 6   -173043.75449  20850022.16849
  21004186.688 6   -141903.641 6   -104241.12147  21004182.58247
  22790044.875 6   -457454.129 6   -326131.93047  22790042.05547
  23932994.570 5   -495916.590 5                
  21757267.555 6   -377481.012 6   -282653.13749  21757267.33649
 20  5 16  5  7  6.0000000  0  6G01G07G11G22G28G30                   0.000070930
  20106771.141 7   -298342.633 7   -212031.11749  20106771.27749
  20849494.398 6   -244322.930 6   -175216.02349  20849491.94149
  21003850.375 6   -143667.336 6   -105615.44147  21003846.67647
  22789038.453 6   -462743.102 6   -330253.20347  22789035.27747
  23931832.672 5   -502023.520 5                
  21756361.320 6   -382245.121 6   -286365.43049  21756360.56349
 20  5 16  5  7  7.0000000  0  6G01G07G11G22G28G30                   0.000068632
  20106136.695 7   -301677.109 7   -214629.41049  20106137.14549
  20848964.070 6   -247110.148 6   -177387.88349  20848961.72749
  21003515.016 6   -145430.875 6   -106989.64547  21003511.23047
  22788031.859 6   -468031.883 6   -334374.32847  22788029.15647
  23930670.398 5   -508130.684 5                
  21755454.570 6   -387008.746 6   -290077.34049  21755454.23049
 20  5 16  5  7  8.0000000  0  6G01G07G11G22G28G30                   0.000066332
  20105501.961 7   -305011.016 7   -217227.26649  20105502.35949
  20848433.883 6   -249896.848 6   -179559.33649  20848431.64149
  21003179.391 6   -147194.242 6   -108363.69547  21003175.31347
  22787025.422 6   -473320.434 6   -338495.27347  22787022.98847
  23929508.336 5   -514238.063 5                
  21754548.188 6   -391771.891 6   -293788.87949  21754547.84049
 20  5 16  5  7  9.0000000  0  6G01G07G11G22G28G30                   0.000064034
  20104868.234 7   -308344.570 7   -219824.83649  20104867.80149
  20847903.445 6   -252683.238 6   -181730.55549  20847900.55949
  21002843.867 6   -148957.613 6   -109737.74247  21002839.84447
  22786018.680 6   -478608.992 6   -342616.22747  22786015.95347
  23928346.625 5   -520345.887 5                
  21753642.203 6   -396534.758 6   -297500.20749  21753641.36349
 20  5 16  5  7 10.0000000  0  6G01G07G11G22G28G30                   0.000061733
  20104233.672 7   -311677.551 7   -222421.96149  20104233.64549
  20847373.758 6   -255469.105 6   -183901.35949  20847370.67649
  21002508.297 6   -150720.750 6   -111111.60547  21002504.16847
  22785012.953 6   -483897.289 6   -346736.98447  22785010.23847
  23927183.758 5   -526453.867 5                
  21752736.039 6   -401297.094 6   -301211.12549  21752735.04349
 20  5 16  5  7 11.0000000  0  6G01G07G11G22G28G30                   0.000059433
  20103599.680 7   -315009.875 7   -225018.57849  20103599.60549
  20846843.742 6   -258254.340 6   -186071.66849  20846840.75049
  21002172.602 6   -152483.633 6   -112485.28947  21002168.39547
  22784006.359 6   -489185.297 6   -350857.50047  22784003.67247
  23926021.625 5   -532561.953 5                
  21751829.711 6   -406058.910 6   -304921.62549  21751829.10549
 20  5 16  5  7 12.0000000  0  6G01G07G11G22G28G30                   0.000057133
  20102965.844 7   -318341.801 7   -227614.88349  20102965.53949
  20846313.773 6   -261039.227 6   -188241.71149  20846310.91449
  21001838.094 6   -154246.473 6   -113858.93047  21001833.34447
  22783000.078 6   -494473.223 6   -354977.96547  22782997.76247
  23924858.867 5   -538670.461 5                
  21750923.156 6   -410820.348 6   -308631.83249  21750922.52349
 20  5 16  5  7 13.0000000  0  6G01G07G11G22G28G30                   0.000054832
  20102331.672 7   -321673.238 7   -230210.81649  20102331.43849
  20845783.406 6   -263823.652 6   -190411.39849  20845780.57049
  21001501.820 6   -156009.199 6   -115232.48447  21001497.82047
  22781994.141 6   -499761.035 6   -359098.33647  22781991.32047
  23923697.289 5   -544779.188 5                
  21750017.531 6   -415581.379 6   -312341.72749  21750016.72749
 20  5 16  5  7 14.0000000  0  6G01G07G11G22G28G30                   0.000052532
  20101697.922 7   -325004.117 7   -232806.30949  20101697.73049
  20845254.398 6   -266607.594 6   -192580.70349  20845250.93049
  21001166.297 6   -157771.730 6   -116605.88747  21001162.77747
  22780987.461 6   -505048.633 6   -363218.54747  22780985.35947
  23922534.664 5   -550888.168 5                
  21749111.219 6   -420341.930 6   -316051.25449  21749110.89149
 20  5 16  5  7 15.0000000  0  6G01G07G11G22G28G30                   0.000050232
  20101063.922 7   -328334.551 7   -235401.44949  20101063.57849
  20844724.336 6   -269391.082 6   -194749.64849  20844721.69949
  21000831.156 6   -159534.168 6   -117979.21147  21000827.35947
  22779981.664 6   -510336.094 6   -367338.64147  22779978.73847
  23921371.992 5   -556997.414 5                
  21748205.516 6   -425102.078 6   -319760.46549  21748205.00849
 20  5 16  5  7 16.0000000  0  6G01G07G11G22G28G30                   0.000047932
  20100430.305 7   -331664.410 7   -237996.14549  20100430.17249
  20844194.734 6   -272174.055 6   -196918.20349  20844191.93849
  21000495.805 6   -161296.418 6   -119352.39147  21000491.66047
  22778975.141 6   -515623.348 6   -371458.58647  22778972.48847
  23920209.078 5   -563106.910 5                
  21747299.922 6   -429861.762 6   -323469.30949  21747299.08249
 20  5 16  5  7 17.0000000  0  6G01G07G11G22G28G30                   0.000045631
  20099796.922 7   -334993.801 7   -240590.47749  20099796.64849
  20843665.234 6   -274956.590 6   -199086.40649  20843662.30149
  21000160.180 6   -163058.559 6   -120725.49247  21000156.39547
  22777969.094 6   -520910.445 6   -375578.39847  22777965.99247
  23919046.695 5   -569216.676 5                
  21746394.633 6   -434621.031 6   -327177.83249  21746393.68849
 20  5 16  5  7 18.0000000  0  6G01G07G11G22G28G30                   0.000043331
  20099163.359 7   -338322.695 7   -243184.41849  20099163.26249
  20843136.266 6   -277738.660 6   -201254.25849  20843132.66049
  20999824.695 6   -164820.563 6   -122098.47747  20999820.98847
  22776963.133 6   -526197.398 6   -379698.10547  22776960.29347
  23917883.727 6   -575326.730 6                
  21745489.313 6   -439379.891 6   -330886.03549  21745487.89149
 20  5 16  5  7 19.0000000  0  6G01G07G11G22G28G30                   0.000041029
  20098530.141 7   -341650.895 7   -245777.81649  20098529.98049
  20842606.695 6   -280520.105 6   -203421.61749  20842603.66849
  20999489.781 6   -166582.270 6   -123471.23447  20999486.62147
  22775957.141 6   -531483.988 6   -383817.52347  22775954.04747
  23916721.219 5   -581436.840 5                
  21744583.578 6   -444138.109 6   -334593.73449  21744582.68849
 20  5 16  5  7 20.0000000  0  6G01G07G11G22G28G30                   0.000038729
  20097896.977 7   -344978.586 7   -248370.82049  20097896.69549
  20842077.250 6   -283301.074 6   -205588.61349  20842074.50049
  20999154.797 6   -168343.805 6   -124843.86347  20999150.85247
  22774951.125 6   -536770.457 6   -387936.84847  22774948.62147
  23915557.914 6   -587547.238 6                
  21743678.305 6   -448895.906 6   -338301.10949  21743677.02349
 20  5 16  5  7 21.0000000  0  6G01G07G11G22G28G30                   0.000036428
  20097263.641 7   -348305.934 7   -250963.56349  20097263.44949
  20841548.656 6   -286081.691 6   -207755.32849  20841545.30149
  20998819.023 6   -170105.348 6   -126216.49247  20998815.57447
  22773945.195 6   -542056.863 6   -392056.12147  22773942.35547
  23914395.508 6   -593658.051 6                
  21742773.180 6   -453653.387 6   -342008.23849  21742771.68049
 20  5 16  5  7 22.0000000  0  6G01G07G11G22G28G30                   0.000034128
  20096630.734 7   -351632.723 7   -253555.86749  20096630.40249
  20841019.133 7   -288861.863 7   -209921.69549  20841016.18049
  20998484.094 6   -171866.742 6   -127589.00447  20998480.72747
  22772939.398 6   -547343.086 6   -396175.26647  22772936.43447
  23913232.875 5   -599769.082 5                
  21741867.703 6   -458410.430 6   -345715.02349  21741866.65649
 20  5 16  5  7 23.0000000  0  6G01G07G11G22G28G30                   0.000031826
  20095997.477 7   -354959.043 7   -256147.80149  20095997.60949
  20840490.781 7   -291641.570 7   -212087.70349  20840487.15249
  20998148.633 6   -173628.039 6   -128961.43847  20998145.69947
  22771933.313 6   -552629.172 6   -400294.28947  22771930.37947
  23912069.867 6   -605880.414 6                
  21740962.172 6   -463167.063 6   -349421.49649  21740961.10249
 20  5 16  5  7 24.0000000  0  6G01G07G11G22G28G30                   0.000029526
  20095364.789 7   -358284.715 7   -258739.23049  20095364.65249
  20839961.953 7   -294420.672 7   -214253.23849  20839958.93049
  20997813.461 6   -175389.023 6   -130333.63747  20997810.35247
  22770927.719 6   -557914.934 6   -404413.07047  22770924.89547
  23910907.102 5   -611991.844 5                
  21740057.563 6   -467923.098 6   -353127.50049  21740056.58649
 20  5 16  5  7 25.0000000  0  6G01G07G11G22G28G30                   0.000027224
  20094732.008 7   -361609.848 7   -261330.25449  20094731.68449
  20839432.680 7   -297199.262 7   -216418.37149  20839429.58649
  20997478.250 6   -177149.895 6   -131705.74647  20997474.82047
  22769921.781 6   -563200.527 6   -408531.71547  22769919.00447
  23909744.094 6   -618103.527 6                
  21739152.109 6   -472678.676 6   -356833.14149  21739151.61749
 20  5 16  5  7 26.0000000  0  6G01G07G11G22G28G30                   0.000024923
  20094099.328 7   -364934.359 7   -263920.77349  20094099.52049
  20838904.258 7   -299977.281 7   -218583.05549  20838901.16449
  20997143.891 6   -178910.461 6   -133077.61347  20997140.05947
  22768916.133 6   -568485.801 6   -412650.10547  22768912.92647
  23908580.688 6   -624215.363 6                
  21738247.609 6   -477433.715 6   -360538.36749  21738246.54349
 20  5 16  5  7 27.0000000  0  6G01G07G11G22G28G30                   0.000022623
  20093466.570 7   -368258.367 7   -266510.91049  20093466.30149
  20838375.547 7   -302754.852 7   -220747.39849  20838372.76249
  20996808.617 6   -180670.910 6   -134449.39547  20996805.32447
  22767910.469 6   -573770.941 6   -416768.38747  22767907.39547
  23907417.969 6   -630327.445 6                
  21737343.055 6   -482188.313 6   -364243.24649  21737341.89149
 20  5 16  5  7 28.0000000  0  6G01G07G11G22G28G30                   0.000020321
  20092833.945 7   -371581.871 7   -269100.65249  20092833.95749
  20837847.336 7   -305531.930 7   -222911.36349  20837843.97749
  20996473.047 6   -182431.215 6   -135821.05547  20996470.27047
  22766904.320 6   -579055.906 6   -420886.53947  22766901.43047
  23906255.117 6   -636439.785 6                
  21736438.039 6   -486942.465 6   -367947.78149  21736437.20749
 20  5 16  5  7 29.0000000  0  6G01G07G11G22G28G30                   0.000018021
  20092201.695 7   -374904.766 7   -271689.92249  20092201.85549
  20837318.773 7   -308308.465 7   -225074.90249  20837315.73049
  20996138.500 6   -184191.297 6   -137192.54747  20996135.11747
  22765898.883 6   -584340.617 6   -425004.50047  22765895.72747
  23905091.016 5   -642552.320 5                
  21735533.453 6   -491696.082 6   -371651.90249  21735532.43449
 20  5 16  5  7 30.0000000  0  6G01G07G11G22G28G30                   0.000015726
  20091569.609 7   -378227.059 7   -274278.72349  20091569.57849
  20836790.492 7   -311084.422 7   -227237.97749  20836787.71149
  20995804.188 6   -185951.133 6   -138563.84047  20995800.53547
  22764892.867 6   -589625.035 6   -429122.22347  22764889.94947
  23903928.586 5   -648664.988 5                
  21734628.820 6   -496449.188 6   -375355.61749  21734628.02049
 20  5 16  5  7 31.0000000  0  6G01G07G11G22G28G30                   0.000013426
  20090937.375 7   -381548.727 7   -276867.03549  20090937.16849
  20836262.398 7   -313859.809 7   -229400.62149  20836259.31649
  20995469.227 6   -187710.723 6   -139934.95747  20995465.53547
  22763887.625 6   -594909.203 6   -433239.75847  22763884.77347
  23902765.141 5   -654777.820 5                
  21733724.516 6   -501201.707 6   -379058.87949  21733723.77749
 20  5 16  5  7 32.0000000  0  6G01G07G11G22G28G30                   0.000011124
  20090305.391 7   -384869.934 7   -279454.98449  20090305.37149
  20835734.570 7   -316634.750 7   -231562.91049  20835731.06649
  20995134.266 6   -189470.227 6   -141305.99247  20995131.07847
  22762882.102 6   -600193.203 6   -437357.16047  22762879.35247
  23901602.461 5   -660890.980 5                
  21732819.703 6   -505953.855 6   -382761.85549  21732819.34449
 20  5 16  5  7 33.0000000  0  6G01G07G11G22G28G30                   0.000008821
  20089673.703 7   -388190.598 7   -282042.52049  20089673.48849
  20835206.109 7   -319409.176 7   -233724.80149  20835203.21549
  20994799.141 6   -191229.512 6   -142676.86347  20994795.78147
  22761877.031 6   -605477.023 6   -441474.42647  22761873.61347
  23900438.711 6   -667004.309 6                
  21731915.508 6   -510705.516 6   -386464.44949  21731914.85549
 20  5 16  5  7 34.0000000  0  6G01G07G11G22G28G30                   0.000006521
  20089041.656 7   -391510.645 7   -284629.57049  20089041.85249
  20834678.781 7   -322183.051 7   -235886.27049  20834675.21149
  20994465.289 6   -192988.586 6   -144047.57847  20994461.42647
  22760871.313 6   -610760.578 6   -445591.47747  22760867.94947
  23899275.688 6   -673117.813 6                
  21731011.680 6   -515456.629 6   -390166.61749  21731011.00049
 20  5 16  5  7 35.0000000  0  6G01G07G11G22G28G30                   0.000004219
  20088410.148 7   -394830.066 7   -287216.13349  20088410.35949
  20834150.852 7   -324956.348 7   -238047.28949  20834147.85249
  20994130.180 6   -194747.402 6   -145418.08647  20994126.59047
  22759866.563 6   -616043.809 6   -449708.27347  22759862.62547
  23898112.125 5   -679231.457 5                
  21730107.555 6   -520207.188 6   -393868.35549  21730107.17649
 20  5 16  5  7 36.0000000  0  6G01G07G11G22G28G30                   0.000001917
  20087778.844 7   -398148.941 7   -289802.26649  20087778.66049
  20833623.063 7   -327729.113 7   -240207.89149  20833620.04349
  20993795.461 6   -196506.027 6   -146788.44147  20993791.90247
  22758860.609 6   -621326.855 6   -453824.93847  22758857.62147
  23896949.219 5   -685345.316 5                
  21729204.227 6   -524957.277 6   -397569.72749  21729203.14149
 20  5 16  5  7 37.0000000  0  6G01G07G11G22G28G30                  -0.000000385
  20087147.195 7   -401467.281 7   -292387.98849  20087147.18449
  20833095.773 7   -330501.445 7   -242368.14549  20833092.84049
  20993460.750 6   -198264.512 6   -148158.68847  20993457.25447
  22757855.031 6   -626609.727 6   -457941.46147  22757852.46147
  23895785.156 5   -691459.430 5                
  21728300.047 6   -529706.922 6   -401270.74249  21728299.21949
 20  5 16  5  7 38.0000000  0  6G01G07G11G22G28G30                  -0.000002687
  20086515.750 7   -404785.102 7   -294973.30549  20086515.91449
  20832568.297 7   -333273.242 7   -244527.98849  20832565.26249
  20993125.563 6   -200022.832 6   -149528.80547  20993122.93447
  22756850.344 6   -631892.391 6   -462057.82847  22756847.00447
  23894621.508 5   -697573.781 5                
  21727396.070 6   -534456.090 6   -404971.39849  21727395.37549
 20  5 16  5  7 39.0000000  0  6G01G07G11G22G28G30                  -0.000004990
  20085884.484 7   -408102.309 7   -297558.14549  20085884.41449
  20832040.703 7   -336044.488 7   -246687.39849  20832037.66049
  20992791.711 6   -201780.895 6   -150898.73047  20992788.23847
  22755845.445 6   -637174.797 6   -466173.99247  22755841.95747
  23893457.766 5   -703688.277 5                
  21726492.227 6   -539204.723 6   -408671.62949  21726491.65249
 20  5 16  5  7 40.0000000  0  6G01G07G11G22G28G30                  -0.000007292
  20085253.266 7   -411418.918 7   -300142.52049  20085253.46149
  20831513.414 7   -338815.180 7   -248846.37549  20831510.47749
  20992456.766 6   -203538.742 6   -152268.46947  20992453.87547
  22754839.523 6   -642456.938 6   -470289.94147  22754836.77047
  23892293.898 6   -709802.930 6                
  21725588.906 6   -543952.809 6   -412371.43449  21725588.33249
 20  5 16  5  7 41.0000000  0  6G01G07G11G22G28G30                  -0.000009594
  20084622.492 7   -414734.957 7   -302726.44149  20084622.55149
  20830985.891 6   -341585.301 6   -251004.91049  20830982.96949
  20992122.703 6   -205296.359 6   -153638.03947  20992119.15247
  22753834.148 6   -647738.840 6   -474405.70747  22753831.28547
  23891130.000 6   -715917.781 6                
  21724685.828 6   -548700.391 6   -416070.85949  21724684.46149
 20  5 16  5  7 42.0000000  0  6G01G07G11G22G28G30                  -0.000011896
  20083991.766 7   -418050.371 7   -305309.88749  20083991.33649
  20830459.219 7   -344354.871 7   -253163.02349  20830456.71149
  20991788.180 6   -207053.761 6   -155007.44947  20991784.81347
  22752830.125 6   -653020.461 6   -478521.25847  22752825.98047
  23889967.125 5   -722032.781 5                
  21723782.109 6   -553447.441 6   -419769.85949  21723781.23449
 20  5 16  5  7 43.0000000  0  6G01G07G11G22G28G30                  -0.000014198
  20083360.820 7   -421365.367 7   -307892.99649  20083360.69949
  20829932.203 7   -347124.051 7   -255320.82449  20829929.11349
  20991453.914 6   -208811.090 6   -156376.79347  20991450.52747
  22751824.703 6   -658302.008 6   -482636.74647  22751821.31647
  23888803.320 5   -728148.152 5                
  21722878.820 6   -558194.148 6   -423468.59849  21722877.62549
 20  5 16  5  7 44.0000000  0  6G01G07G11G22G28G30                  -0.000016500
  20082729.859 7   -424679.832 7   -310475.69549  20082729.68849
  20829405.617 7   -349892.766 7   -257478.26249  20829402.69549
  20991118.742 6   -210568.246 6   -157746.00047  20991115.89547
  22750819.969 6   -663583.355 6   -486752.08247  22750816.23047
  23887639.461 6   -734263.730 6                
  21721975.766 6   -562940.367 6   -427166.94949  21721974.85549
 20  5 16  5  7 45.0000000  0  6G01G07G11G22G28G30                  -0.000018805
  20082099.422 7   -427993.711 7   -313057.94149  20082099.02349
  20828878.680 6   -352660.910 6   -259635.26649  20828875.69949
  20990785.219 6   -212325.191 6   -159115.05547  20990782.06647
  22749814.508 6   -668864.465 6   -490867.23847  22749811.24247
  23886475.555 5   -740379.520 5                
  21721072.820 6   -567686.082 6   -430864.90649  21721071.75449
 20  5 16  5  7 46.0000000  0  6G01G07G11G22G28G30                  -0.000021107
  20081469.258 7   -431307.184 7   -315639.86349  20081468.83249
  20828351.906 6   -355428.707 6   -261791.98449  20828349.16049
  20990450.836 6   -214082.113 6   -160484.09447  20990447.21547
  22748809.906 6   -674145.520 6   -494982.35247  22748806.59047
  23885311.719 5   -746495.637 5                
  21720169.703 6   -572431.473 6   -434562.61349  21720168.62149
 20  5 16  5  7 47.0000000  0  6G01G07G11G22G28G30                  -0.000023411
  20080838.773 7   -434620.113 7   -318221.37149  20080838.69949
  20827825.320 6   -358195.965 6   -263948.29749  20827822.75049
  20990116.414 6   -215838.828 6   -161852.96147  20990113.15247
  22747805.023 6   -679426.348 6   -499097.28947  22747800.98847
  23884148.516 5   -752611.980 5                
  21719266.844 6   -577176.379 6   -438259.94949  21719265.80549
 20  5 16  5  7 48.0000000  0  6G01G07G11G22G28G30                  -0.000025713
  20080208.445 7   -437932.414 7   -320802.38749  20080207.97749
  20827298.664 6   -360962.668 6   -266104.17649  20827296.04349
  20989782.125 6   -217595.320 6   -163221.64847  20989779.17247
  22746799.656 6   -684706.887 6   -503211.99647  22746796.20747
  23882984.188 5   -758728.469 5                
  21718364.031 6   -581920.727 6   -441956.84449  21718362.71949
 20  5 16  5  7 49.0000000  0  6G01G07G11G22G28G30                  -0.000028015
  20079578.273 7   -441244.086 7   -323382.91449  20079577.86749
  20826772.742 6   -363728.793 6   -268259.60249  20826769.82849
  20989447.742 6   -219351.551 6   -164590.13747  20989444.89547
  22745795.281 6   -689987.137 6   -507326.47347  22745791.62947
  23881819.984 6   -764845.141 6                
  21717461.031 6   -586664.508 6   -445653.29349  21717460.46949
 20  5 16  5  7 50.0000000  0  7G01G03G07G11G22G28G30               -0.000030319
  20078948.359 7   -444555.102 7   -325962.92249  20078947.77349
  23559252.16411   -173419.45711    -90378.03956  23559248.33256
  20826246.102 6   -366494.289 6   -270414.53549  20826243.74649
  20989113.117 6   -221107.484 6   -165958.40647  20989110.13347
  22744790.086 6   -695267.094 6   -511440.72747  22744786.62947
  23880656.211 6   -770961.891 6                
  21716558.375 6   -591407.730 6   -449349.31349  21716557.67249
 20  5 16  5  7 51.0000000  0  7G01G03G07G11G22G28G30               -0.000032623
  20078318.289 7   -447865.566 7   -328542.50849  20078318.13349
  23558038.844 2   -179794.629 2    -95345.69146  23558034.70346
  20825719.625 6   -369259.223 6   -272569.02749  20825717.82049
  20988779.555 6   -222863.191 6   -167326.49247  20988776.72347
  22743785.813 6   -700546.758 6   -515554.74647  22743782.15647
  23879492.141 5   -777078.820 5                
  21715656.188 6   -596150.402 6   -453044.90249  21715654.80149
 20  5 16  5  7 52.0000000  0  7G01G03G07G11G22G28G30               -0.000034925
  20077688.094 7   -451175.477 7   -331121.66049  20077687.82049
  23556825.844 2   -186169.938 2   -100313.46546  23556821.96546
  20825193.852 6   -372023.680 6   -274723.14849  20825191.41449
  20988445.297 6   -224618.758 6   -168694.47347  20988442.78947
  22742781.289 6   -705826.242 6   -519668.63347  22742777.59447
  23878327.547 5   -783195.969 5                
  21714753.406 6   -600892.629 6   -456740.14549  21714752.25449
 20  5 16  5  7 53.0000000  0  7G01G03G07G11G22G28G30               -0.000037228
  20077058.242 7   -454484.781 7   -333700.33649  20077058.00049
  23555613.594 1   -192545.336 1   -105281.32846  23555608.41046
  20824667.883 6   -374787.602 6   -276876.85949  20824665.34849
  20988111.563 6   -226374.102 6   -170062.26647  20988108.40647
  22741776.453 6   -711105.469 6   -523782.30947  22741772.53547
  23877163.180 5   -789313.332 5    -13372.78157  23877158.42657
  21713850.992 6   -605634.316 6   -460434.96549  21713850.24649
 20  5 16  5  7 54.0000000  0  7G01G03G07G11G22G28G30               -0.000039532
  20076428.844 7   -457793.465 7   -336278.53549  20076428.27349
  23554401.430 1   -198920.645 1   -110249.09846  23554395.45346
  20824142.086 6   -377550.914 6   -279030.09049  20824139.72349
  20987777.102 6   -228129.156 6   -171429.83647  20987774.51647
  22740772.516 6   -716384.402 6   -527895.75847  22740768.12947
  23875999.305 5   -795430.781 5                
  21712948.703 6   -610375.438 6   -464129.34449  21712947.91449
 20  5 16  5  7 55.0000000  0  7G01G03G07G11G22G28G30               -0.000041836
  20075799.563 7   -461101.719 7   -338856.39549  20075799.16849
  23553187.219 1   -205296.262 1   -115217.08646  23553182.74646
  20823616.258 6   -380313.844 6   -281183.01649  20823613.65649
  20987443.336 6   -229884.195 6   -172797.39547  20987440.40247
  22739767.680 6   -721663.242 6   -532009.14147  22739763.95747
  23874835.461 5   -801548.621 5                
  21712047.172 6   -615116.203 6   -467823.44549  21712045.99249
 20  5 16  5  7 56.0000000  0  7G01G03G07G11G22G28G30               -0.000044138
  20075169.969 7   -464409.367 7   -341433.78149  20075169.64549
  23551972.922 1   -211671.859 1   -120185.07446  23551969.45346
  20823090.992 6   -383076.191 6   -283335.50049  20823087.97749
  20987109.039 6   -231638.930 6   -174164.71947  20987106.22347
  22738763.047 6   -726941.793 6   -536122.29747  22738759.42647
  23873670.906 5   -807666.602 5                
  21711144.430 6   -619856.434 6   -471517.13749  21711143.95749
 20  5 16  5  7 57.0000000  0  7G01G03G07G11G22G28G30               -0.000046442
  20074540.406 7   -467716.336 7   -344010.64149  20074540.32049
  23550759.602 1   -218047.449 1   -125153.04746  23550756.18046
  20822565.047 6   -385837.918 6   -285487.49649  20822562.91449
