     2.10           OBSERVATION DATA    GPS(GPS)            RINEX VERSION / TYPE
cnvtToRINEX 3.07.0  convertToRINEX OPR  19-May-20 12:31 UTC PGM / RUN BY / DATE 
----------------------------------------------------------- COMMENT             
AG17                                                        MARKER NAME         
AG17                                                        MARKER NUMBER       
GNSS Observer       Trimble                                 OBSERVER / AGENCY   
0220365401          TRIMBLE 5700        2.32                REC # / TYPE / VERS 
                    UNKNOWN EXT                             ANT # / TYPE        
 -3050989.6821  4927817.4685  2653598.6256                  APPROX POSITION XYZ 
        0.0000        0.0000        0.0000                  ANTENNA: DELTA H/E/N
     1     1     0                                          WAVELENGTH FACT L1/2
     4    C1    L1    L2    P2                              # / TYPES OF OBSERV 
  2020     5    16     0     3   25.0000000     GPS         TIME OF FIRST OBS   
  2020     5    16     1    33   54.0000000     GPS         TIME OF LAST OBS    
     0                                                      RCV CLOCK OFFS APPL 
    18                                                      LEAP SECONDS        
    13                                                      # OF SATELLITES     
   G03   550   549   537   537                              PRN / # OF OBS      
   G04  5411  5411  5411  5411                              PRN / # OF OBS      
   G08  5405  5405  5405  5405                              PRN / # OF OBS      
   G09  2915  2915  2915  2915                              PRN / # OF OBS      
   G11  1805  1805  1805  1805                              PRN / # OF OBS      
   G14  3562  3562  3562  3562                              PRN / # OF OBS      
   G16  5430  5430  5430  5430                              PRN / # OF OBS      
   G18    93    93    93    93                              PRN / # OF OBS      
   G21  4437  4437  4437  4437                              PRN / # OF OBS      
   G26  5430  5430  5430  5430                              PRN / # OF OBS      
   G27  5430  5430  5430  5430                              PRN / # OF OBS      
   G31  5430  5430  5430  5430                              PRN / # OF OBS      
   G32   417   417   417   417                              PRN / # OF OBS      
CARRIER PHASE MEASUREMENTS: PHASE SHIFTS REMOVED            COMMENT             
                                                            END OF HEADER       
 20  5 16  0  3 25.0000000  0  5G14G16G26G27G31                     -0.000058556
  21824891.64116     77811.28116     40104.56357  21824888.82457
  20619898.43016    -36307.75416    -19975.62558  20619894.53958
  21046860.25016     20865.22316     11348.61759  21046860.18859
  21469077.10216   -160215.69916    -83257.36359  21469075.79759
  21712856.12516     10132.00416     -1970.25459  21712853.25059
 20  5 16  0  3 26.0000000  0  5G14G16G26G27G31                     -0.000059158
  21825248.484 6     79686.629 6     41565.87147  21825245.37947
  20619720.031 6    -37245.133 6    -20706.05148  20619716.00448
  21046956.031 6     21367.711 6     11740.16449  21046955.64149
  21468340.172 6   -164086.461 6    -86273.53949  21468339.23049
  21712837.469 6     10033.305 6     -2047.16449  21712834.30149
 20  5 16  0  3 27.0000000  0  5G14G16G26G27G31                     -0.000059759
  21825605.703 6     81561.918 6     43027.13347  21825602.51647
  20619541.758 6    -38182.633 6    -21436.57448  20619537.89548
  21047051.258 6     21869.902 6     12131.48449  21047050.96549
  21467603.789 6   -167957.273 6    -89289.75849  21467602.50049
  21712818.344 6      9934.316 6     -2124.30149  21712815.12149
 20  5 16  0  3 28.0000000  0  5G14G16G26G27G31                     -0.000060362
  21825962.719 6     83437.113 6     44488.32047  21825959.16447
  20619363.516 6    -39120.262 6    -22167.19548  20619359.23448
  21047146.641 6     22371.719 6     12522.50449  21047146.55149
  21466867.461 6   -171828.125 6    -92306.00849  21466865.80549
  21712799.813 6      9835.051 6     -2201.65649  21712796.80949
 20  5 16  0  3 29.0000000  0  5G14G16G26G27G31                     -0.000060963
  21826319.484 6     85312.230 6     45949.45347  21826316.21147
  20619184.883 6    -40057.949 6    -22897.85948  20619181.14848
  21047242.250 6     22873.266 6     12913.32049  21047241.70349
  21466130.398 6   -175699.027 6    -95322.29749  21466129.35549
  21712780.906 6      9735.563 6     -2279.18049  21712777.27349
 20  5 16  0  3 30.0000000  0  5G14G16G26G27G31                     -0.000061565
  21826675.758 6     87187.410 6     47410.63347  21826673.03947
  20619005.977 6    -40995.605 6    -23628.50448  20619002.68848
  21047337.586 6     23374.586 6     13303.95749  21047336.91049
  21465394.070 6   -179569.836 6    -98338.50849  21465392.67649
  21712762.305 6      9635.895 6     -2356.84049  21712758.51649
 20  5 16  0  3 31.0000000  0  5G14G16G26G27G31                     -0.000062168
  21827033.016 6     89062.645 6     48871.85947  21827029.68847
  20618827.492 6    -41933.227 6    -24359.11748  20618824.12548
  21047432.789 6     23875.738 6     13694.46949  21047432.37149
  21464657.539 6   -183440.547 6   -101354.64849  21464656.32849
  21712743.289 6      9536.105 6     -2434.60249  21712739.46949
 20  5 16  0  3 32.0000000  0  5G14G16G26G27G31                     -0.000062771
  21827389.781 6     90937.816 6     50333.03147  21827386.32047
  20618649.688 6    -42870.945 6    -25089.80548  20618645.75848
  21047528.320 6     24376.559 6     14084.71949  21047527.91049
  21463920.945 6   -187311.281 6   -104370.80949  21463919.66449
  21712723.609 6      9436.039 6     -2512.57849  21712720.30949
 20  5 16  0  3 33.0000000  0  5G14G16G26G27G31                     -0.000063374
  21827746.773 6     92812.988 6     51794.21147  21827743.06647
  20618470.953 6    -43808.660 6    -25820.49248  20618467.38748
  21047623.586 6     24877.168 6     14474.80949  21047623.05149
  21463184.445 6   -191181.953 6   -107386.91849  21463183.43849
  21712704.977 6      9335.840 6     -2590.65649  21712701.77749
 20  5 16  0  3 34.0000000  0  5G14G16G26G27G31                     -0.000063978
  21828103.227 6     94688.270 6     53255.46947  21828100.22747
  20618292.195 6    -44746.313 6    -26551.12548  20618288.52348
  21047718.391 6     25377.637 6     14864.78149  21047718.39849
  21462447.859 6   -195052.516 6   -110402.93849  21462447.01249
  21712685.633 6      9235.551 6     -2668.81349  21712682.50849
 20  5 16  0  3 35.0000000  0  5G14G16G26G27G31                     -0.000064581
  21828459.891 6     96563.496 6     54716.67647  21828456.85547
  20618113.875 6    -45684.043 6    -27281.82848  20618110.39848
  21047814.008 6     25877.785 6     15254.50449  21047813.81349
  21461711.453 6   -198923.086 6   -113418.96949  21461710.12549
  21712666.531 6      9134.984 6     -2747.17249  21712663.29749
 20  5 16  0  3 36.0000000  0  5G14G16G26G27G31                     -0.000065186
  21828816.992 6     98438.734 6     56177.89547  21828813.80147
  20617935.805 6    -46621.789 6    -28012.53948  20617932.26648
  21047909.211 6     26377.695 6     15644.04749  21047908.59049
  21460974.867 6   -202793.613 6   -116434.96549  21460973.78549
  21712647.516 6      9034.246 6     -2825.66449  21712644.05149
 20  5 16  0  3 37.0000000  0  6G03G14G16G26G27G31                  -0.000065790
  24316717.73414     21343.15614      9936.91057  24316717.84457
  21829173.555 6    100314.020 6     57639.15647  21829170.69947
  20617756.891 6    -47559.535 6    -28743.25048  20617753.44548
  21048004.266 6     26877.422 6     16033.43849  21048004.10949
  21460237.930 6   -206664.043 6   -119450.88349  21460237.40649
  21712628.031 6      8933.355 6     -2904.27749  21712624.64149
 20  5 16  0  3 38.0000000  0  6G03G14G16G26G27G31                  -0.000066441
  24316825.227 2     21905.082 2     10374.78547  24316824.55947
  21829530.914 6    102189.430 6     59100.51247  21829527.74247
  20617578.484 6    -48497.066 6    -29473.80148  20617575.17248
  21048099.398 6     27377.031 6     16422.75049  21048099.36349
  21459501.883 6   -210534.324 6   -122466.69149  21459500.76649
  21712608.938 6      8832.457 6     -2982.90249  21712605.41449
 20  5 16  0  3 39.0000000  0  6G03G14G16G26G27G31                  -0.000067045
  24316932.523 1     22466.992 1     10812.57446  24316931.49646
  21829887.484 6    104064.906 6     60561.92647  21829884.63347
  20617400.422 6    -49434.656 6    -30204.38748  20617396.72748
  21048194.422 6     27876.480 6     16811.92249  21048194.02749
  21458765.063 6   -214404.477 6   -125482.39149  21458764.32849
  21712589.594 7      8731.395 7     -3061.66449  21712586.32049
 20  5 16  0  3 40.0000000  0  6G03G14G16G26G27G31                  -0.000067650
  24317039.375 2     23028.891 2                
  21830244.563 6    105940.465 6     62023.42247  21830241.60547
  20617222.109 6    -50372.172 6    -30934.92248  20617218.25448
  21048289.234 6     28375.711 6     17200.93849  21048288.89549
  21458029.039 6   -218274.535 6   -128498.01649  21458027.60249
  21712570.750 6      8630.215 6     -3140.50049  21712567.62149
 20  5 16  0  3 41.0000000  0  6G03G14G16G26G27G31                  -0.000068254
  24317146.516 2     23590.707 2                
  21830601.172 6    107816.184 6     63485.03947  21830598.61747
  20617043.320 6    -51309.613 6    -31665.39548  20617039.34048
  21048384.414 6     28874.848 6     17589.87149  21048384.10549
  21457292.195 6   -222144.402 6   -131513.48849  21457291.30549
  21712551.320 7      8529.008 7     -3219.36749  21712547.59449
 20  5 16  0  3 42.0000000  0  6G03G14G16G26G27G31                  -0.000068859
  24317253.336 1     24152.422 1                
  21830958.078 6    109691.977 6     64946.69947  21830955.54747
  20616865.570 6    -52246.965 6    -32395.79748  20616861.60248
  21048479.219 6     29373.813 6     17978.68049  21048479.11349
  21456556.344 6   -226014.180 6   -134528.89849  21456554.81349
  21712531.641 7      8427.660 7     -3298.34449  21712528.41849
 20  5 16  0  3 43.0000000  0  6G03G14G16G26G27G31                  -0.000069464
  24317359.688 1     24714.164 1                
  21831314.945 6    111567.867 6     66408.42247  21831312.49247
  20616687.031 6    -53184.258 6    -33126.15248  20616682.85548
  21048574.109 6     29872.672 6     18367.39149  21048574.02749
  21455819.633 6   -229883.773 6   -137544.15649  21455818.44149
  21712512.586 7      8326.273 7     -3377.34449  21712509.45749
 20  5 16  0  3 44.0000000  0  7G03G04G14G16G26G27G31               -0.000070074
  24317466.227 1     25275.930 1                
  22753992.99213   -145658.61713    -66160.45756  22753990.73056
  21831672.141 6    113443.996 6     67870.33247  21831669.23847
  20616508.586 6    -54121.297 6    -33856.30948  20616505.00448
  21048669.336 6     30371.523 6     18756.10549  21048668.80549
  21455083.648 6   -233753.086 6   -140559.20749  21455081.95349
  21712493.242 7      8224.934 7     -3456.30949  21712490.03149
 20  5 16  0  3 45.0000000  0  7G03G04G14G16G26G27G31               -0.000070679
  24317573.641 1     25837.738 1                
  22753291.359 3   -149348.539 3    -69035.73846  22753289.00446
  21832028.773 6    115320.277 6     69332.36347  21832026.17247
  20616329.922 6    -55058.270 6    -34586.41448  20616326.19548
  21048763.922 6     30870.219 6     19144.69949  21048763.95749
  21454347.086 6   -237622.242 6   -143574.14149  21454345.85549
  21712474.055 6      8123.512 6     -3535.33649  21712471.10949
 20  5 16  0  3 46.0000000  0  7G03G04G14G16G26G27G31               -0.000071285
  24317680.773 1     26399.453 1                
  22752588.891 2   -153038.266 2    -71910.87146  22752586.81646
  21832385.492 6    117196.648 6     70794.46947  21832383.66847
  20616151.844 6    -55995.129 6    -35316.44148  20616148.34848
  21048859.141 6     31368.793 6     19533.19949  21048858.73049
  21453610.969 6   -241491.227 6   -146588.93849  21453609.41449
  21712454.906 6      8022.031 6     -3614.41449  21712451.65649
 20  5 16  0  3 47.0000000  0  7G03G04G14G16G26G27G31               -0.000071901
  24317788.48411                                
  22751886.102 2   -156728.137 2    -74786.08246  22751884.90646
  21832743.031 6    119072.992 6     72256.55147  21832740.62147
  20615973.500 6    -56932.063 6    -36046.51648  20615969.53148
  21048953.281 6     31867.078 6     19921.47749  21048953.44549
  21452874.477 6   -245360.262 6   -149603.77049  21452873.35549
  21712435.414 6      7920.320 6     -3693.67249  21712431.89149
 20  5 16  0  3 48.0000000  0  7G03G04G14G16G26G27G31               -0.000072496
  24317894.898 1     27522.512 1                
  22751184.164 2   -160417.852 2    -77661.20745  22751182.40245
  21833100.148 6    120949.523 6     73718.78147  21833098.01247
  20615795.031 6    -57868.828 6    -36776.46548  20615791.34848
  21049047.828 6     32365.336 6     20309.72749  21049048.31649
  21452138.555 6   -249229.023 6   -152618.39849  21452137.18849
  21712415.938 6      7818.613 6     -3772.93049  21712412.58249
 20  5 16  0  3 49.0000000  0  7G03G04G14G16G26G27G31               -0.000073103
  24318001.109 1     28084.219 1                
  22750482.398 5   -164107.395 5    -80536.15246  22750480.51246
  21833457.414 6    122826.340 6     75181.21547  21833455.23847
  20615617.148 6    -58805.441 6    -37506.28948  20615613.15648
  21049143.148 6     32863.555 6     20697.94549  21049143.13349
  21451401.992 6   -253097.465 6   -155632.77049  21451401.07049
  21712396.781 6      7716.984 6     -3852.12549  21712393.00449
 20  5 16  0  3 50.0000000  0  9G03G04G08G14G16G26G27G31G32         -0.000073711
  24318106.930 2     28645.879 2                
  22749780.695 5   -167796.848 5    -83411.02346  22749778.45746
  23805663.54714   -127483.09414    -70085.26258  23805664.90258
  21833814.930 6    124703.191 6     76643.68847  21833812.11747
  20615438.977 6    -59741.914 6    -38236.00848  20615434.81648
  21049237.789 6     33361.633 6     21086.05949  21049237.64549
  21450666.219 6   -256965.840 6   -158647.09849  21450664.97349
  21712377.195 6      7615.207 6     -3931.43849  21712373.91049
  23876090.09415     71935.44915     37633.65257  23876091.10557
 20  5 16  0  3 51.0000000  0  9G03G04G08G14G16G26G27G31G32         -0.000074318
  24318213.555 4     29207.453 4                
  22749077.969 5   -171486.082 5    -86285.73846  22749076.50846
  23804772.148 4   -132171.492 4    -73738.56348  23804772.91848
  21834172.492 6    126580.262 6     78106.32847  21834169.07047
  20615260.867 6    -60678.223 6    -38965.60548  20615256.96948
  21049332.844 6     33859.656 6     21474.12949  21049332.76649
  21449930.180 6   -260833.973 6   -161661.23049  21449929.10249
  21712358.102 6      7513.492 6     -4010.70749  21712354.30549
  23876603.242 5     74633.441 5     39735.98447  23876604.26647
 20  5 16  0  3 52.0000000  0  9G03G04G08G14G16G26G27G31G32         -0.000074924
  24318320.703 4     29769.074 4                
  22748376.219 5   -175175.176 5    -89160.35247  22748374.29747
  23803879.742 4   -136860.039 4    -77391.96948  23803880.69548
  21834529.422 6    128457.473 6     79569.07847  21834526.51247
  20615083.000 6    -61614.406 6    -39695.10948  20615078.70348
  21049427.945 6     34357.594 6     21862.12549  21049427.37949
  21449194.102 6   -264701.914 6   -164675.21149  21449192.62149
  21712338.898 6      7411.699 6     -4090.02049  21712335.20349
  23877116.414 5     77331.309 5     41838.21547  23877117.43047
 20  5 16  0  3 53.0000000  0  9G03G04G08G14G16G26G27G31G32         -0.000075531
  24318427.828 4     30330.609 4     11250.05158  24318427.04758
  22747674.063 5   -178864.184 5    -92034.91847  22747672.07447
  23802987.695 4   -141548.730 4    -81045.48848  23802989.02748
  21834886.781 6    130334.809 6     81031.94547  21834883.49647
  20614904.633 6    -62550.477 6    -40424.51648  20614900.47748
  21049522.250 6     34855.410 6     22250.03149  21049522.10549
  21448458.000 6   -268569.676 6   -167689.04749  21448456.55549
  21712319.531 6      7309.863 6     -4169.37549  21712315.81349
  23877630.031 5     80029.020 5     43940.32047  23877630.91447
 20  5 16  0  3 54.0000000  0  9G03G04G08G14G16G26G27G31G32         -0.000076138
  24318534.188 4     30892.105 4     11687.60948  24318534.20748
  22746972.250 5   -182553.109 5    -94909.41447  22746970.65247
  23802095.516 4   -146237.570 4    -84699.12948  23802096.21548
  21835243.742 6    132212.242 6     82494.88347  21835240.72347
  20614726.242 6    -63486.473 6    -41153.86348  20614722.87148
  21049616.789 6     35353.074 6     22637.83249  21049617.05549
  21447721.852 6   -272437.289 6   -170702.77049  21447720.56649
  21712300.125 6      7207.938 6     -4248.79349  21712296.65249
  23878143.539 5     82726.555 5     46042.28947  23878144.27747
 20  5 16  0  3 55.0000000  0  9G03G04G08G14G16G26G27G31G32         -0.000076746
  24318640.922 4     31453.660 4     12125.21548  24318641.43448
  22746269.938 5   -186241.863 5    -97783.77747  22746268.28147
  23801202.914 4   -150926.523 4    -88352.84848  23801203.62148
  21835601.109 6    134089.863 6     83957.96547  21835598.28547
  20614548.203 6    -64422.316 6    -41883.09048  20614544.27748
  21049711.609 6     35850.676 6     23025.57449  21049711.55149
  21446985.750 6   -276304.680 6   -173716.32449  21446984.68449
  21712280.570 6      7106.012 6     -4328.21949  21712277.09049
  23878656.453 5     85423.977 5     48144.16847  23878657.50047
 20  5 16  0  3 56.0000000  0  9G03G04G08G14G16G26G27G31G32         -0.000077353
  24318749.055 4     32015.223 4     12562.80548  24318748.78148
  22745568.086 5   -189930.465 5   -100658.02047  22745566.53547
  23800310.602 4   -155615.574 4    -92006.65648  23800311.90248
  21835958.594 6    135967.707 6     85421.21947  21835955.64847
  20614370.469 6    -65357.977 6    -42612.18448  20614366.75048
  21049806.297 6     36348.238 6     23413.27749  21049806.33649
  21446249.898 6   -280171.840 6   -176729.69949  21446248.71949
  21712261.414 6      7004.109 6     -4407.62149  21712257.85549
  23879170.086 5     88121.328 5     50245.99647  23879170.77347
 20  5 16  0  3 57.0000000  0  9G03G04G08G14G16G26G27G31G32         -0.000077959
  24318855.234 4     32576.832 4     13000.42248  24318855.19548
  22744866.133 5   -193618.871 5   -103532.10547  22744864.63747
  23799418.602 4   -160304.629 4    -95660.45748  23799419.39148
  21836316.023 6    137845.742 6     86884.62547  21836313.03547
  20614192.328 6    -66293.453 6    -43341.12548  20614188.50848
  21049900.836 6     36845.773 6     23800.97349  21049900.88749
  21445513.813 6   -284038.738 6   -179742.86349  21445513.19149
  21712241.969 6      6902.234 6     -4487.00849  21712238.15649
  23879683.500 5     90818.602 5     52347.75847  23879684.12947
 20  5 16  0  3 58.0000000  0  9G03G04G08G14G16G26G27G31G32         -0.000078568
  24318961.875 4     33138.391 4     13437.98848  24318962.13748
  22744164.438 5   -197307.203 5   -106406.12947  22744163.02347
  23798525.992 4   -164993.898 4    -99314.43448  23798526.88348
  21836673.352 6    139723.871 6     88348.08647  21836670.24247
  20614014.492 6    -67228.836 6    -44069.99648  20614010.10548
  21049995.383 6     37343.148 6     24188.53549  21049995.55549
  21444778.188 6   -287905.496 6   -182755.92649  21444777.23849
  21712222.656 6      6800.266 6     -4566.46949  21712218.93449
  23880196.352 5     93515.695 5     54449.39547  23880197.20347
 20  5 16  0  3 59.0000000  0  9G03G04G08G14G16G26G27G31G32         -0.000079176
  24319068.773 4     33700.039 4     13875.63348  24319069.06648
  22743462.750 5   -200995.328 5   -109279.99247  22743460.90647
  23797634.125 4   -169683.195 4   -102968.43048  23797634.38348
  21837030.758 6    141602.223 6     89811.74247  21837027.23847
  20613836.742 6    -68164.035 6    -44798.71548  20613832.59848
  21050090.492 6     37840.527 6     24576.10249  21050089.94149
  21444042.695 6   -291771.977 6   -185768.76249  21444041.23449
  21712202.805 6      6698.332 6     -4645.90249  21712199.87149
  23880709.359 5     96212.723 5     56550.97747  23880710.70347
 20  5 16  0  4  0.0000000  0  9G03G04G08G14G16G26G27G31G32         -0.000079784
  24319176.219 4     34261.629 4     14313.23448  24319176.21948
  22742760.734 5   -204683.332 5   -112153.75047  22742758.97747
  23796741.695 4   -174372.629 4   -106622.53948  23796741.84848
  21837388.117 6    143480.742 6     91275.52047  21837384.88747
  20613658.633 6    -69099.102 6    -45527.34048  20613654.73848
  21050185.094 6     38337.785 6     24963.57449  21050184.55949
  21443306.836 6   -295638.281 6   -188781.46949  21443305.47349
  21712183.734 6      6596.383 6     -4725.34449  21712180.12949
  23881222.602 5     98909.637 5     58652.46947  23881223.88747
 20  5 16  0  4  1.0000000  0  9G03G04G08G14G16G26G27G31G32         -0.000080391
  24319282.586 4     34823.316 4     14750.90247  24319282.68047
  22742058.938 5   -208371.137 5   -115027.35247  22742057.30547
  23795849.000 4   -179062.168 4   -110276.72748  23795849.88748
  21837745.961 6    145359.457 6     92739.46147  21837742.56347
  20613480.516 6    -70033.980 6    -46255.81348  20613476.32048
  21050279.445 6     38835.020 6     25351.02349  21050279.35949
  21442571.445 6   -299504.336 6   -191793.97749  21442569.64549
  21712164.258 6      6494.441 6     -4804.77349  21712160.91449
  23881736.469 5    101606.449 5     60753.87947  23881736.74247
 20  5 16  0  4  2.0000000  0  9G03G04G08G14G16G26G27G31G32         -0.000080999
  24319389.641 4     35385.090 4     15188.64147  24319390.00447
  22741357.641 5   -212058.703 5   -117900.77747  22741355.55147
  23794956.797 4   -183751.641 4   -113930.85948  23794957.44948
  21838103.492 6    147238.434 6     94203.59447  21838100.38747
  20613302.617 6    -70968.617 6    -46984.10248  20613298.66048
  21050373.844 6     39332.277 6     25738.49649  21050374.33249
  21441835.930 6   -303370.070 6   -194806.23449  21441834.04349
  21712144.625 6      6392.574 6     -4884.15249  21712141.55549
  23882248.875 5    104303.281 5     62855.30547  23882250.43047
 20  5 16  0  4  3.0000000  0  9G03G04G08G14G16G26G27G31G32         -0.000081608
  24319497.063 4     35946.914 4     15626.42647  24319496.39847
  22740656.008 5   -215746.066 5   -120774.04747  22740653.89847
  23794064.305 4   -188441.215 4   -117585.06648  23794065.10248
  21838461.148 6    149117.633 6     95667.90647  21838457.93047
  20613124.680 6    -71903.078 6    -47712.25848  20613120.77748
  21050468.664 6     39829.488 6     26125.94149  21050468.65249
  21441100.102 6   -307235.570 6   -197818.31349  21441098.62549
  21712125.320 6      6290.754 6     -4963.50049  21712121.75449
  23882762.289 5    107000.016 5     64956.64847  23882763.54747
 20  5 16  0  4  4.0000000  0  9G03G04G08G14G16G26G27G31G32         -0.000082216
  24319603.555 4     36508.836 4     16064.28948  24319603.90248
  22739953.734 5   -219433.266 5   -123647.19547  22739952.00447
  23793171.578 4   -193130.785 4   -121239.27348  23793172.72748
  21838819.008 6    150997.066 6     97132.39847  21838815.84847
  20612947.133 6    -72837.316 6    -48440.23848  20612943.10948
  21050563.156 6     40326.695 6     26513.37149  21050562.91449
  21440364.734 6   -311100.770 6   -200830.16049  21440363.15649
  21712106.523 6      6188.941 6     -5042.83249  21712102.26249
  23883275.219 5    109696.715 5     67057.96947  23883276.47347
 20  5 16  0  4  5.0000000  0  9G03G04G08G14G16G26G27G31G32         -0.000082825
  24319710.109 4     37070.742 4     16502.13748  24319710.44548
  22739252.203 5   -223120.250 5   -126520.16847  22739250.64547
  23792279.242 4   -197820.473 4   -124893.57048  23792280.52048
  21839176.547 6    152876.688 6     98597.03147  21839173.19947
  20612769.617 6    -73771.398 6    -49168.09448  20612765.35948
  21050658.148 6     40823.840 6     26900.75449  21050657.93849
  21439629.078 6   -314965.754 6   -203841.83649  21439627.55149
  21712086.750 6      6087.156 6     -5122.15249  21712083.41849
  23883788.867 5    112393.309 5     69159.21547  23883789.59447
 20  5 16  0  4  6.0000000  0  9G03G04G08G14G16G26G27G31G32         -0.000083433
  24319817.375 4     37632.707 4     16940.02748  24319817.44948
  22738550.828 5   -226807.082 5   -129393.03147  22738548.98447
  23791387.281 4   -202510.203 4   -128547.90648  23791388.31648
  21839534.336 6    154756.512 6    100061.82847  21839531.18047
  20612591.500 6    -74705.293 6    -49895.80948  20612587.48848
  21050752.172 6     41320.918 6     27288.08649  21050752.38349
  21438893.578 6   -318830.469 6   -206853.30149  21438891.90649
  21712067.234 6      5985.395 6     -5201.44949  21712063.74649
  23884301.539 5    115089.820 5     71260.39547  23884303.14847
 20  5 16  0  4  7.0000000  0  9G03G04G08G14G16G26G27G31G32         -0.000084042
  24319924.586 4     38194.715 4     17377.95348  24319924.60548
  22737849.297 5   -230493.758 5   -132265.76247  22737847.27047
  23790494.977 4   -207200.047 4   -132202.33248  23790495.86748
  21839891.945 6    156636.500 6    101526.75447  21839888.78547
  20612413.648 6    -75639.039 6    -50623.39848  20612409.87548
  21050846.961 6     41817.977 6     27675.40249  21050846.89849
  21438158.281 6   -322694.996 6   -209864.62149  21438156.50049
  21712048.242 6      5883.617 6     -5280.75849  21712044.56349
  23884814.453 5    117786.234 5     73361.48447  23884816.03547
 20  5 16  0  4  8.0000000  0  9G03G04G08G14G16G26G27G31G32         -0.000084652
  24320031.172 4     38756.781 4     17815.92647  24320031.24247
  22737147.719 5   -234180.203 5   -135138.31347  22737146.07047
  23789602.680 4   -211889.918 4   -135856.77348  23789603.41048
  21840249.703 6    158516.762 6    102991.89847  21840246.61347
  20612236.656 6    -76572.555 6    -51350.81348  20612231.99648
  21050941.789 6     42314.984 6     28062.68449  21050941.70749
  21437422.977 6   -326559.223 6   -212875.70749  21437421.16449
  21712028.578 6      5781.906 6     -5360.01249  21712025.21949
  23885328.055 5    120482.609 5     75462.55947  23885328.80547
 20  5 16  0  4  9.0000000  0  9G03G04G08G14G16G26G27G31G32         -0.000085260
  24320138.109 4     39318.777 4     18253.84448  24320138.03148
  22736446.172 5   -237866.590 5   -138010.82447  22736444.48047
  23788709.406 4   -216580.020 4   -139511.39548  23788710.77748
  21840607.828 6    160397.113 6    104457.10947  21840604.28947
  20612058.867 6    -77506.031 6    -52078.19948  20612054.41848
  21051036.172 6     42811.848 6     28449.85249  21051036.10549
  21436687.555 6   -330423.313 6   -215886.68449  21436686.35549
  21712009.250 6      5680.078 6     -5439.35949  21712005.44149
  23885841.703 5    123178.797 5     77563.46947  23885842.07047
 20  5 16  0  4 10.0000000  0  9G03G04G08G14G16G26G27G31G32         -0.000085869
  24320245.039 4     39880.844 4     18691.81348  24320244.87148
  22735745.063 5   -241552.785 5   -140883.18447  22735743.19147
  23787817.266 4   -221270.105 4   -143165.99648  23787818.33248
  21840965.172 6    162277.660 6    105922.47747  21840962.12547
  20611880.836 6    -78439.285 6    -52805.41048  20611876.65248
  21051130.531 6     43308.719 6     28837.02049  21051130.65249
  21435952.242 6   -334287.117 6   -218897.44149  21435951.32449
  21711989.453 6      5578.301 6     -5518.66849  21711986.49649
  23886354.438 5    125874.906 5     79664.34047  23886355.44547
 20  5 16  0  4 11.0000000  0  9G03G04G08G14G16G26G27G31G32         -0.000086479
  24320352.156 4     40442.957 4     19129.82048  24320351.99648
  22735043.539 5   -245238.785 5   -143755.39547  22735041.67247
  23786924.086 4   -225960.289 4   -146820.68448  23786925.81348
  21841322.930 6    164158.395 6    107387.98047  21841319.78947
  20611703.375 6    -79372.375 6    -53532.49648  20611699.20748
  21051225.711 6     43805.484 6     29224.11349  21051225.14549
  21435217.391 6   -338150.738 6   -221908.05949  21435215.96949
  21711970.859 6      5476.512 6     -5597.98449  21711967.08649
  23886867.148 5    128570.918 5     81765.12947  23886868.09847
 20  5 16  0  4 12.0000000  0  9G03G04G08G14G16G26G27G31G32         -0.000087088
  24320459.063 4     41004.980 4     19567.76248  24320458.67648
  22734341.977 5   -248924.676 5   -146627.50847  22734340.25847
  23786032.211 4   -230650.605 4   -150475.47348  23786033.32048
  21841680.914 6    166039.293 6    108853.61347  21841677.94947
  20611525.727 6    -80305.367 6    -54259.50448  20611521.28948
  21051319.891 6     44302.184 6     29611.15249  21051319.77749
  21434481.578 6   -342014.148 6   -224918.51249  21434480.69149
  21711951.047 6      5374.711 6     -5677.30949  21711947.91449
  23887380.008 5    131266.813 5     83865.82447  23887381.02347
 20  5 16  0  4 13.0000000  0  9G03G04G08G14G16G26G27G31G32         -0.000087698
  24320566.273 4     41567.207 4     20005.85547  24320566.06347
  22733640.992 5   -252610.313 5   -149499.43847  22733639.25447
  23785139.953 4   -235340.938 4   -154130.27748  23785140.62148
  21842038.961 6    167920.453 6    110319.45747  21842036.13347
  20611348.391 6    -81238.094 6    -54986.30948  20611344.38748
  21051414.422 6     44798.875 6     29998.18049  21051414.27749
  21433746.758 6   -345877.254 6   -227928.71949  21433745.79349
  21711931.688 6      5272.965 6     -5756.59049  21711928.25049
  23887893.344 5    133962.684 5     85966.50447  23887893.97747
 20  5 16  0  4 14.0000000  0  9G03G04G08G14G16G26G27G31G32         -0.000088308
  24320672.992 4     42129.398 4     20443.93047  24320673.12547
  22732939.391 6   -256295.836 6   -152371.27747  22732937.86347
  23784246.531 4   -240031.391 4   -157785.17648  23784247.83648
  21842396.820 6    169801.762 6    111785.40647  21842394.48447
  20611170.719 6    -82170.707 6    -55713.02748  20611166.90648
  21051508.875 6     45295.500 6     30385.16049  21051509.18449
  21433011.563 6   -349740.160 6   -230938.77749  21433010.34849
  21711912.289 6      5171.195 6     -5835.89549  21711909.14849
  23888406.289 5    136658.414 5     88067.07047  23888407.20347
 20  5 16  0  4 15.0000000  0  9G03G04G08G14G16G26G27G31G32         -0.000088917
  24320780.375 4     42691.742 4     20882.10947  24320780.09047
  22732237.977 5   -259981.039 5   -155242.85947  22732236.24647
  23783354.422 4   -244721.770 4   -161440.01648  23783355.34448
  21842755.094 6    171683.410 6    113251.62547  21842752.39547
  20610993.781 6    -83102.992 6    -56439.48048  20610989.44948
  21051603.516 6     45792.203 6     30772.20349  21051603.03949
  21432276.719 6   -353602.660 6   -233948.51649  21432275.82849
  21711893.156 6      5069.574 6     -5915.08249  21711889.97749
  23888919.336 5    139354.207 5     90167.68847  23888920.40247
 20  5 16  0  4 16.0000000  0  9G03G04G08G14G16G26G27G31G32         -0.000089527
  24320887.313 4     43254.168 4     21320.36348  24320887.33648
  22731536.891 5   -263665.992 5   -158114.25047  22731535.61747
  23782462.172 4   -249412.156 4   -165094.85948  23782463.12948
  21843112.969 6    173565.328 6    114718.05147  21843110.29747
  20610816.273 6    -84035.039 6    -57165.75048  20610812.07048
  21051697.781 6     46288.934 6     31159.25849  21051697.69949
  21431541.813 6   -357464.852 6   -236958.01649  21431540.73849
  21711873.453 6      4968.035 6     -5994.20349  21711870.42649
  23889432.461 5    142049.980 5     92268.28547  23889433.05947
 20  5 16  0  4 17.0000000  0  9G03G04G08G14G16G26G27G31G32         -0.000090137
  24320994.195 4     43816.691 4     21758.68847  24320994.20347
  22730835.508 5   -267350.758 5   -160985.49647  22730834.35247
  23781569.109 4   -254102.570 4   -168749.73448  23781570.19948
  21843471.430 6    175447.445 6    116184.63747  21843468.65247
  20610638.492 6    -84966.898 6    -57891.87948  20610634.90648
  21051792.445 6     46785.609 6     31546.27749  21051792.35549
  21430807.031 6   -361326.805 6   -239967.33249  21430806.11749
  21711854.492 6      4866.527 6     -6073.30549  21711850.97349
  23889945.305 5    144745.684 5     94368.82847  23889945.90647
 20  5 16  0  4 18.0000000  0  9G03G04G08G14G16G26G27G31G32         -0.000090748
  24321101.328 4     44379.191 4     22197.00448  24321101.00848
  22730134.297 5   -271035.395 5   -163856.64547  22730133.50047
  23780676.422 4   -258793.152 4   -172404.73048  23780677.83648
  21843829.266 6    177329.715 6    117651.33647  21843826.81647
  20610461.352 6    -85898.633 6    -58617.90248  20610457.31348
  21051887.086 6     47282.227 6     31933.25449  21051886.75049
  21430072.086 6   -365188.566 6   -242976.49649  21430071.09049
  21711835.273 6      4765.004 6     -6152.41049  21711831.81349
  23890458.203 5    147441.242 5     96469.26647  23890458.66847
 20  5 16  0  4 19.0000000  0  9G03G04G08G14G16G26G27G31G32         -0.000091358
  24321208.336 4     44941.824 4     22635.41847  24321207.79347
  22729433.656 5   -274719.746 5   -166727.56647  22729431.84047
  23779784.305 4   -263483.641 4   -176059.65248  23779785.29748
  21844187.500 6    179212.277 6    119118.27047  21844184.91047
  20610284.531 6    -86830.094 6    -59343.71548  20610279.93048
  21051981.516 6     47778.852 6     32320.23449  21051981.19949
  21429337.172 6   -369049.988 6   -245985.40249  21429336.54349
  21711815.711 6      4663.563 6     -6231.45749  21711812.70749
  23890970.953 5    150136.828 5     98569.71947  23890971.68447
 20  5 16  0  4 20.0000000  0  9G03G04G08G14G16G26G27G31G32         -0.000091969
  24321315.469 4     45504.496 4     23073.85948  24321315.30148
  22728732.219 5   -278403.980 5   -169598.39847  22728730.67647
  23778891.328 4   -268174.289 4   -179714.70348  23778892.19948
  21844546.008 6    181095.016 6    120585.33247  21844543.23847
  20610106.891 6    -87761.410 6    -60069.41848  20610103.16848
  21052076.188 6     48275.445 6     32707.19549  21052075.79349
  21428602.469 6   -372911.180 6   -248994.12549  21428601.54749
  21711796.719 6      4562.105 6     -6310.51249  21711793.16049
  23891484.297 5    152832.305 5    100670.08647  23891484.89547
 20  5 16  0  4 21.0000000  0  9G03G04G08G14G16G26G27G31G32         -0.000092579
  24321422.297 4     46067.148 4     23512.28947  24321422.39847
  22728030.813 5   -282087.988 5   -172469.05947  22728029.68847
  23777998.813 4   -272864.953 4   -183369.77048  23777999.80948
  21844904.039 6    182977.961 6    122052.55947  21844901.45747
  20609929.414 6    -88692.555 6    -60794.98848  20609925.45748
  21052170.078 6     48771.949 6     33094.07049  21052170.03549
  21427867.617 6   -376772.141 6   -252002.65649  21427866.85549
  21711777.320 6      4460.688 6     -6389.55149  21711773.85549
  23891996.461 5    155527.691 5    102770.38347  23891997.82447
 20  5 16  0  4 22.0000000  0  9G03G04G08G14G16G26G27G31G32         -0.000093189
  24321529.172 4     46629.977 4     23950.85947  24321529.53547
  22727329.695 5   -285771.789 5   -175339.55547  22727328.53147
  23777106.438 4   -277555.676 4   -187024.88348  23777107.00848
  21845262.500 6    184861.152 6    123519.97747  21845259.31647
  20609752.352 6    -89623.441 6    -61520.34848  20609748.80948
  21052264.977 6     49268.477 6     33480.97749  21052264.52049
  21427133.383 6   -380632.797 6   -255010.95749  21427132.04349
  21711757.961 6      4359.328 6     -6468.53949  21711754.68849
  23892509.992 5    158223.055 5    104870.66047  23892510.75447
 20  5 16  0  4 23.0000000  0  9G03G04G08G14G16G26G27G31G32         -0.000093800
  24321637.125 4     47192.789 4     24389.40247  24321636.37547
  22726629.688 5   -289455.371 5   -178209.87947  22726627.38347
  23776213.859 4   -282246.434 4   -190680.02048  23776214.67648
  21845620.766 6    186744.559 6    124987.55947  21845618.00847
  20609575.477 6    -90554.152 6    -62245.58248  20609571.71148
  21052359.375 6     49764.980 6     33867.86349  21052359.47349
  21426398.445 6   -384493.207 6   -258019.07049  21426397.63749
  21711738.836 6      4258.016 6     -6547.48449  21711735.43449
  23893023.047 5    160918.352 5    106970.88747  23893023.73847
 20  5 16  0  4 24.0000000  0  9G03G04G08G14G16G26G27G31G32         -0.000094410
  24321743.578 4     47755.727 4     24828.04747  24321743.83247
  22725928.594 5   -293138.723 5   -181080.02347  22725926.70347
  23775321.609 4   -286937.188 4   -194335.15648  23775322.05148
  21845979.328 6    188628.242 6    126455.35947  21845976.47347
  20609398.820 6    -91484.637 6    -62970.63748  20609394.54348
  21052453.742 6     50261.523 6     34254.77749  21052453.95749
  21425664.242 6   -388353.273 6   -261026.91049  21425662.89149
  21711719.250 6      4156.777 6     -6626.37549  21711716.39149
  23893535.516 5    163613.629 5    109071.10547  23893536.58247
 20  5 16  0  4 25.0000000  0  9G03G04G08G14G16G26G27G31G32         -0.000095020
  24321850.359 4     48318.703 4     25266.73047  24321850.93447
  22725227.695 5   -296821.949 5   -183950.06647  22725225.95347
  23774428.703 4   -291628.074 4   -197990.39148  23774428.85248
  21846337.867 6    190512.090 6    127923.29347  21846335.22347
  20609221.727 6    -92414.953 6    -63695.56348  20609217.44148
  21052548.086 6     50757.977 6     34641.62549  21052548.22749
  21424929.422 6   -392213.133 6   -264034.59449  21424928.37149
  21711700.188 6      4055.512 6     -6705.28149  21711696.56649
  23894048.563 5    166308.781 5    111171.21947  23894049.32047
 20  5 16  0  4 26.0000000  0  9G03G04G08G14G16G26G27G31G32         -0.000095633
  24321957.352 4     48881.734 4     25705.45747  24321957.97347
  22724526.867 5   -300504.914 5   -186819.90647  22724525.04747
  23773536.078 4   -296318.988 4   -201645.64548  23773536.26248
  21846696.383 6    192396.168 6    129391.41047  21846693.58647
  20609044.531 6    -93345.055 6    -64420.31348  20609040.49648
  21052642.680 6     51254.398 6     35028.44149  21052642.66849
  21424195.047 6   -396072.727 6   -267042.07449  21424194.08249
  21711680.508 6      3954.313 6     -6784.13349  21711677.42649
  23894561.477 5    169003.883 5    113271.29347  23894562.69147
 20  5 16  0  4 27.0000000  0  9G03G04G08G14G16G26G27G31G32         -0.000096243
  24322065.148 3     49444.840 3     26144.23847  24322065.46947
  22723825.289 5   -304187.688 5   -189689.60247  22723824.19947
  23772644.047 4   -301009.902 4   -205300.89848  23772643.69948
  21847054.594 6    194280.484 6    130859.70747  21847052.06347
  20608867.359 6    -94274.957 6    -65144.91448  20608863.34848
  21052737.555 6     51750.836 6     35415.27749  21052737.34449
  21423460.727 6   -399932.027 6   -270049.31649  21423459.48049
  21711661.320 6      3853.141 6     -6862.96949  21711658.28149
  23895074.469 5    171698.953 5    115371.34447  23895075.27747
 20  5 16  0  4 28.0000000  0  9G03G04G08G14G16G26G27G31G32         -0.000096855
  24322171.633 3     50008.043 3     26583.09447  24322172.36747
  22723124.875 5   -307870.203 5   -192559.09047  22723123.53147
  23771750.703 4   -305700.883 4   -208956.21548  23771751.09848
  21847413.492 6    196165.090 6    132328.23047  21847410.31647
  20608690.867 6    -95204.621 6    -65869.32848  20608686.31648
  21052831.625 6     52247.273 6     35802.11749  21052831.58249
  21422726.359 6   -403790.992 6   -273056.30149  21422725.25449
  21711642.406 6      3752.086 6     -6941.71549  21711639.19949
  23895587.875 5    174394.008 5    117471.38347  23895588.29347
 20  5 16  0  4 29.0000000  0  9G03G04G08G14G16G26G27G31G32         -0.000097466
  24322279.414 4     50571.348 4     27022.03147  24322279.65247
  22722424.141 5   -311552.504 5   -195428.42247  22722422.70347
  23770858.188 4   -310391.824 4   -212611.49248  23770858.02348
  21847772.297 6    198049.902 6    133796.91847  21847769.45747
  20608513.719 6    -96134.039 6    -66593.55548  20608509.38748
  21052926.008 6     52743.723 6     36188.94949  21052926.09049
  21421991.758 6   -407649.684 6   -276063.07849  21421990.75049
  21711623.297 6      3651.078 6     -7020.42649  21711619.71949
  23896100.258 5    177089.004 5    119571.37547  23896101.33647
 20  5 16  0  4 30.0000000  0  9G03G04G08G14G16G26G27G31G32         -0.000098078
  24322386.555 4     51134.645 4     27460.96147  24322386.80947
  22721723.773 5   -315234.637 5   -198297.61747  22721721.72347
  23769965.523 4   -315082.840 4   -216266.83248  23769965.32448
  21848130.828 6    199934.910 6    135265.75047  21848128.26247
  20608337.172 6    -97063.328 6    -67317.67248  20608333.09848
  21053020.734 6     53240.105 6     36575.74249  21053020.65249
  21421257.383 6   -411508.156 6   -279069.68449  21421256.49649
  21711604.078 6      3550.066 6     -7099.13749  21711600.61749
  23896613.086 5    179783.918 5    121671.30947  23896614.35247
 20  5 16  0  4 31.0000000  0  9G03G04G08G14G16G26G27G31G32         -0.000098688
  24322493.688 3     51698.094 3     27900.02047  24322494.21547
  22721023.109 5   -318916.500 5   -201166.60247  22721021.39147
  23769072.656 4   -319773.867 4   -219922.18048  23769072.83648
  21848489.898 6    201820.207 6    136734.80147  21848486.98847
  20608160.359 6    -97992.344 6    -68041.57848  20608156.38748
  21053115.211 6     53736.527 6     36962.57049  21053115.18449
  21420523.359 6   -415366.316 6   -282076.03949  21420522.52749
  21711584.953 6      3449.156 6     -7177.77049  21711581.07449
  23897126.289 5    182478.832 5    123771.23847  23897126.63347
 20  5 16  0  4 32.0000000  0  9G03G04G08G14G16G26G27G31G32         -0.000099300
  24322600.484 3     52261.617 3     28339.12547  24322601.43447
  22720322.367 5   -322598.121 5   -204035.39847  22720320.84447
  23768179.797 4   -324464.918 4   -223577.53948  23768180.09048
  21848849.047 6    203705.766 6    138204.06647  21848845.78947
  20607983.484 6    -98921.117 6    -68765.30148  20607979.44548
  21053209.242 6     54232.969 6     37349.40249  21053209.22749
  21419789.273 6   -419224.117 6   -285082.11749  21419788.20349
  21711565.477 6      3348.324 6     -7256.34849  21711562.09449
  23897638.500 5    185173.699 5    125871.13346  23897639.71546
 20  5 16  0  4 33.0000000  0  9G03G04G08G14G16G26G27G31G32         -0.000099913
  24322707.914 3     52825.184 3     28778.26247  24322708.57047
  22719622.227 5   -326279.598 5   -206904.07047  22719620.37547
  23767286.766 4   -329156.039 4   -227232.95748  23767287.68448
  21849207.594 6    205591.461 6    139673.44547  21849204.50447
  20607806.609 6    -99849.762 6    -69488.91848  20607802.73048
  21053304.086 6     54729.309 6     37736.16049  21053304.28149
  21419055.430 6   -423081.734 6   -288088.05949  21419053.86749
  21711546.336 6      3247.465 6     -7334.93849  21711542.85549
  23898151.375 5    187868.473 5    127970.94947  23898152.27047
 20  5 16  0  4 34.0000000  0  9G03G04G08G14G16G26G27G31G32         -0.000100525
  24322815.664 3     53388.781 3     29217.43047  24322815.91847
  22718920.961 5   -329960.875 5   -209772.60247  22718919.46947
  23766394.852 4   -333847.203 4   -230888.41048  23766395.24248
  21849566.734 6    207477.418 6    141143.01647  21849563.17247
  20607629.977 6   -100778.188 6    -70212.36748  20607626.23848
  21053398.367 6     55225.672 6     38122.93449  21053398.66049
  21418321.219 6   -426939.070 6   -291093.77349  21418320.15249
  21711526.977 6      3146.668 6     -7413.48449  21711523.73049
  23898663.844 5    190563.180 5    130070.72347  23898664.96147
 20  5 16  0  4 35.0000000  0  9G03G04G08G14G16G26G27G31G32         -0.000101135
  24322922.461 4     53952.480 4     29656.66847  24322923.36347
  22718220.742 5   -333641.906 5   -212640.93447  22718219.55547
  23765501.797 4   -338538.402 4   -234543.89148  23765502.62148
  21849925.680 6    209363.609 6    142612.77047  21849922.16047
  20607453.500 6   -101706.391 6    -70935.64548  20607449.23448
  21053493.383 6     55721.992 6     38509.67649  21053492.87549
  21417587.055 6   -430796.113 6   -294099.26249  21417585.94949
  21711508.250 6      3045.930 6     -7491.98449  21711504.88749
  23899177.219 5    193257.863 5    132170.47747  23899178.05947
 20  5 16  0  4 36.0000000  0  9G03G04G08G14G16G26G27G31G32         -0.000101748
  24323030.094 3     54516.238 3     30095.95747  24323030.37547
  22717520.852 5   -337322.746 5   -215509.12547  22717518.96147
  23764609.141 4   -343229.641 4   -238199.40148  23764609.85548
  21850284.203 6    211250.020 6    144082.70347  21850281.48447
  20607277.070 6   -102634.398 6    -71658.77048  20607272.72748
  21053587.234 6     56218.316 6     38896.41849  21053587.60949
  21416853.414 6   -434652.887 6   -297104.53949  21416852.28149
  21711488.922 6      2945.234 6     -7570.44549  21711485.67249
  23899689.867 5    195952.473 5    134270.16847  23899690.87547
 20  5 16  0  4 37.0000000  0  9G03G04G08G14G16G26G27G31G32         -0.000102360
  24323137.852 3     55080.039 3     30535.28147  24323137.98847
  22716820.391 5   -341003.383 5   -218377.15247  22716818.58247
  23763715.680 4   -347920.953 4   -241854.96948  23763717.30948
  21850643.313 6    213136.609 6    145552.77347  21850640.40647
  20607100.391 6   -103562.234 6    -72381.76648  20607095.99648
  21053681.539 6     56714.574 6     39283.10949  21053681.78949
  21416119.813 6   -438509.398 6   -300109.61349  21416118.28549
  21711469.773 6      2844.543 6     -7648.91049  21711466.48849
  23900202.734 5    198647.004 5    136369.79746  23900203.48446
 20  5 16  0  4 38.0000000  0  9G03G04G08G14G16G26G27G31G32         -0.000102972
  24323244.656 4     55643.910 4     30974.66447  24323245.39547
  22716119.820 6   -344683.832 6   -221245.03947  22716117.89147
  23762823.422 4   -352612.289 4   -245510.54348  23762824.65248
  21851002.250 6    215023.449 6    147023.04347  21850999.70747
  20606923.672 6   -104489.895 6    -73104.61748  20606919.39848
  21053776.031 6     57210.813 6     39669.79349  21053776.11349
  21415385.648 6   -442365.656 6   -303114.48849  21415384.62549
  21711450.750 6      2743.891 6     -7727.34049  21711447.46949
  23900715.086 5    201341.480 5    138469.38747  23900716.06647
 20  5 16  0  4 39.0000000  0  9G03G04G08G14G16G26G27G31G32         -0.000103584
  24323351.633 4     56208.016 4     31414.23047  24323352.83247
  22715419.461 6   -348363.852 6   -224112.58647  22715417.82447
  23761930.516 4   -357303.473 4   -249166.00448  23761931.60548
  21851361.422 6    216910.738 6    148493.66047  21851358.72347
  20606747.211 6   -105417.098 6    -73827.10948  20606743.24648
  21053870.836 6     57707.258 6     40056.63349  21053870.79749
  21414652.359 6   -446221.426 6   -306118.98049  21414650.67249
  21711431.508 6      2643.504 6     -7805.56649  21711427.83649
  23901227.773 5    204036.090 5    140569.08647  23901229.00047
 20  5 16  0  4 40.0000000  0  9G03G04G08G14G16G26G27G31G32         -0.000104197
  24323459.039 4     56772.254 4     31853.89147  24323459.87547
  22714719.258 5   -352043.637 5   -226979.96147  22714717.45747
  23761038.430 4   -361994.621 4   -252821.44948  23761039.02048
  21851720.648 6    218798.242 6    149964.43847  21851717.90647
  20606571.070 6   -106344.102 6    -74549.44948  20606566.77348
  21053964.938 6     58203.688 6     40443.46149  21053965.27349
  21413918.539 6   -450076.895 6   -309123.25049  21413916.87549
  21711412.609 6      2543.160 6     -7883.75049  21711409.30549
  23901740.289 5    206730.668 5    142668.74646  23901741.49646
 20  5 16  0  4 41.0000000  0  9G03G04G08G14G16G26G27G31G32         -0.000104811
  24323566.719 4     57336.574 4     32293.62147  24323567.16447
  22714018.898 5   -355723.195 5   -229847.14547  22714017.46547
  23760145.461 4   -366685.832 4   -256476.93448  23760146.20748
  21852079.992 6    220686.047 6    151435.45747  21852077.11747
  20606394.883 6   -107270.852 6    -75271.59048  20606390.48448
  21054059.453 6     58700.141 6     40830.30949  21054059.56349
  21413184.719 6   -453932.051 6   -312127.26649  21413183.43049
  21711393.438 6      2442.934 6     -7961.85549  21711390.16049
  23902253.406 5    209425.234 5    144768.41047  23902254.76247
 20  5 16  0  4 42.0000000  0  9G03G04G08G14G16G26G27G31G32         -0.000105423
  24323674.172 4     57901.012 4     32733.43847  24323675.01247
  22713318.844 5   -359402.480 5   -232714.11347  22713316.81647
  23759252.844 4   -371377.012 4   -260132.40248  23759253.80148
  21852438.766 6    222574.082 6    152906.64847  21852436.53147
  20606218.063 6   -108197.371 6    -75993.56348  20606214.32848
  21054154.016 6     59196.629 6     41217.17649  21054154.43049
  21412451.000 6   -457786.895 6   -315131.04749  21412449.88349
  21711374.438 6      2342.758 6     -8039.91849  21711371.25449
  23902766.336 5    212119.805 5    146868.06647  23902767.03147
 20  5 16  0  4 43.0000000  0  9G03G04G08G14G16G26G27G31G32         -0.000106035
  24323781.711 4     58465.531 4     33173.32447  24323782.41047
  22712618.633 5   -363081.566 5   -235580.92647  22712617.08647
  23758359.992 4   -376068.207 4   -263787.87948  23758361.20348
  21852798.547 6    224462.391 6    154378.05947  21852795.81647
  20606042.070 6   -109123.641 6    -76715.33248  20606037.98448
  21054248.352 6     59693.098 6     41604.03149  21054248.59849
  21411717.797 6   -461641.426 6   -318134.57849  21411716.24249
  21711355.234 6      2242.656 6     -8117.91449  21711351.87149
  23903279.266 5    214814.313 5    148967.67647  23903279.74247
 20  5 16  0  4 44.0000000  0  9G03G04G08G14G16G26G27G31G32         -0.000106647
  24323889.016 4     59030.117 4     33613.26247  24323889.71947
  22711918.805 5   -366760.414 5   -238447.56347  22711917.19147
  23757467.805 4   -380759.453 4   -267443.39848  23757468.42248
  21853158.242 6    226350.918 6    155849.63747  21853154.91447
  20605865.773 6   -110049.730 6    -77436.95748  20605861.72748
  21054343.117 6     60189.578 6     41990.90249  21054342.99649
  21410984.188 6   -465495.695 6   -321137.91049  21410982.88349
  21711336.047 6      2142.609 6     -8195.87949  21711333.06649
  23903791.883 5    217508.766 5    151067.25047  23903792.23047
 20  5 16  0  4 45.0000000  0  9G03G04G08G14G16G26G27G31G32         -0.000107260
  24323996.820 4     59594.895 4     34053.33647  24323997.34447
  22711218.508 5   -370438.957 5   -241313.95747  22711217.21947
  23756574.078 4   -385450.645 4   -271098.86348  23756575.69148
  21853517.219 6    228239.770 6    157321.47347  21853514.17647
  20605689.508 6   -110975.516 6    -78158.35548  20605685.28148
  21054437.430 6     60686.121 6     42377.81649  21054437.50849
  21410250.977 6   -469349.578 6   -324140.93449  21410249.68049
  21711317.195 6      2042.703 6     -8273.72749  21711313.56349
  23904304.313 5    220203.258 5    153166.85547  23904305.34447
 20  5 16  0  4 46.0000000  0  9G03G04G08G14G16G26G27G31G32         -0.000107874
  24324104.102 4     60159.629 4     34493.38747  24324104.67647
  22710518.828 5   -374117.371 5   -244180.25447  22710516.92647
  23755681.609 4   -390141.910 4   -274754.39148  23755683.01648
  21853876.820 6    230128.785 6    158793.43047  21853873.92247
  20605513.188 6   -111901.148 6    -78879.62548  20605509.28948
  21054531.766 6     61182.566 6     42764.65649  21054532.20349
  21409517.398 6   -473203.270 6   -327143.81349  21409516.00449
  21711297.781 6      1942.781 6     -8351.59049  21711294.85549
  23904817.391 5    222897.621 5    155266.35247  23904818.46547
 20  5 16  0  4 47.0000000  0  9G03G04G08G14G16G26G27G31G32         -0.000108486
  24324211.641 4     60724.422 4     34933.48847  24324212.06347
  22709818.805 5   -377795.578 5   -247046.39147  22709817.34447
  23754789.633 4   -394833.262 4   -278409.99248  23754790.50048
  21854236.391 6    232017.984 6    160265.53147  21854233.55947
  20605337.766 6   -112826.633 6    -79600.78148  20605333.07048
  21054626.523 6     61678.977 6     43151.46949  21054626.23449
  21408784.313 6   -477056.695 6   -330146.48049  21408782.70349
  21711279.305 6      1842.875 6     -8429.44149  21711275.81649
  23905330.078 5    225591.926 5    157365.81647  23905330.93047
 20  5 16  0  4 48.0000000  0  9G03G04G08G14G16G26G27G31G32         -0.000109100
  24324318.328 4     61289.215 4     35373.58247  24324319.89847
  22709119.008 5   -381473.621 5   -249912.39147  22709117.30147
  23753896.156 4   -399524.691 4   -282065.64848  23753897.53548
  21854595.852 6    233907.391 6    161737.79747  21854592.92247
  20605161.039 6   -113751.945 6    -80321.80548  20605157.16848
  21054721.039 6     62175.324 6     43538.23049  21054720.77349
  21408051.211 6   -480909.898 6   -333148.97749  21408050.01249
  21711260.250 6      1742.977 6     -8507.28949  21711256.88749
  23905842.539 5    228286.117 5    159465.18047  23905843.46547
 20  5 16  0  4 49.0000000  0  9G03G04G08G14G16G26G27G31G32         -0.000109713
  24324426.461 4     61854.191 4     35813.83247  24324427.05947
  22708419.008 5   -385151.359 5   -252778.16447  22708417.27047
  23753003.422 4   -404216.063 4   -285721.25848  23753005.01248
  21854955.633 6    235797.113 6    163210.30547  21854952.32847
  20604985.070 6   -114676.934 6    -81042.57848  20604981.37548
  21054815.555 6     62671.754 6     43925.05949  21054815.05149
  21407317.789 6   -484762.711 6   -336151.16849  21407316.43449
  21711241.203 6      1643.219 6     -8585.02349  21711238.02349
  23906355.266 5    230980.348 5    161564.57847  23906356.09047
 20  5 16  0  4 50.0000000  0  9G03G04G08G14G16G26G27G31G32         -0.000110327
  24324533.703 4     62419.250 4     36254.14147  24324534.73847
  22707719.219 6   -388828.855 6   -255643.75047  22707717.44547
  23752110.906 4   -408907.391 4   -289376.83648  23752112.15248
  21855315.047 6    237687.094 6    164683.01647  21855312.46947
  20604809.242 6   -115601.711 6    -81763.18448  20604805.37148
  21054910.195 6     63168.223 6     44311.91849  21054909.75449
  21406584.813 6   -488615.234 6   -339153.12549  21406583.55149
  21711221.992 6      1543.527 6     -8662.70349  21711218.69549
  23906867.648 5    233674.566 5    163663.96147  23906868.96547
 20  5 16  0  4 51.0000000  0  9G03G04G08G14G16G26G27G31G32         -0.000110939
  24324641.227 4     62984.418 4     36694.52347  24324642.24647
  22707019.195 5   -392506.102 5   -258509.13347  22707017.91847
  23751217.875 4   -413598.730 4   -293032.42648  23751219.44548
  21855674.539 6    239577.324 6    166155.91847  21855672.02047
  20604633.500 6   -116526.262 6    -82483.61348  20604629.46148
  21055004.492 6     63664.645 6     44698.73849  21055004.30149
  21405851.141 6   -492467.426 6   -342154.84049  21405850.60949
  21711202.898 6      1443.926 6     -8740.32049  21711199.94949
  23907380.445 5    236368.734 5    165763.30947  23907381.18847
 20  5 16  0  4 52.0000000  0  9G03G04G08G14G16G26G27G31G32         -0.000111553
  24324749.133 4     63549.621 4     37134.94147  24324749.54747
  22706319.766 5   -396183.176 5   -261374.38347  22706318.34047
  23750325.820 4   -418290.164 4   -296688.09448  23750326.88348
  21856034.648 6    241467.781 6    167628.99247  21856031.97347
  20604457.578 6   -117450.613 6    -83203.89148  20604453.57448
  21055098.813 6     64161.066 6     45085.56349  21055098.58649
  21405118.727 6   -496319.379 6   -345156.36349  21405117.16449
  21711184.273 6      1344.340 6     -8817.91049  21711180.73449
  23907893.195 5    239062.852 5    167862.62147  23907894.30947
 20  5 16  0  4 53.0000000  0  9G03G04G08G14G16G26G27G31G32         -0.000112167
  24324857.320 4     64114.934 4     37575.44147  24324857.07447
  22705620.156 6   -399860.016 6   -264239.45747  22705618.82847
  23749432.664 4   -422981.668 4   -300343.80548  23749433.97748
  21856394.508 6    243358.480 6    169102.26647  21856391.19947
  20604281.313 6   -118374.746 6    -83924.00048  20604277.86348
  21055193.367 6     64657.461 6     45472.35949  21055193.18049
  21404385.594 6   -500171.035 6   -348157.65249  21404384.23049
  21711165.195 6      1244.832 6     -8895.44949  21711161.78949
  23908405.977 5    241756.891 5    169961.87547  23908406.68847
 20  5 16  0  4 54.0000000  0  9G03G04G08G14G16G26G27G31G32         -0.000112782
  24324964.109 4     64680.250 4     38015.93847  24324964.51647
  22704920.219 6   -403536.676 6   -267104.39147  22704918.66447
  23748539.875 4   -427673.215 4   -303999.55548  23748541.07848
  21856754.164 6    245249.348 6    170575.67247  21856751.47347
  20604105.875 6   -119298.719 6    -84643.97348  20604101.73448
  21055287.672 6     65153.824 6     45859.13749  21055287.47749
  21403652.813 6   -504022.441 6   -351158.75449  21403651.37949
  21711146.375 6      1145.344 6     -8972.98449  21711142.96149
  23908918.734 5    244450.848 5    172061.05547  23908919.38747
 20  5 16  0  4 55.0000000  0  9G03G04G08G14G16G26G27G31G32         -0.000113394
  24325071.719 4     65245.680 4     38456.53947  24325072.26647
  22704220.672 5   -407213.074 5   -269969.12147  22704219.27047
  23747647.133 4   -432364.715 4   -307655.26648  23747648.38348
  21857113.906 6    247140.512 6    172049.30547  21857111.16047
  20603930.297 6   -120222.430 6    -85363.74248  20603925.99648
  21055382.023 6     65650.195 6     46245.91849  21055382.44149
  21402920.094 6   -507873.531 6   -354159.59849  21402918.65249
  21711127.516 6      1045.914 6     -9050.46149  21711124.10549
  23909431.008 5    247144.836 5    174160.26247  23909432.06647
 20  5 16  0  4 56.0000000  0  9G03G04G08G14G16G26G27G31G32         -0.000114008
  24325179.461 4     65811.332 4     38897.30147  24325180.40647
  22703520.742 5   -410889.152 5   -272833.59047  22703519.43047
  23746754.594 4   -437056.160 4   -311310.93448  23746755.61748
  21857474.516 6    249032.031 6    173523.21147  21857471.24247
  20603754.164 6   -121145.801 6    -86083.25448  20603750.28148
  21055476.633 6     66146.680 6     46632.78949  21055476.44949
  21402186.977 6   -511724.219 6   -357160.13749  21402186.09049
  21711108.508 6       946.680 6     -9127.78549  21711105.43449
  23909943.711 5    249838.836 5    176259.47747  23909944.68447
 20  5 16  0  4 57.0000000  0  9G03G04G08G14G16G26G27G31G32         -0.000114622
  24325287.375 4     66377.129 4     39338.18447  24325287.57447
  22702821.602 5   -414564.852 5   -275697.77047  22702820.05147
  23745862.078 4   -441747.477 4   -314966.49648  23745862.76648
  21857833.844 6    250923.949 6    174997.43447  21857831.32847
  20603578.539 6   -122068.848 6    -86802.51248  20603574.57848
  21055570.820 6     66643.316 6     47019.77749  21055570.89549
  21401454.531 6   -515574.484 6   -360160.34449  21401453.34049
  21711090.117 6       847.625 6     -9204.96949  21711086.12549
  23910456.281 5    252532.965 5    178358.80147  23910457.42647
 20  5 16  0  4 58.0000000  0  9G03G04G08G14G16G26G27G31G32         -0.000115236
  24325394.430 4     66943.156 4     39779.24647  24325395.53547
  22702122.188 5   -418240.266 5   -278561.72747  22702121.08647
  23744969.352 3   -446438.715 3   -318622.01648  23744969.98448
  21858193.531 6    252816.156 6    176471.87947  21858191.02047
  20603403.359 6   -122991.574 6    -87521.52748  20603399.28548
  21055665.898 6     67140.000 6     47406.80549  21055665.57049
  21400722.086 6   -519424.359 6   -363160.24249  21400720.82449
  21711070.867 6       748.711 6     -9282.04749  21711067.40249
  23910969.367 5    255227.102 5    180458.11347  23910970.35547
 20  5 16  0  4 59.0000000  0  9G03G04G08G14G16G26G27G31G32         -0.000115850
  24325502.781 4     67509.324 4     40220.41447  24325502.77747
  22701422.703 5   -421915.301 5   -281425.39547  22701421.29347
  23744076.984 4   -451129.938 4   -322277.50848  23744076.95748
