     2.10           OBSERVATION DATA    GPS(GPS)            RINEX VERSION / TYPE
cnvtToRINEX 3.07.0  convertToRINEX OPR  19-May-20 12:31 UTC PGM / RUN BY / DATE 
----------------------------------------------------------- COMMENT             
GI02                                                        MARKER NAME         
GI02                                                        MARKER NUMBER       
GNSS Observer       Trimble                                 OBSERVER / AGENCY   
0220365401          5700                2.32                REC # / TYPE / VERS 
                    UNKNOWN EXT                             ANT # / TYPE        
 -3050428.3870  4927746.8498  2654390.8130                  APPROX POSITION XYZ 
        0.0000        0.0000        0.0000                  ANTENNA: DELTA H/E/N
     1     1     0                                          WAVELENGTH FACT L1/2
     4    C1    L1    L2    P2                              # / TYPES OF OBSERV 
  2020     5    16     3    10   39.0000000     GPS         TIME OF FIRST OBS   
  2020     5    16     5     0   25.0000000     GPS         TIME OF LAST OBS    
     0                                                      RCV CLOCK OFFS APPL 
    18                                                      LEAP SECONDS        
    13                                                      # OF SATELLITES     
   G01  6587  6587  6587  6587                              PRN / # OF OBS      
   G03  1152  1152  1152  1152                              PRN / # OF OBS      
   G04  2206  2206  2206  2206                              PRN / # OF OBS      
   G07  6576  6576  6576  6576                              PRN / # OF OBS      
   G08  6558  6558  6558  6558                              PRN / # OF OBS      
   G09  3537  3537  3537  3537                              PRN / # OF OBS      
   G11  6587  6587  6587  6587                              PRN / # OF OBS      
   G16  5247  5247  5210  5210                              PRN / # OF OBS      
   G17   192   192   192   192                              PRN / # OF OBS      
   G22  3792  3792  3787  3787                              PRN / # OF OBS      
   G27  4887  4887  4887  4887                              PRN / # OF OBS      
   G28  1002  1002  1002  1002                              PRN / # OF OBS      
   G30  5322  5322  5322  5322                              PRN / # OF OBS      
CARRIER PHASE MEASUREMENTS: PHASE SHIFTS REMOVED            COMMENT             
                                                            END OF HEADER       
 20  5 16  3 10 39.0000000  0  5G01G09G11G16G27                      0.000204130
  22682446.08615    -64662.59015     -1307.87559  22682446.95359
  23246845.13316      7533.89116      2700.35958  23246843.67258
  20682129.79716    -36667.82416    -10345.97358  20682126.37558
  22954550.25015      9959.59415       221.77757  22954547.21957
  22081140.23416     21682.55516      9001.80959  22081139.52359
 20  5 16  3 10 40.0000000  0  5G01G09G11G16G27                      0.000203590
  22681614.273 5    -69032.762 5     -4713.19949  22681615.19549
  23246965.031 6      8165.723 6      3192.69148  23246964.29748
  20681664.148 6    -39116.191 6    -12253.77748  20681660.26648
  22954673.633 5     10609.273 5       728.01247  22954670.98447
  22081481.250 6     23470.508 6     10395.01249  22081479.93849
 20  5 16  3 10 41.0000000  0  5G01G09G11G16G27                      0.000203051
  22680782.797 6    -73405.004 6     -8120.14849  22680783.55149
  23247084.586 6      8795.703 6      3683.57448  23247083.78948
  20681198.063 6    -41566.281 6    -14162.94148  20681194.43048
  22954797.195 5     11256.793 5      1232.56647  22954794.20747
  22081821.008 6     25256.340 6     11786.56649  22081819.96149
 20  5 16  3 10 42.0000000  0  5G01G09G11G16G27                      0.000202507
  22679949.727 6    -77779.309 6    -11528.69549  22679951.00049
  23247204.102 6      9423.684 6      4172.91848  23247203.99648
  20680731.023 6    -44018.141 6    -16073.48448  20680727.48848
  22954919.781 5     11902.074 5      1735.38747  22954916.94947
  22082160.727 6     27039.984 6     13176.42649  22082159.34049
 20  5 16  3 10 43.0000000  0  5G01G09G11G16G27                      0.000201963
  22679117.773 6    -82155.645 6    -14938.81649  22679117.87549
  23247323.156 6     10049.832 6      4660.83248  23247322.83648
  20680264.063 6    -46471.723 6    -17985.37548  20680261.02048
  22955042.836 5     12545.223 5      2236.54747  22955039.41047
  22082499.391 6     28821.543 6     14564.65649  22082498.50449
 20  5 16  3 10 44.0000000  0  5G01G09G11G16G27                      0.000201420
  22678284.086 6    -86534.043 6    -18350.54749  22678284.61749
  23247442.063 6     10674.035 6      5147.22748  23247441.59048
  20679797.336 6    -48927.020 6    -19898.59448  20679793.05548
  22955163.961 5     13186.145 5      2735.96147  22955161.27347
  22082837.656 6     30600.906 6     15951.17249  22082836.87549
 20  5 16  3 10 45.0000000  0  5G01G09G11G16G27                      0.000200872
  22677450.688 5    -90914.434 5    -21763.84049  22677451.56349
  23247560.180 6     11296.367 6      5632.15248  23247559.83648
  20679329.586 6    -51384.031 6    -21813.14148  20679326.03148
  22955286.406 5     13824.949 5      3233.73046  22955282.94946
  22083176.234 6     32378.199 6     17336.06649  22083174.73849
 20  5 16  3 10 46.0000000  0  5G01G09G11G16G27                      0.000200325
  22676616.375 5    -95296.770 5    -25178.65249  22676617.24249
  23247678.688 6     11916.883 6      6115.66448  23247678.15248
  20678861.820 6    -53842.664 6    -23728.96548  20678857.94948
  22955407.617 5     14461.633 5      3729.84047  22955404.00447
  22083514.297 6     34153.445 6     18719.37149  22083513.14149
 20  5 16  3 10 47.0000000  0  5G01G09G11G16G27                      0.000199776
  22675782.508 5    -99681.012 5    -28594.94949  22675783.33649
  23247796.305 6     12535.668 6      6597.83648  23247795.77048
  20678393.906 6    -56302.875 6    -25646.00848  20678389.76648
  22955528.203 5     15096.332 5      4224.41447  22955525.07447
  22083851.406 6     35926.719 6     20101.14549  22083850.15649
 20  5 16  3 10 48.0000000  0  5G01G09G11G16G27                      0.000199224
  22674947.563 5   -104066.922 5    -32012.53949  22674948.50849
  23247913.984 6     13152.910 6      7078.80548  23247913.27048
  20677925.195 6    -58764.445 6    -27564.11748  20677921.60248
  22955648.703 5     15729.215 5      4717.56647  22955645.07847
  22084189.000 6     37698.215 6     21481.52749  22084187.49249
 20  5 16  3 10 49.0000000  0  5G01G09G11G16G27                      0.000198673
  22674112.781 6   -108454.352 6    -35431.32049  22674113.60249
  23248031.063 6     13768.738 6      7558.66448  23248030.69148
  20677456.344 6    -61227.254 6    -29483.18848  20677452.98848
  22955768.531 5     16360.336 5      5209.35247  22955765.36747
  22084525.117 6     39468.055 6     22860.62549  22084524.03149
 20  5 16  3 10 50.0000000  0  7G01G04G07G09G11G16G27                0.000198120
  22673277.203 6   -112843.301 6    -38851.28149  22673278.00849
  23349440.60915     41224.33215     15244.50857  23349440.19557
  22625591.38316    -99871.77016    -49038.52059  22625588.21559
  23248147.977 6     14383.195 6      8037.46148  23248147.23448
  20676987.477 6    -63691.219 6    -31403.15648  20676984.02048
  22955888.539 5     16989.895 5      5699.91447  22955885.31647
  22084861.523 6     41236.355 6     24238.52049  22084860.58649
 20  5 16  3 10 51.0000000  0  7G01G04G07G09G11G16G27                0.000197567
  22672442.164 6   -117233.750 6    -42272.40249  22672442.56649
  23349770.250 5     42954.168 5     16592.43047  23349769.25447
  22624857.070 6   -103730.016 6    -52044.94549  22624853.45749
  23248264.703 6     14996.309 6      8515.21548  23248264.60248
  20676518.703 6    -66156.387 6    -33324.06648  20676514.87948
  22956007.336 5     17617.793 5      6189.19547  22956004.83647
  22085197.820 6     43003.016 6     25615.13749  22085196.92249
 20  5 16  3 10 52.0000000  0  7G01G04G07G09G11G16G27                0.000197012
  22671606.055 6   -121625.602 6    -45694.62149  22671606.91049
  23350099.281 5     44682.465 5     17939.14847  23350098.44547
  22624123.117 6   -107589.617 6    -55052.43449  22624119.42649
  23248380.641 6     15608.184 6      8992.00448  23248380.74648
  20676049.016 6    -68622.629 6    -35245.82048  20676045.49248
  22956126.867 5     18244.172 5      6677.28147  22956124.21547
  22085533.711 6     44768.207 6     26990.61349  22085533.00049
 20  5 16  3 10 53.0000000  0  7G01G04G07G09G11G16G27                0.000196455
  22670770.492 6   -126018.742 6    -49117.84449  22670771.22749
  23350427.461 5     46409.344 5     19284.76647  23350426.80147
  22623388.523 6   -111450.445 6    -58060.87149  22623384.57449
  23248497.094 6     16218.828 6      9467.83248  23248497.04348
  20675579.813 6    -71089.883 6    -37168.35548  20675575.94148
  22956245.453 5     18869.082 5      7164.21947  22956242.97347
  22085869.742 6     46531.992 6     28364.98849  22085868.28549
 20  5 16  3 10 54.0000000  0  7G01G04G07G09G11G16G27                0.000195898
  22669934.055 6   -130413.211 6    -52542.10249  22669934.85249
  23350755.719 5     48134.754 5     20629.24247  23350755.27347
  22622652.992 6   -115312.598 6    -61070.34449  22622649.65249
  23248613.133 6     16828.309 6      9942.75048  23248612.55548
  20675110.352 6    -73558.160 6    -39091.68848  20675106.09448
  22956363.969 5     19492.543 5      7650.03547  22956361.92647
  22086205.063 6     48294.352 6     29738.26249  22086203.85949
 20  5 16  3 10 55.0000000  0  7G01G04G07G09G11G16G27                0.000195341
  22669097.453 6   -134808.852 6    -55967.27748  22669098.38348
  23351083.438 5     49858.898 5     21972.71947  23351083.07447
  22621918.336 6   -119175.840 6    -64080.66449  22621914.56349
  23248729.203 6     17436.801 6     10416.89848  23248728.77748
  20674640.250 6    -76027.273 6    -41015.67248  20674636.44548
  22956482.852 5     20114.672 5      8134.81647  22956480.25447
  22086539.797 6     50055.465 6     31110.55949  22086538.86349
 20  5 16  3 10 56.0000000  0  7G01G04G07G09G11G16G27                0.000194782
  22668261.125 6   -139205.633 6    -59393.34048  22668261.48848
  23351411.430 5     51581.785 5     23315.22347  23351410.88347
  22621183.031 6   -123040.133 6    -67091.80549  22621179.06649
  23248844.297 5     18044.254 5     10890.23448  23248844.28948
  20674170.266 6    -78497.184 6    -42940.27048  20674166.19948
  22956600.477 5     20735.547 5      8618.60947  22956598.07847
  22086875.047 6     51815.359 6     32481.90249  22086873.08649
 20  5 16  3 10 57.0000000  0  7G01G04G07G09G11G16G27                0.000194223
  22667424.180 5   -143603.441 5    -62820.20348  22667425.05548
  23351739.359 5     53303.484 5     24656.80947  23351738.60947
  22620447.344 6   -126905.441 6    -70103.73049  22620443.77049
  23248959.781 5     18650.805 5     11362.86748  23248959.59848
  20673699.891 6    -80967.855 6    -44865.47348  20673695.92248
  22956718.633 5     21355.219 5      9101.46947  22956716.08247
  22087209.516 6     53574.090 6     33852.34049  22087208.20749
 20  5 16  3 10 58.0000000  0  7G01G04G07G09G11G16G27                0.000193663
  22666586.898 6   -148002.293 6    -66247.87948  22666587.78148
  23352066.719 5     55024.008 5     25997.48047  23352066.12147
  22619711.758 6   -130771.750 6    -73116.44149  22619707.88349
  23249074.867 5     19256.430 5     11834.77748  23249074.80548
  20673229.617 6    -83439.266 6    -46791.25048  20673226.07048
  22956836.422 5     21973.707 5      9583.40247  22956833.61347
  22087544.883 6     55331.684 6     35221.89149  22087543.00049
 20  5 16  3 10 59.0000000  0  7G01G04G07G09G11G16G27                0.000193102
  22665750.172 6   -152402.102 6    -69676.30948  22665750.41048
  23352393.836 5     56743.484 5     27337.32847  23352393.48847
  22618975.992 6   -134638.891 6    -76129.79349  22618972.49649
  23249190.250 5     19861.270 5     12306.07848  23249190.09048
  20672759.219 6    -85911.262 6    -48717.47748  20672755.51648
  22956953.891 5     22591.152 5     10064.53147  22956950.99647
  22087878.211 6     57088.266 6     36590.65649  22087877.26649
 20  5 16  3 11  0.0000000  0  7G01G04G07G09G11G16G27                0.000192541
  22664912.031 5   -156802.691 5    -73105.33248  22664913.15248
  23352721.016 5     58462.027 5     28676.46147  23352720.37147
  22618239.156 6   -138506.832 6    -79143.77049  22618236.31349
  23249304.992 6     20465.457 6     12776.87548  23249304.80148
  20672288.883 6    -88383.797 6    -50644.12548  20672285.19548
  22957071.203 5     23207.605 5     10544.88347  22957068.77347
  22088212.406 6     58843.922 6     37958.69549  22088211.16849
 20  5 16  3 11  1.0000000  0  7G01G04G07G09G11G16G27                0.000191978
  22664074.883 5   -161204.004 5    -76534.91849  22664075.32849
  23353047.813 5     60179.770 5     30014.95747  23353047.09047
  22617503.414 6   -142375.410 6    -82158.24249  22617500.34449
  23249420.188 6     21069.027 6     13247.19148  23249419.68448
  20671818.375 6    -90856.676 6    -52571.04748  20671814.48048
  22957188.023 5     23823.262 5     11024.61747  22957185.58247
  22088546.141 6     60598.805 6     39326.14149  22088545.25849
 20  5 16  3 11  2.0000000  0  7G01G04G07G09G11G16G27                0.000191416
  22663236.813 5   -165606.105 5    -79965.12549  22663237.59049
  23353374.766 5     61896.559 5     31352.71547  23353373.96547
  22616767.117 6   -146244.715 6    -85173.28549  22616763.93849
  23249535.352 6     21671.957 6     13717.00048  23249534.37148
  20671347.719 6    -93330.063 6    -54498.35948  20671344.01648
  22957305.070 5     24437.973 5     11503.61347  22957302.68047
  22088880.406 6     62352.777 6     40692.86749  22088878.94949
 20  5 16  3 11  3.0000000  0  7G01G04G07G09G11G16G27                0.000190853
  22662398.781 5   -170009.000 5    -83395.94949  22662400.05949
  23353701.047 5     63612.410 5     32689.73847  23353700.35247
  22616031.180 6   -150114.742 6    -88188.89149  22616026.98449
  23249649.742 6     22274.227 6     14186.30148  23249649.02048
  20670876.656 6    -95803.926 6    -56426.05148  20670872.83648
  22957422.922 5     25051.746 5     11981.87947  22957419.72347
  22089213.813 6     64105.871 6     42058.91849  22089212.82849
 20  5 16  3 11  4.0000000  0  7G01G04G07G09G11G16G27                0.000190289
  22661561.594 6   -174412.668 6    -86827.37949  22661561.98449
  23354027.547 5     65327.406 5     34026.09446  23354026.87946
  22615294.070 6   -153985.516 6    -91205.07849  22615290.78149
  23249764.250 6     22875.852 6     14655.09448  23249763.28548
  20670406.063 6    -98278.258 6    -58354.10548  20670402.12548
  22957539.039 5     25664.586 5     12459.41447  22957535.67247
  22089547.195 6     65858.102 6     43424.28949  22089546.27049
 20  5 16  3 11  5.0000000  0  7G01G04G07G09G11G16G27                0.000189724
  22660723.586 6   -178817.188 6    -90259.46149  22660723.89549
  23354353.281 5     67041.426 5     35361.69547  23354352.95347
  22614557.133 6   -157857.047 6    -94221.85549  22614554.39149
  23249878.469 6     23476.793 6     15123.36348  23249877.34448
  20669935.227 6   -100753.094 6    -60282.54748  20669931.04748
  22957655.734 5     26276.480 5     12936.21147  22957652.46947
  22089880.563 6     67609.395 6     44788.93049  22089879.34449
 20  5 16  3 11  6.0000000  0  7G01G04G07G09G11G16G27                0.000189157
  22659885.141 5   -183222.246 5    -93691.98049  22659885.56649
  23354679.766 5     68754.738 5     36696.74247  23354679.21147
  22613820.742 6   -161729.109 6    -97239.04749  22613817.36349
  23249992.711 6     24077.285 6     15591.28148  23249991.93048
  20669464.398 6   -103228.227 6    -62211.21948  20669460.29348
  22957771.641 5     26887.629 5     13412.43847  22957768.75047
  22090213.516 6     69359.992 6     46153.02749  22090211.95749
 20  5 16  3 11  7.0000000  0  7G01G04G07G09G11G16G27                0.000188593
  22659046.797 6   -187627.969 6    -97125.01649  22659047.28149
  23355005.164 5     70467.270 5     38031.18047  23355005.12547
  22613083.930 6   -165601.777 6   -100256.71549  22613080.60549
  23250106.578 6     24677.250 6     16058.78548  23250106.28548
  20668992.938 6   -105703.660 6    -64140.12548  20668989.05148
  22957887.500 5     27498.000 5     13888.04347  22957884.80547
  22090546.984 6     71109.863 6     47516.56349  22090545.38749
 20  5 16  3 11  8.0000000  0  8G01G04G07G08G09G11G16G27             0.000188026
  22658208.172 5   -192034.203 5   -100558.44549  22658208.87149
  23355331.070 5     72179.191 5     39365.14547  23355330.59847
  22612346.547 6   -169474.867 6   -103274.71149  22612343.34049
  20669478.36717     10474.37917      5896.75859  20669477.47759
  23250220.883 5     25276.852 5     16526.00848  23250220.21148
  20668521.867 6   -108179.305 6    -66069.20348  20668517.81648
  22958003.398 5     28107.723 5     14363.15247  22958000.96947
  22090879.531 6     72859.141 6     48879.63349  22090878.39149
 20  5 16  3 11  9.0000000  0  8G01G04G07G08G09G11G16G27             0.000187460
  22657369.492 5   -196440.785 5   -103992.14549  22657370.05949
  23355656.531 5     73890.574 5     40698.68447  23355656.27747
  22611609.273 6   -173348.266 6   -106292.93849  22611606.14149
  20669526.852 7     10727.941 7      6094.34449  20669525.88749
  23250334.773 6     25876.211 6     16993.04348  23250334.21948
  20668051.211 6   -110654.977 6    -67998.29348  20668047.34848
  22958119.508 5     28716.914 5     14837.84847  22958116.88747
  22091212.297 6     74607.957 6     50242.34449  22091210.91449
 20  5 16  3 11 10.0000000  0  8G01G04G07G08G09G11G16G27             0.000186892
  22656530.664 5   -200847.805 5   -107426.18449  22656531.81649
  23355982.258 5     75601.453 5     42031.83246  23355981.99646
  22610872.031 6   -177222.078 6   -109311.49249  22610869.60249
  20669574.703 7     10981.141 7      6291.64149  20669573.74649
  23250449.438 6     26475.289 6     17459.85548  23250448.45748
  20667579.742 6   -113130.762 6    -69927.48048  20667575.80948
  22958235.516 5     29325.570 5     15312.12947  22958232.78547
  22091544.555 6     76356.234 6     51604.63749  22091543.82449
 20  5 16  3 11 11.0000000  0  8G01G04G07G08G09G11G16G27             0.000186325
  22655692.523 6   -205255.227 6   -110860.53149  22655693.20349
  23356307.750 5     77311.785 5     43364.55947  23356307.73047
  22610134.883 6   -181096.207 6   -112330.29349  22610132.21549
  20669623.383 7     11234.086 7      6488.73849  20669622.19549
  23250563.383 6     27074.098 6     17926.45348  23250562.19148
  20667108.719 6   -115606.652 6    -71856.74248  20667104.59848
  22958351.148 6     29933.676 6     15785.98047  22958348.30147
  22091877.773 6     78104.023 6     52966.55949  22091876.21149
 20  5 16  3 11 12.0000000  0  8G01G04G07G08G09G11G16G27             0.000185757
  22654853.289 6   -209663.008 6   -114295.16049  22654854.66849
  23356633.281 5     79021.637 5     44696.90647  23356633.19947
  22609397.289 6   -184970.664 6   -115349.35249  22609394.85249
  20669671.313 7     11486.785 7      6685.64149  20669670.24649
  23250677.055 6     27672.680 6     18392.87948  23250676.06348
  20666637.414 6   -118082.586 6    -73786.04348  20666633.48448
  22958466.914 6     30541.266 6     16259.41847  22958464.03947
  22092209.945 6     79851.344 6     54328.10949  22092208.52749
 20  5 16  3 11 13.0000000  0  8G01G04G07G08G09G11G16G27             0.000185188
  22654014.594 6   -214071.004 6   -117729.95749  22654015.31349
  23356958.617 5     80731.121 5     46028.96947  23356958.28147
  22608660.586 6   -188845.258 6   -118368.51249  22608657.39149
  20669719.219 7     11739.359 7      6882.45349  20669718.64149
  23250791.313 6     28271.188 6     18859.24648  23250790.30548
  20666166.164 6   -120558.430 6    -75715.27348  20666162.23048
  22958582.336 5     31148.500 5     16732.59447  22958579.58647
  22092542.445 6     81598.348 6     55689.41449  22092541.24649
 20  5 16  3 11 14.0000000  0  8G01G04G07G08G09G11G16G27             0.000184620
  22653175.914 6   -218479.281 6   -121164.98049  22653176.45349
  23357284.430 5     82440.270 5     47360.77746  23357283.32446
  22607922.867 6   -192720.027 6   -121387.81649  22607920.16449
  20669767.344 7     11991.813 7      7079.16849  20669765.69149
  23250904.266 6     28869.523 6     19325.47748  23250904.13348
  20665695.148 6   -123034.199 6    -77644.44148  20665691.33648
  22958697.898 5     31755.355 5     17205.46547  22958695.23047
  22092874.711 6     83345.023 6     57050.45349  22092873.89149
 20  5 16  3 11 15.0000000  0  8G01G04G07G08G09G11G16G27             0.000184052
  22652336.891 6   -222887.727 6   -124600.14149  22652337.68849
  23357609.281 5     84148.996 5     48692.25046  23357608.41446
  22607185.680 6   -196595.020 6   -124407.28549  22607182.65249
  20669815.383 7     12244.152 7      7275.79749  20669814.19549
  23251018.250 6     29467.805 6     19791.68048  23251017.99648
  20665224.445 6   -125509.871 6    -79573.53948  20665220.24648
  22958813.313 6     32361.840 6     17678.04747  22958810.62947
  22093207.516 6     85091.363 6     58411.24249  22093206.09849
 20  5 16  3 11 16.0000000  0  8G01G04G07G08G09G11G16G27             0.000183483
  22651497.625 6   -227296.543 6   -128035.57449  22651498.67249
  23357934.398 5     85857.336 5     50023.42247  23357933.64147
  22606448.477 5   -200470.230 5   -127426.93048  22606445.14148
  20669863.328 7     12496.258 7      7472.23849  20669862.12149
  23251132.227 6     30065.898 6     20257.73448  23251131.81648
  20664752.867 6   -127985.563 6    -81502.64548  20664749.03548
  22958928.750 5     32967.891 5     18150.28547  22958925.78947
  22093539.484 6     86837.266 6     59771.68049  22093537.90649
 20  5 16  3 11 17.0000000  0  8G01G04G07G08G09G11G16G27             0.000182915
  22650658.648 6   -231705.430 6   -131471.07449  22650659.52349
  23358258.922 5     87565.434 5     51354.40647  23358258.87547
  22605710.914 5   -204345.488 5   -130446.60948  22605708.23448
  20669911.047 7     12748.398 7      7668.71549  20669910.16049
  23251245.859 6     30663.996 6     20723.78148  23251245.44948
  20664281.789 6   -130461.047 6    -83431.59448  20664278.33648
  22959044.016 5     33573.680 5     18622.33647  22959041.03547
  22093871.500 6     88582.992 6     61131.99249  22093869.85549
 20  5 16  3 11 18.0000000  0  8G01G04G07G08G09G11G16G27             0.000182344
  22649820.156 5   -236114.484 5   -134906.68849  22649821.05149
  23358583.992 5     89273.285 5     52685.19547  23358583.45347
  22604973.359 5   -208220.852 5   -133466.36748  22604970.83648
  20669959.148 7     13000.500 7      7865.15649  20669958.54349
  23251359.977 6     31262.078 6     21189.84448  23251359.31648
  20663810.750 6   -132936.340 6    -85360.39548  20663807.01248
  22959159.039 5     34179.180 5     19094.15247  22959156.29747
  22094203.633 6     90328.465 6     62492.10249  22094202.00449
 20  5 16  3 11 19.0000000  0  8G01G04G07G08G09G11G16G27             0.000181774
  22648981.211 5   -240523.645 5   -138342.39149  22648982.25449
  23358909.125 5     90980.832 5     54015.73447  23358908.59447
  22604236.289 5   -212096.262 5   -136486.17248  22604232.60548
  20670007.023 7     13252.574 7      8061.58249  20670006.31349
  23251473.992 6     31860.172 6     21655.89848  23251473.18848
  20663339.977 6   -135411.484 6    -87289.08248  20663336.08648
  22959274.047 5     34784.422 5     19565.77347  22959271.57047
  22094535.703 6     92073.711 6     63852.02349  22094534.88749
 20  5 16  3 11 20.0000000  0  8G01G04G07G08G09G11G16G27             0.000181206
  22648142.125 6   -244932.918 6   -141778.19149  22648142.91449
  23359234.305 5     92688.145 5     55346.11747  23359233.97347
  22603498.727 5   -215971.770 5   -139506.03948  22603495.39548
  20670054.789 6     13504.648 6      8258.00049  20670053.98849
  23251587.398 6     32458.285 6     22121.95348  23251587.39848
  20662869.125 6   -137886.406 6    -89217.59848  20662864.86748
  22959389.336 5     35389.406 5     20037.18847  22959386.49647
  22094868.195 6     93818.777 6     65211.80149  22094866.35249
 20  5 16  3 11 21.0000000  0  8G01G04G07G08G09G11G16G27             0.000180635
  22647302.180 6   -249342.234 6   -145214.02748  22647304.22748
  23359558.133 5     94395.270 5     56676.34847  23359558.96947
  22602761.383 5   -219847.258 5   -142525.89848  22602758.41048
  20670102.820 6     13756.781 6      8454.46149  20670102.21949
  23251701.578 5     33056.508 5     22588.09048  23251701.40648
  20662397.875 6   -140361.074 6    -91145.91448  20662393.91048
  22959504.391 5     35994.172 5     20508.41447  22959501.59047
  22095199.961 6     95563.641 6     66571.41849  22095198.84049
 20  5 16  3 11 22.0000000  0  8G01G04G07G08G09G11G16G27             0.000180065
  22646463.539 6   -253751.695 6   -148649.97349  22646464.46949
  23359882.852 5     96102.113 5     58006.35247  23359882.89547
  22602023.828 5   -223722.703 5   -145545.72748  22602020.35948
  20670151.258 6     14008.961 6      8650.96149  20670150.02349
  23251815.344 5     33654.703 5     23054.19948  23251814.73448
  20661927.063 6   -142835.563 6    -93074.09048  20661923.30148
  22959619.375 5     36598.746 5     20979.50847  22959616.68047
  22095532.164 6     97308.316 6     67930.89849  22095531.01649
 20  5 16  3 11 23.0000000  0  8G01G04G07G08G09G11G16G27             0.000179495
  22645624.469 6   -258161.180 6   -152085.93849  22645625.47749
  23360208.055 5     97808.797 5     59336.22347  23360208.49647
  22601286.336 4   -227598.262 4   -148565.66848  22601283.34848
  20670199.680 6     14261.129 6      8847.45349  20670197.89549
  23251929.281 4     34253.027 4     23520.50447  23251929.92647
  20661455.898 6   -145309.781 6    -95002.03948  20661452.49648
  22959734.383 5     37203.051 5     21450.38747  22959731.62947
  22095864.227 6     99052.859 6     69290.29749  22095862.92249
 20  5 16  3 11 24.0000000  0  8G01G04G07G08G09G11G16G27             0.000178925
  22644785.586 6   -262570.805 6   -155522.01649  22644785.98449
  23360532.516 5     99515.234 5     60665.91446  23360532.99246
  22600549.133 4   -231473.867 4   -151585.63348  22600545.33648
  20670247.180 6     14513.266 6      9043.91849  20670246.27349
  23252042.352 3     34851.309 3     23986.75447  23252043.88747
  20660985.148 6   -147783.785 6    -96929.81348  20660981.23048
  22959848.898 5     37807.113 5     21921.09047  22959846.66447
  22096195.383 6    100797.164 6     70649.50449  22096194.68049
 20  5 16  3 11 25.0000000  0  8G01G04G07G08G09G11G16G27             0.000178352
  22643945.992 6   -266980.266 6   -158957.96149  22643947.22749
  23360857.477 5    101221.734 5     61995.65246  23360857.49646
  22599811.141 4   -235349.270 4   -154605.43448  22599808.10248
  20670295.344 6     14765.652 6      9240.57449  20670294.32849
  23252156.133 2     35449.863 2     24453.21547  23252157.49247
  20660514.695 6   -150257.375 6    -98857.28148  20660510.80148
  22959964.289 5     38411.191 5     22391.80546  22959961.75846
  22096527.977 6    102541.492 6     72008.73449  22096526.46949
 20  5 16  3 11 26.0000000  0  8G01G04G07G08G09G11G16G27             0.000177782
  22643107.500 6   -271389.672 6   -162393.86349  22643108.45749
  23361182.883 5    102928.168 5     63325.32847  23361182.34847
  22599074.367 4   -239224.555 4   -157625.12548  22599070.91448
  20670343.773 6     15018.223 6      9437.38749  20670342.48049
  23252271.195 1     36048.613 1     24919.78546  23252271.79746
  20660044.234 6   -152730.527 6   -100784.41048  20660040.10248
  22960079.250 5     39015.219 5     22862.48446  22960076.86346
  22096859.844 6    104285.836 6     73367.96949  22096858.69949
 20  5 16  3 11 27.0000000  0  8G01G04G07G08G09G11G16G27             0.000177212
  22642268.063 6   -275799.215 6   -165829.86749  22642269.18449
  23361506.789 5    104634.324 5     64654.78946  23361507.16046
  22598336.164 4   -243099.969 4   -160644.92648  22598333.05948
  20670391.430 7     15270.773 7      9634.18049  20670390.27049
  23252385.961 1     36647.414 1     25386.37546  23252385.60246
  20659573.664 6   -155203.543 6   -102711.44548  20659569.55148
  22960194.102 5     39618.926 5     23332.89547  22960191.37547
  22097191.430 6    106029.906 6     74726.97349  22097190.42649
 20  5 16  3 11 28.0000000  0  8G01G04G07G08G09G11G16G27             0.000176640
  22641428.984 6   -280208.770 6   -169265.87949  22641430.03149
  23361831.523 5    106340.297 5     65984.11747  23361831.86747
  22597598.859 5   -246975.305 5   -163664.64848  22597595.62948
  20670439.523 7     15523.355 7      9830.99249  20670438.08649
  23252499.313 3     37246.273 3     25852.98446  23252499.24646
  20659103.109 6   -157676.309 6   -104638.28548  20659099.23448
  22960308.969 5     40222.461 5     23803.17247  22960306.44947
  22097523.516 6    107773.848 6     76085.88749  22097522.31649
 20  5 16  3 11 29.0000000  0  8G01G04G07G08G09G11G16G27             0.000176069
  22640589.781 6   -284618.094 6   -172701.70749  22640591.04749
  23362156.375 5    108046.367 5     67313.51247  23362156.53147
  22596861.602 5   -250850.383 5   -166684.18848  22596858.37948
  20670487.453 7     15776.285 7     10028.08649  20670486.32049
  23252612.742 4     37845.465 4     26319.84447  23252613.36347
  20658632.477 6   -160148.512 6   -106564.68848  20658628.67248
  22960424.094 5     40826.098 5     24273.52046  22960420.95346
  22097855.078 6    109517.906 6     77444.88349  22097854.33249
 20  5 16  3 11 30.0000000  0  8G01G04G07G08G09G11G16G27             0.000175497
  22639750.492 6   -289027.293 6   -176137.44549  22639751.64549
  23362481.406 5    109752.457 5     68642.93447  23362481.10547
  22596124.734 5   -254725.219 5   -169703.53948  22596121.33248
  20670535.742 6     16029.527 6     10225.42249  20670534.82049
  23252727.070 4     38444.965 4     26786.92647  23252727.12947
  20658162.219 6   -162620.242 6   -108490.72348  20658158.22348
  22960539.125 5     41429.746 5     24743.88747  22960535.97347
  22098187.023 6    111262.043 6     78803.94549  22098186.32449
 20  5 16  3 11 31.0000000  0  8G01G04G07G08G09G11G16G27             0.000174927
  22638911.883 6   -293436.305 6   -179573.03949  22638913.09849
  23362805.680 5    111458.559 5     69972.37147  23362805.68447
  22595386.828 4   -258599.855 4   -172722.75048  22595383.76248
  20670583.781 7     16283.031 7     10422.95749  20670582.96149
  23252841.102 3     39044.754 3     27254.26647  23252841.62147
  20657691.836 6   -165091.496 6   -110416.36348  20657687.94948
  22960653.758 5     42033.398 5     25214.27046  22960651.05546
  22098519.305 6    113006.195 6     80163.02349  22098517.98849
 20  5 16  3 11 32.0000000  0  8G01G04G07G08G09G11G16G27             0.000174355
  22638072.633 6   -297845.391 6   -183008.69949  22638073.60549
  23363130.180 4    113164.500 4     71301.68046  23363130.53146
  22594649.258 4   -262474.547 4   -175741.99448  22594646.30948
  20670632.258 6     16536.582 6     10620.52349  20670630.90649
  23252954.836 3     39644.605 3     27721.71547  23252955.93047
  20657221.938 6   -167562.492 6   -112341.79748  20657217.68448
  22960768.758 5     42636.879 5     25684.53546  22960765.68846
  22098850.734 6    114750.242 6     81522.02349  22098850.08649
 20  5 16  3 11 33.0000000  0  8G01G04G07G08G09G11G16G27             0.000173784
  22637234.047 6   -302254.344 6   -186444.24649  22637234.92249
  23363454.680 4    114870.434 4     72630.97346  23363454.87546
  22593912.305 4   -266349.000 4   -178761.05948  22593909.51648
  20670680.492 7     16790.367 7     10818.27349  20670679.59049
  23253068.391 2     40244.773 2     28189.40647  23253070.09047
  20656751.148 6   -170033.063 6   -114266.91048  20656747.85948
  22960883.500 5     43240.309 5     26154.75046  22960880.26246
  22099182.617 6    116494.289 6     82881.02749  22099182.02349
 20  5 16  3 11 34.0000000  0  8G01G04G07G08G09G11G16G27             0.000173212
  22636394.633 6   -306663.199 6   -189879.71149  22636396.04349
  23363779.820 5    116576.352 5     73960.25046  23363779.35946
  22593174.406 4   -270223.313 4   -181779.99248  22593171.68848
  20670728.953 7     17044.371 7     11016.19949  20670727.52749
  23253183.508 2     40845.086 2     28657.18847  23253183.79747
  20656281.219 6   -172503.199 6   -116191.69548  20656277.71948
  22960997.688 5     43843.703 5     26624.93046  22960995.52046
  22099514.773 6    118238.340 6     84240.03149  22099513.66049
 20  5 16  3 11 35.0000000  0  8G01G04G07G08G09G11G16G27             0.000172640
  22635556.133 6   -311071.906 6   -193315.06349  22635557.03149
  23364103.656 5    118282.234 5     75289.49646  23364104.07046
  22592437.211 4   -274097.439 4   -184798.78048  22592434.61748
  20670777.180 7     17298.594 7     11214.29349  20670776.42649
  23253298.727 2     41445.707 2     29125.20347  23253298.33247
  20655811.766 6   -174972.918 6   -118116.15248  20655807.92248
  22961113.086 5     44447.117 5     27095.13746  22961110.52746
  22099846.625 6    119982.430 6     85599.06649  22099845.53549
 20  5 16  3 11 36.0000000  0  8G01G04G07G08G09G11G16G27             0.000172070
  22634716.773 6   -315480.613 6   -196750.42649  22634717.76649
  23364428.336 3    119987.961 3     76618.63346  23364429.01646
  22591700.617 4   -277971.473 4   -187817.48848  22591697.44548
  20670825.648 7     17552.938 7     11412.49249  20670824.73449
  23253412.422 5     42046.504 5     29593.30947  23253413.41047
  20655341.875 6   -177442.313 6   -120040.35548  20655337.74248
  22961227.969 6     45050.398 6     27565.22747  22961224.98847
  22100178.422 6    121726.430 6     86958.01649  22100177.21149
 20  5 16  3 11 37.0000000  0  8G01G04G07G08G09G11G16G27             0.000171497
  22633878.344 6   -319889.051 6   -200185.57849  22633879.09849
  23364753.805 5    121693.953 5     77947.98846  23364753.35946
  22590963.313 5   -281845.246 5   -190836.00448  22590960.22348
  20670873.875 7     17807.688 7     11611.00449  20670872.69949
  23253526.305 5     42647.570 5     30061.59448  23253527.01648
  20654871.758 6   -179911.117 6   -121964.10948  20654867.73048
  22961342.375 5     45653.770 5     28035.37147  22961340.12147
  22100510.625 6    123470.570 6     88317.07449  22100509.14149
 20  5 16  3 11 38.0000000  0  8G01G04G07G08G09G11G16G27             0.000170925
  22633039.156 6   -324297.371 6   -203620.62949  22633040.38349
  23365077.898 5    123399.852 5     79277.26646  23365077.70346
  22590226.281 5   -285718.809 5   -193854.35948  22590222.55948
  20670922.750 7     18062.629 7     11809.67249  20670921.62949
  23253641.492 5     43248.941 5     30530.15248  23253640.83648
  20654402.352 7   -182379.496 7   -123887.53948  20654398.59448
  22961457.680 5     46257.125 5     28505.50447  22961454.74247
  22100842.375 6    125214.723 6     89676.14849  22100841.04749
 20  5 16  3 11 39.0000000  0  8G01G04G07G08G09G11G16G27             0.000170353
  22632200.656 5   -328705.582 5   -207055.57449  22632201.42249
  23365402.984 5    125105.781 5     80606.55546  23365402.59846
  22589488.891 5   -289592.207 5   -196872.59448  22589485.78148
  20670970.641 7     18317.801 7     12008.51249  20670969.84449
  23253755.625 5     43850.527 5     30998.91048  23253755.19948
  20653932.297 7   -184847.410 7   -125810.60248  20653928.57448
  22961572.063 5     46860.445 5     28975.62947  22961569.27047
  22101174.422 6    126958.926 6     91035.27049  22101173.19149
 20  5 16  3 11 40.0000000  0  8G01G04G07G08G09G11G16G27             0.000169781
  22631362.133 5   -333113.594 5   -210490.37149  22631362.85949
  23365726.844 5    126811.680 5     81935.82047  23365727.00447
  22588751.141 5   -293465.359 5   -199890.64548  22588748.46948
  20671019.531 7     18573.207 7     12207.52349  20671018.53149
  23253869.813 5     44452.426 5     31467.93048  23253869.18048
  20653462.875 7   -187314.891 7   -127733.31648  20653459.27748
  22961687.273 5     47463.801 5     29445.78147  22961684.22347
  22101506.117 6    128703.172 6     92394.42649  22101504.80949
 20  5 16  3 11 41.0000000  0  8G01G04G07G08G09G11G16G27             0.000169210
  22630522.367 5   -337521.574 5   -213925.14849  22630523.69549
  23366051.930 5    128517.520 5     83265.03547  23366051.50847
  22588014.953 5   -297338.422 5   -202908.61748  22588011.36348
  20671068.359 7     18828.828 7     12406.70349  20671067.35949
  23253985.102 5     45054.527 5     31937.11348  23253983.75048
  20652993.492 7   -189781.988 7   -129655.72348  20652989.59848
  22961801.727 5     48067.090 5     29915.87547  22961799.01647
  22101838.398 6    130447.355 6     93753.52349  22101836.90249
 20  5 16  3 11 42.0000000  0  8G01G04G07G08G09G11G16G27             0.000168638
  22629683.969 5   -341929.281 5   -217359.72749  22629684.82049
  23366376.391 5    130223.461 5     84594.34447  23366376.27047
  22587277.930 5   -301211.141 5   -205926.32048  22587274.41848
  20671117.031 7     19084.789 7     12606.15649  20671116.05549
  23254099.273 5     45657.004 5     32406.58648  23254098.16048
  20652524.383 7   -192248.527 7   -131577.69948  20652520.42648
  22961916.563 5     48670.488 5     30386.05147  22961913.35247
  22102170.180 6    132191.727 6     95112.77749  22102168.79749
 20  5 16  3 11 43.0000000  0  8G01G04G07G08G09G11G16G27             0.000168066
  22628845.367 6   -346336.922 6   -220794.27749  22628845.80949
  23366701.492 1    131929.328 1     85923.61346  23366700.50446
  22586541.563 5   -305083.676 5   -208943.88748  22586537.34448
  20671165.820 7     19340.996 7     12805.79349  20671164.81349
  23254213.039 4     46259.867 4     32876.36348  23254213.30948
  20652055.234 6   -194714.617 6   -133499.30148  20652051.17248
  22962031.922 6     49273.852 6     30856.19547  22962028.16047
  22102501.898 6    133936.117 6     96472.03949  22102500.76649
 20  5 16  3 11 44.0000000  0  8G01G04G07G08G09G11G16G27             0.000167494
  22628006.430 6   -350744.273 6   -224228.58648  22628007.55948
  23367025.688 1    133635.375 1     87253.06646  23367025.94946
  22585804.969 4   -308955.941 4   -211961.23048  22585800.85948
  20671214.633 7     19597.504 7     13005.67649  20671214.05549
  23254327.852 3     46862.953 3     33346.29748  23254328.00048
  20651584.953 6   -197180.172 6   -135420.46547  20651581.89547
  22962146.211 6     49877.285 6     31326.39847  22962143.25447
  22102833.922 6    135680.605 6     97831.39849  22102832.79749
 20  5 16  3 11 45.0000000  0  8G01G04G07G08G09G11G16G27             0.000166922
  22627167.359 6   -355151.652 6   -227662.91448  22627169.05148
  23367349.367 1    135341.281 1     88582.36746  23367350.64546
  22585067.641 5   -312828.160 5   -214978.54348  22585064.23048
  20671263.586 7     19854.145 7     13205.65249  20671262.52049
  23254442.992 4     47466.180 4     33816.33247  23254442.75447
  20651116.289 6   -199645.414 6   -137341.41447  20651113.11347
  22962261.578 5     50480.613 5     31796.52347  22962258.33647
  22103165.609 6    137425.023 6     99190.69949  22103164.75849
 20  5 16  3 11 46.0000000  0  8G01G04G07G08G09G11G16G27             0.000166349
  22626328.750 6   -359558.934 6   -231097.15648  22626330.53948
  23367674.344 2    137047.113 2     89911.57846  23367675.40246
  22584330.547 5   -316700.250 5   -217995.75848  22584327.48048
  20671312.688 6     20110.957 6     13405.77349  20671311.44149
  23254557.633 3     48069.551 3     34286.48047  23254557.78147
  20650646.883 6   -202110.285 6   -139262.09847  20650643.73447
  22962375.719 6     51083.844 6     32266.59047  22962372.99247
  22103497.500 6    139169.379 6    100549.93049  22103496.54749
 20  5 16  3 11 47.0000000  0  8G01G04G07G08G09G11G16G27             0.000165777
  22625489.992 6   -363965.988 6   -234531.23449  22625491.57049
  23367998.672 3    138753.121 3     91240.89846  23367999.74246
  22583593.695 5   -320572.043 5   -221012.75448  22583590.78548
  20671360.992 6     20368.066 6     13606.12149  20671359.97749
  23254672.586 4     48673.270 4     34756.91848  23254672.94548
  20650178.133 6   -204574.656 6   -141182.41447  20650174.83647
  22962490.430 6     51687.148 6     32736.69547  22962487.70747
  22103829.578 6    140913.871 6    101909.26249  22103828.53549
 20  5 16  3 11 48.0000000  0  8G01G04G07G08G09G11G16G27             0.000165205
  22624651.750 6   -368372.734 6   -237965.05949  22624653.25049
  23368324.125 5    140459.207 5     92570.24646  23368324.82446
  22582857.180 5   -324443.566 5   -224029.52348  22582853.54348
  20671410.391 7     20625.559 7     13806.75449  20671409.14549
  23254788.328 5     49277.360 5     35227.65948  23254788.19148
  20649709.719 6   -207038.430 6   -143102.25848  20649705.83248
  22962605.078 6     52290.578 6     33206.90247  22962602.43847
  22104161.773 6    142658.484 6    103268.68849  22104160.70749
 20  5 16  3 11 49.0000000  0  8G01G04G07G08G09G11G16G27             0.000164633
  22623813.266 6   -372779.457 6   -241398.84849  22623814.61749
  23368649.320 5    142165.289 5     93899.61746  23368649.30946
  22582120.102 5   -328314.922 5   -227046.16048  22582117.33648
  20671459.461 7     20883.258 7     14007.55549  20671458.48049
  23254902.594 5     49881.648 5     35698.52748  23254902.65248
  20649240.969 6   -209501.758 6   -145021.76248  20649237.43848
  22962720.648 6     52893.945 6     33677.06647  22962717.52347
  22104494.367 6    144403.160 6    104628.17649  22104492.54349
 20  5 16  3 11 50.0000000  0  8G01G04G07G08G09G11G16G27             0.000164061
  22622974.695 6   -377185.969 6   -244832.46949  22622976.14549
  23368973.406 5    143871.340 5     95228.99246  23368973.60546
  22581383.117 5   -332186.008 5   -230062.58648  22581380.31348
  20671508.367 7     21141.227 7     14208.56349  20671507.19549
  23255018.469 5     50486.285 5     36169.67248  23255017.36748
  20648772.523 6   -211964.594 6   -146940.87548  20648768.74248
  22962834.773 5     53497.414 5     34147.30147  22962832.64847
  22104825.750 6    146147.914 6    105987.71149  22104824.18449
 20  5 16  3 11 51.0000000  0  8G01G04G07G08G09G11G16G27             0.000163488
  22622136.203 6   -381592.457 6   -248266.08249  22622137.50049
  23369298.656 5    145577.340 5     96558.35247  23369298.20347
  22580646.594 5   -336057.031 5   -233078.96148  22580643.53148
  20671557.422 7     21399.371 7     14409.71149  20671556.53949
  23255133.008 5     51091.109 5     36640.96148  23255132.72348
  20648303.586 6   -214427.117 6   -148859.72348  20648299.68448
  22962949.477 6     54100.746 6     34617.43047  22962946.94547
  22105157.906 6    147892.551 6    107347.16449  22105156.57849
 20  5 16  3 11 52.0000000  0  8G01G04G07G08G09G11G16G27             0.000162916
  22621297.633 6   -385998.785 6   -251699.58649  22621298.49249
  23369622.570 5    147283.309 5     97887.69947  23369622.73847
  22579909.633 5   -339927.859 5   -236095.18848  22579906.85548
  20671606.578 7     21657.738 7     14611.03149  20671605.41049
  23255248.289 6     51696.215 6     37112.46148  23255247.50048
  20647834.852 6   -216889.176 6   -150778.20348  20647831.61748
  22963064.594 6     54704.039 6     35087.52747  22963061.78547
  22105489.883 6    149637.246 6    108706.66849  22105488.43849
 20  5 16  3 11 53.0000000  0  8G01G04G07G08G09G11G16G27             0.000162342
  22620459.094 6   -390404.984 6   -255132.99249  22620460.55949
  23369947.984 5    148989.293 5     99217.05147  23369947.44547
  22579173.852 5   -343798.465 5   -239111.24648  22579170.15648
  20671655.844 7     21916.316 7     14812.52349  20671654.77049
  23255363.906 5     52301.563 5     37584.15248  23255362.80148
  20647366.727 6   -219350.793 6   -152696.33248  20647362.94948
  22963179.672 5     55307.348 5     35557.62947  22963176.75847
  22105822.141 6    151381.965 6    110066.19149  22105820.62549
 20  5 16  3 11 54.0000000  0  8G01G04G07G08G09G11G16G27             0.000161770
  22619620.828 6   -394810.984 6   -258566.23849  22619622.41449
  23370272.367 5    150695.301 5    100546.41447  23370272.39847
  22578437.258 5   -347668.863 5   -242127.14548  22578434.04748
  20671705.047 7     22175.215 7     15014.26249  20671704.00849
  23255479.016 6     52907.215 6     38056.08248  23255477.93848
  20646898.477 6   -221811.938 6   -154614.10548  20646894.73048
  22963294.445 6     55910.688 6     36027.76247  22963291.35947
  22106153.992 6    153126.754 6    111425.76649  22106152.26649
 20  5 16  3 11 55.0000000  0  8G01G04G07G08G09G11G16G27             0.000161198
  22618782.469 6   -399216.883 6   -261999.41849  22618783.46149
  23370596.680 5    152401.332 5    101875.79347  23370596.91447
  22577700.602 5   -351539.039 5   -245142.86748  22577697.55548
  20671754.766 7     22434.340 7     15216.18049  20671753.64849
  23255594.711 6     53513.121 6     38528.20748  23255593.34048
  20646430.539 6   -224272.625 6   -156531.51648  20646426.28148
  22963409.594 5     56514.020 5     36497.87947  22963406.26247
  22106486.047 6    154871.555 6    112785.35549  22106483.91049
 20  5 16  3 11 56.0000000  0  8G01G04G07G08G09G11G16G27             0.000160625
  22617944.016 6   -403622.617 6   -265432.46949  22617945.19949
  23370921.516 5    154107.359 5    103205.16446  23370921.73846
  22576963.797 5   -355409.070 5   -248158.47748  22576961.05148
  20671803.656 7     22693.715 7     15418.28949  20671803.05949
  23255709.813 6     54119.301 6     39000.55148  23255708.84448
  20645961.563 6   -226732.855 6   -158448.56648  20645958.28948
  22963524.000 6     57117.367 6     36968.02347  22963521.10547
  22106817.570 6    156616.422 6    114144.99249  22106816.44549
 20  5 16  3 11 57.0000000  0  8G01G04G07G08G09G11G16G27             0.000160051
  22617105.547 6   -408028.074 6   -268865.29749  22617106.89849
  23371246.352 5    155813.504 5    104534.62146  23371245.93046
  22576227.539 5   -359278.758 5   -251173.82048  22576224.49648
  20671853.359 7     22953.426 7     15620.66049  20671852.44549
  23255824.859 6     54725.855 6     39473.19148  23255823.96548
  20645493.938 6   -229192.508 6   -160365.17648  20645490.43448
  22963639.008 6     57720.816 6     37438.24247  22963635.68447
  22107149.859 6    158361.426 6    115504.73849  22107148.10549
 20  5 16  3 11 58.0000000  0  8G01G04G07G08G09G11G16G27             0.000159479
  22616267.156 6   -412433.500 6   -272298.09049  22616268.83249
  23371570.828 4    157519.512 4    105863.96546  23371571.00446
  22575492.125 5   -363148.234 5   -254188.98848  22575488.53548
  20671902.422 7     23213.359 7     15823.20349  20671901.64149
  23255941.180 4     55332.699 4     39946.07848  23255939.96148
  20645025.547 6   -231651.820 6   -162281.53548  20645022.25048
  22963754.109 6     58324.211 6     37908.40647  22963750.57447
  22107482.281 6    160106.398 6    116864.46149  22107480.10549
 20  5 16  3 11 59.0000000  0  8G01G04G07G08G09G11G16G27             0.000158907
  22615429.008 6   -416838.719 6   -275730.72349  22615430.49249
  23371895.688 3    159225.641 3    107193.40246  23371895.39846
  22574755.688 4   -367017.574 4   -257204.05148  22574752.17248
  20671952.094 7     23473.539 7     16025.93849  20671951.20349
  23256055.359 4     55939.770 4     40419.13748  23256055.42648
  20644557.953 6   -234110.590 6   -164197.44548  20644554.39148
  22963868.367 6     58927.613 6     38378.56347  22963865.57847
  22107814.289 6    161851.457 6    118224.23449  22107812.32049
 20  5 16  3 12  0.0000000  0  8G01G04G07G08G09G11G16G27             0.000158333
  22614590.961 6   -421243.637 6   -279163.13749  22614592.53149
  23372220.094 4    160931.938 4    108522.98046  23372220.55946
  22574019.766 5   -370886.523 5   -260218.82448  22574015.84848
  20672001.945 6     23734.145 6     16229.02049  20672001.11349
  23256171.555 4     56547.191 4     40892.46148  23256170.70348
  20644089.977 6   -236568.797 6   -166112.91848  20644086.65248
  22963983.680 6     59531.164 6     38848.85247  22963980.18847
  22108146.406 6    163596.684 6    119584.14149  22108144.68049
 20  5 16  3 12  1.0000000  0  8G01G04G07G08G09G11G16G27             0.000157761
  22613752.547 6   -425648.473 6   -282595.48449  22613754.22349
  23372544.656 4    162638.219 4    109852.53546  23372545.45346
  22573282.625 4   -374755.293 4   -263233.44948  22573280.19148
  20672051.375 6     23994.984 6     16432.27749  20672050.16449
  23256287.188 4     57154.980 4     41366.06647  23256286.77047
  20643622.500 6   -239026.516 6   -168028.01648  20643619.07448
  22964098.555 6     60134.727 6     39319.16847  22964094.73847
  22108478.602 6    165341.973 6    120944.10249  22108476.94549
 20  5 16  3 12  2.0000000  0  8G01G04G07G08G09G11G16G27             0.000157188
  22612914.555 6   -430052.938 6   -286027.52349  22612915.79749
  23372869.234 2    164344.609 2    111182.17246  23372870.24246
  22572546.914 4   -378623.699 4   -266247.79748  22572543.94948
  20672100.828 6     24256.270 6     16635.87549  20672100.07849
  23256402.773 1     57763.102 1     41839.93847  23256402.46547
  20643154.516 6   -241483.605 6   -169942.62147  20643151.10947
  22964213.391 6     60738.418 6     39789.58246  22964210.26646
  22108810.422 6    167087.434 6    122304.21149  22108809.31649
 20  5 16  3 12  3.0000000  0  8G01G04G07G08G09G11G16G27             0.000156614
  22612076.570 6   -434457.320 6   -289459.50448  22612077.69548
  23373194.148 3    166051.047 3    112511.87546  23373194.69146
  22571810.703 4   -382491.938 4   -269262.00848  22571807.70748
  20672150.484 6     24517.746 6     16839.62549  20672149.55149
  23256518.523 1     58371.430 1     42314.01647  23256518.85547
  20642687.781 6   -243940.324 6   -171856.94547  20642683.91047
  22964327.945 6     61342.082 6     40259.98846  22964324.94946
  22109142.211 6    168832.910 6    123664.33248  22109141.09448
 20  5 16  3 12  4.0000000  0  8G01G04G07G08G09G11G16G27             0.000156042
  22611238.688 6   -438861.523 6   -292891.34448  22611239.44148
  23373518.750 3    167757.516 3    113841.61746  23373519.50046
  22571074.906 5   -386359.977 5   -272276.07048  22571071.52748
  20672200.180 6     24779.469 6     17043.56349  20672199.78549
  23256634.453 1     58980.113 1     42788.36747  23256634.40247
  20642220.641 6   -246396.574 6   -173770.90647  20642216.63347
  22964442.703 6     61945.813 6     40730.43446  22964439.77046
  22109474.891 6    170578.445 6    125024.49648  22109473.51248
 20  5 16  3 12  5.0000000  0  8G01G04G07G08G09G11G16G27             0.000155470
  22610400.125 6   -443265.535 6   -296323.03548  22610401.50048
  23373843.492 3    169463.969 3    115171.33246  23373844.68046
  22570339.016 5   -390227.781 5   -275289.94548  22570335.76248
  20672250.328 6     25041.465 6     17247.70749  20672249.29749
  23256750.008 1     59589.109 1     43262.90647  23256750.06347
  20641752.219 6   -248852.301 6   -175684.45347  20641749.05147
  22964557.305 6     62549.523 6     41200.86347  22964554.82447
  22109806.742 6    172324.035 6    126384.69948  22109805.60548
 20  5 16  3 12  6.0000000  0  8G01G04G07G08G09G11G16G27             0.000154896
  22609562.047 6   -447669.484 6   -299754.68049  22609563.79349
  23374167.930 3    171170.465 3    116501.07046  23374169.07046
  22569602.664 5   -394095.453 5   -278303.70748  22569599.74248
  20672300.359 6     25303.656 6     17452.01649  20672299.51649
  23256867.195 1     60198.297 1     43737.57846  23256866.40246
  20641285.281 6   -251307.637 6   -177597.70347  20641281.93047
  22964672.852 6     63153.215 6     41671.25847  22964670.06647
  22110138.938 6    174069.641 6    127744.90649  22110137.78149
 20  5 16  3 12  7.0000000  0  8G01G04G07G08G09G11G16G27             0.000154324
  22608724.305 6   -452073.184 6   -303186.13349  22608725.61349
  23374492.969 1    172876.914 1    117830.76246  23374493.96546
  22568866.867 5   -397962.770 5   -281317.19548  22568863.81648
  20672350.266 6     25566.184 6     17656.57449  20672349.56649
  23256983.063 1     60807.926 1     44212.56347  23256982.18447
  20640818.242 6   -253762.418 6   -179510.52347  20640814.44547
  22964788.023 6     63756.988 6     42141.72347  22964784.90647
  22110471.242 6    175815.332 6    129105.18449  22110469.99649
 20  5 16  3 12  8.0000000  0  8G01G04G07G08G09G11G16G27             0.000153749
  22607886.445 6   -456476.652 6   -306617.41049  22607887.55149
  23374818.352 3    174583.566 3    119160.60946  23374818.57446
  22568131.742 5   -401829.902 5   -284330.54348  22568128.11748
  20672400.539 6     25828.992 6     17861.35949  20672399.20749
  23257098.531 2     61417.703 2     44687.68847  23257098.55547
  20640351.047 6   -256216.754 6   -181422.99247  20640347.78547
  22964902.359 6     64360.773 6     42612.20346  22964899.62946
  22110803.523 6    177561.121 6    130465.53149  22110802.26249
 20  5 16  3 12  9.0000000  0  8G01G04G07G08G09G11G16G27             0.000153177
  22607048.195 6   -460879.879 6   -310048.49649  22607049.69149
  23375143.047 3    176290.309 3    120490.50446  23375143.57446
  22567396.164 5   -405696.641 5   -287343.58648  22567391.89148
  20672450.297 6     26092.215 6     18066.47349  20672449.65249
  23257214.078 1     62028.012 1     45163.24247  23257214.62147
  20639884.070 6   -258670.422 6   -183334.93847  20639880.88747
  22965017.219 6     64964.723 6     43082.80947  22965013.96947
  22111135.828 6    179307.117 6    131826.04749  22111134.55549
 20  5 16  3 12 10.0000000  0  8G01G04G07G08G09G11G16G27             0.000152605
  22606210.273 6   -465282.859 6   -313479.38348  22606211.84048
  23375467.563 2    177997.133 2    121820.46946  23375467.87146
  22566659.625 5   -409563.137 5   -290356.44548  22566656.03948
  20672500.781 6     26355.746 6     18271.81649  20672499.87549
  23257330.281 1     62638.641 1     45639.06647  23257330.51247
  20639417.398 6   -261123.590 6   -185246.49247  20639414.25447
  22965132.469 6     65568.781 6     43553.51246  22965129.38746
  22111467.695 6    181053.203 6    133186.62549  22111466.61749
 20  5 16  3 12 11.0000000  0  8G01G04G07G08G09G11G16G27             0.000152033
  22605372.156 6   -469685.813 6   -316910.25048  22605373.78948
  23375792.359 3    179703.813 3    123150.37946  23375793.55546
  22565924.063 4   -413429.520 4   -293369.19147  22565920.02747
  20672550.477 6     26619.422 6     18477.28149  20672549.62149
  23257446.680 1     63249.316 1     46114.94146  23257447.35246
  20638950.813 6   -263576.375 6   -187157.75447  20638947.24647
  22965247.500 6     66172.715 6     44024.11747  22965244.43447
  22111800.070 6    182799.230 6    134547.16849  22111799.15649
 20  5 16  3 12 12.0000000  0  8G01G04G07G08G09G11G16G27             0.000151459
  22604534.797 6   -474088.602 6   -320340.99248  22604535.65248
  23376116.703 3    181410.566 3    124480.33645  23376117.98845
  22565188.086 4   -417295.750 4   -296381.84047  22565184.66447
  20672601.227 6     26883.297 6     18682.91049  20672600.23449
  23257561.875 1     63860.348 1     46591.09447  23257563.25447
  20638483.820 6   -266028.770 6   -189068.71147  20638480.57447
  22965362.258 6     66776.613 6     44494.69547  22965359.56647
  22112132.445 6    184545.270 6    135907.71549  22112131.57849
 20  5 16  3 12 13.0000000  0  8G01G04G07G08G09G11G16G27             0.000150887
  22603696.781 6   -478491.195 6   -323771.59849  22603698.00449
  23376442.273 4    183117.348 4    125810.28146  23376442.87946
  22564452.219 5   -421161.684 5   -299394.26248  22564448.60948
  20672651.320 6     27147.523 6     18888.79749  20672650.33249
  23257680.125 1     64471.656 1     47067.45347  23257679.97747
  20638017.352 6   -268480.602 6   -190979.23447  20638013.64547
  22965476.914 6     67380.621 6     44965.35947  22965474.50447
  22112464.219 6    186291.438 6    137268.36748  22112463.59448
 20  5 16  3 12 14.0000000  0  8G01G04G07G08G09G11G16G27             0.000150312
  22602859.258 6   -482893.547 6   -327202.00449  22602860.26649
  23376767.242 4    184824.250 4    127140.31646  23376767.64146
  22563716.578 4   -425027.373 4   -302406.49148  22563713.37948
  20672701.945 6     27412.074 6     19094.95349  20672700.96549
  23257795.625 1     65083.387 1     47544.14547  23257796.11347
  20637550.719 6   -270931.875 6   -192889.32447  20637547.44547
  22965592.063 6     67984.723 6     45436.07847  22965589.16447
  22112797.047 6    188037.719 6    138629.10948  22112796.04748
 20  5 16  3 12 15.0000000  0  8G01G04G07G08G09G11G16G27             0.000149738
  22602021.578 6   -487295.688 6   -330632.24649  22602022.87549
  23377091.813 4    186531.188 4    128470.39145  23377092.90645
  22562981.398 4   -428892.711 4   -305418.45348  22562977.73848
  20672752.203 6     27676.918 6     19301.32449  20672751.12549
  23257912.922 1     65695.395 1     48021.05547  23257912.61347
  20637084.594 6   -273382.672 6   -194799.03547  20637080.87547
  22965707.313 6     68588.859 6     45906.82047  22965704.34447
  22113129.133 6    189784.074 6    139989.91448  22113128.34048
 20  5 16  3 12 16.0000000  0  8G01G04G07G08G09G11G16G27             0.000149166
  22601184.039 6   -491697.586 6   -334062.29749  22601184.81649
  23377416.078 4    188238.219 4    129800.55545  23377417.06645
  22562245.773 5   -432757.824 5   -308430.23048  22562241.80148
  20672802.266 6     27942.113 6     19507.96549  20672801.57849
  23258029.859 2     66307.832 2     48498.28547  23258029.10247
  20636618.180 6   -275832.898 6   -196708.30147  20636614.76247
  22965822.055 6     69193.086 6     46377.65247  22965819.30947
  22113461.680 6    191530.633 6    141350.87148  22113460.46548
 20  5 16  3 12 17.0000000  0  8G01G04G07G08G09G11G16G27             0.000148592
  22600346.508 6   -496099.238 6   -337492.14849  22600347.18449
  23377740.945 4    189945.375 4    131130.82445  23377742.01245
  22561510.508 5   -436622.617 5   -311441.75448  22561506.63348
  20672853.125 6     28207.637 6     19714.85249  20672852.13349
  23258145.984 1     66920.625 1     48975.78547  23258145.88347
  20636152.438 6   -278282.586 6   -198617.14847  20636148.77047
  22965937.086 6     69797.426 6     46848.55947  22965934.50047
  22113794.500 6    193277.258 6    142711.87549  22113793.15649
 20  5 16  3 12 18.0000000  0  8G01G04G07G08G09G11G16G27             0.000148020
  22599508.977 6   -500500.727 6   -340921.87949  22599509.30149
  23378066.844 4    191652.547 4    132461.08246  23378067.07846
  22560775.086 5   -440487.207 5   -314453.12548  22560771.32848
  20672903.617 7     28473.426 7     19921.95349  20672902.51249
  23258263.422 2     67533.637 2     49453.43447  23258261.87547
  20635686.141 6   -280731.816 6   -200525.64147  20635682.66847
  22966052.031 6     70401.777 6     47319.49646  22966049.23846
  22114126.320 6    195023.977 6    144072.94549  22114125.30149
 20  5 16  3 12 19.0000000  0  8G01G04G07G08G09G11G16G27             0.000147446
  22598671.250 6   -504902.082 6   -344351.50849  22598671.94949
  23378391.164 4    193359.676 4    133791.32046  23378391.81346
  22560039.133 5   -444351.590 5   -317464.32848  22560035.62548
  20672954.469 7     28739.418 7     20129.21949  20672953.33649
  23258379.727 2     68146.902 2     49931.27047  23258378.71947
  20635219.758 6   -283180.594 6   -202433.78147  20635216.69147
  22966166.656 6     71006.086 6     47790.39147  22966164.44947
  22114458.828 6    196770.684 6    145434.00049  22114457.52049
