     2.10           OBSERVATION DATA    GPS(GPS)            RINEX VERSION / TYPE
cnvtToRINEX 3.07.0  convertToRINEX OPR  19-May-20 12:30 UTC PGM / RUN BY / DATE 
----------------------------------------------------------- COMMENT             
GBA0                                                        MARKER NAME         
GBA0                                                        MARKER NUMBER       
GNSS Observer       Trimble                                 OBSERVER / AGENCY   
0220380050          TRIMBLE 5700        2.32                REC # / TYPE / VERS 
                    UNKNOWN EXT                             ANT # / TYPE        
 -3050773.7056  4927513.4411  2654425.0076                  APPROX POSITION XYZ 
        0.0000        0.0000        0.0000                  ANTENNA: DELTA H/E/N
     1     1     0                                          WAVELENGTH FACT L1/2
     4    C1    L1    L2    P2                              # / TYPES OF OBSERV 
  2020     5    16     3    41   57.0000000     GPS         TIME OF FIRST OBS   
  2020     5    16     5     0   46.0000000     GPS         TIME OF LAST OBS    
     0                                                      RCV CLOCK OFFS APPL 
    18                                                      LEAP SECONDS        
    10                                                      # OF SATELLITES     
   G01  4730  4730  4730  4730                              PRN / # OF OBS      
   G03  1173  1171  1173  1173                              PRN / # OF OBS      
   G07  4730  4730  4730  4730                              PRN / # OF OBS      
   G08  4498  4436  4480  4480                              PRN / # OF OBS      
   G11  4730  4730  4730  4730                              PRN / # OF OBS      
   G16  1123  1026   743   743                              PRN / # OF OBS      
   G22  2577  2458  2099  2099                              PRN / # OF OBS      
   G27  1572  1361   708   708                              PRN / # OF OBS      
   G28  1048  1048  1048  1048                              PRN / # OF OBS      
   G30  4714  4714  4714  4714                              PRN / # OF OBS      
CARRIER PHASE MEASUREMENTS: PHASE SHIFTS REMOVED            COMMENT             
                                                            END OF HEADER       
 20  5 16  3 41 57.0000000  0  4G01G07G08G11                        -0.000360176
  21352962.66416   -177754.98416    -72187.50459  21352964.07059
  21509224.32016   -148171.18016    -67022.78959  21509221.26659
  20999976.74216    -25625.07016    -10868.92259  20999976.52059
  20126530.68816    -93864.44516    -40373.06659  20126527.51259
 20  5 16  3 41 58.0000000  0  4G01G07G08G11                        -0.000361712
  21351949.852 6   -183077.645 6    -76335.03149  21351951.06649
  21508326.336 6   -152888.746 6    -70698.81649  21508323.77749
  20999825.258 6    -26421.340 6    -11489.39549  20999824.92649
  20125965.055 6    -96835.285 6    -42688.00848  20125962.21148
 20  5 16  3 41 59.0000000  0  4G01G07G08G11                        -0.000363247
  21350936.883 6   -188399.895 6    -80482.24249  21350938.19149
  21507428.617 6   -157605.871 6    -74374.49649  21507425.87549
  20999673.742 6    -27217.457 6    -12109.74649  20999673.50849
  20125400.359 6    -99805.570 6    -45002.52048  20125396.74648
 20  5 16  3 42  0.0000000  0  4G01G07G08G11                        -0.000364782
  21349924.383 6   -193721.766 6    -84629.15249  21349925.62149
  21506530.984 6   -162322.574 6    -78049.84849  21506528.34849
  20999522.289 6    -28013.406 6    -12729.96149  20999521.80949
  20124835.273 7   -102775.344 7    -47316.62549  20124831.84449
 20  5 16  3 42  1.0000000  0  4G01G07G08G11                        -0.000366320
  21348911.523 6   -199043.203 6    -88775.72749  21348912.79349
  21505633.547 6   -167038.848 6    -81724.86349  21505630.93449
  20999370.938 6    -28809.203 6    -13350.06349  20999370.72349
  20124269.859 7   -105744.578 7    -49630.31349  20124266.85949
 20  5 16  3 42  2.0000000  0  4G01G07G08G11                        -0.000367853
  21347898.875 6   -204364.219 6    -92921.96949  21347900.67649
  21504735.969 6   -171754.664 6    -85399.53149  21504733.58649
  20999219.172 6    -29604.832 6    -13970.03949  20999219.34849
  20123705.258 7   -108713.219 7    -51943.53949  20123701.65249
 20  5 16  3 42  3.0000000  0  4G01G07G08G11                        -0.000369390
  21346886.820 6   -209684.805 6    -97067.88349  21346887.80149
  21503838.727 6   -176470.020 6    -89073.83249  21503836.23449
  20999067.883 6    -30400.266 6    -14589.85549  20999068.10249
  20123140.516 7   -111681.316 7    -54256.34448  20123137.34048
 20  5 16  3 42  4.0000000  0  4G01G07G08G11                        -0.000370926
  21345873.867 6   -215004.961 6   -101213.45349  21345875.33649
  21502941.594 6   -181184.938 6    -92747.78949  21502938.92649
  20998916.477 6    -31195.555 6    -15209.56649  20998916.62949
  20122575.953 7   -114648.852 7    -56568.71148  20122572.45748
 20  5 16  3 42  5.0000000  0  4G01G07G08G11                        -0.000372461
  21344861.461 6   -220324.719 6   -105358.72349  21344863.04349
  21502044.625 6   -185899.422 6    -96421.42249  21502042.35949
  20998765.484 6    -31990.652 6    -15829.12149  20998765.25449
  20122011.016 7   -117615.844 7    -58880.65248  20122008.00048
 20  5 16  3 42  6.0000000  0  4G01G07G08G11                        -0.000373999
  21343849.633 6   -225644.016 6   -109503.63349  21343850.83249
  21501147.477 6   -190613.406 6   -100094.65649  21501145.04349
  20998614.031 6    -32785.551 6    -16448.52749  20998614.09849
  20121446.617 7   -120582.250 7    -61192.14148  20121443.67648
 20  5 16  3 42  7.0000000  0  4G01G07G08G11                        -0.000375534
  21342837.609 6   -230962.879 6   -113648.19149  21342838.81649
  21500250.594 6   -195326.961 6   -103767.55549  21500248.07049
  20998462.664 6    -33580.277 6    -17067.79349  20998462.97749
  20120882.047 7   -123548.117 7    -63503.20748  20120879.00448
 20  5 16  3 42  8.0000000  0  4G01G07G08G11                        -0.000377069
  21341825.570 6   -236281.344 6   -117792.44949  21341827.03149
  21499353.680 6   -200040.082 6   -107440.11349  21499351.10949
  20998311.422 6    -34374.844 6    -17686.93849  20998312.37149
  20120318.039 7   -126513.406 7    -65813.82049  20120314.57849
 20  5 16  3 42  9.0000000  0  4G01G07G08G11                        -0.000378605
  21340813.852 6   -241599.348 6   -121936.34849  21340814.68449
  21498456.789 6   -204752.738 6   -111112.32049  21498454.52349
  20998160.477 6    -35169.215 6    -18305.92649  20998160.91049
  20119753.938 7   -129478.133 7    -68123.99249  20119751.04349
 20  5 16  3 42 10.0000000  0  4G01G07G08G11                        -0.000380142
  21339801.758 6   -246916.867 6   -126079.87149  21339803.27049
  21497560.109 6   -209464.879 6   -114784.11749  21497557.53149
  20998008.867 6    -35963.359 6    -18924.73449  20998009.55549
  20119189.703 7   -132442.266 7    -70433.70349  20119186.12949
 20  5 16  3 42 11.0000000  0  4G01G07G08G11                        -0.000381678
  21338790.102 6   -252233.945 6   -130223.04349  21338791.27349
  21496663.797 6   -214176.547 6   -118455.54349  21496661.21549
  20997858.070 6    -36757.285 6    -19543.37949  20997858.28549
  20118625.633 7   -135405.801 7    -72742.96149  20118622.55149
 20  5 16  3 42 12.0000000  0  4G01G07G08G11                        -0.000383213
  21337778.063 6   -257550.594 6   -134365.89149  21337779.54349
  21495766.938 7   -218887.754 7   -122126.61749  21495764.67649
  20997707.391 6    -37551.008 6    -20161.87149  20997707.43849
  20118062.031 7   -138368.801 7    -75051.78949  20118058.80949
 20  5 16  3 42 13.0000000  0  5G01G07G08G11G30                     -0.000384748
  21336766.680 6   -262866.793 6   -138508.37949  21336767.69149
  21494870.906 7   -223598.488 7   -125797.32049  21494868.25049
  20997556.188 6    -38344.539 6    -20780.21149  20997556.78149
  20117498.188 7   -141331.176 7    -77360.13749  20117494.74249
  23949245.75814   -198254.78914   -100747.47358  23949247.43458
 20  5 16  3 42 14.0000000  0  5G01G07G08G11G30                     -0.000386286
  21335754.602 6   -268182.547 6   -142650.52349  21335756.19149
  21493974.313 6   -228308.781 6   -129467.67649  21493971.96949
  20997405.063 6    -39137.910 6    -21398.42249  20997405.55549
  20116934.883 7   -144293.008 7    -79668.05949  20116931.69549
  23948157.453 4   -203976.004 4   -105205.56348  23948158.80548
 20  5 16  3 42 15.0000000  0  5G01G07G08G11G30                     -0.000387821
  21334743.500 6   -273497.824 6   -146792.29749  21334745.03549
  21493077.734 6   -233018.547 6   -133137.62149  21493075.34449
  20997254.438 6    -39931.031 6    -22016.44149  20997255.05149
  20116371.180 7   -147254.230 7    -81975.50448  20116367.80548
  23947069.445 4   -209697.063 4   -109663.53548  23947070.32448
 20  5 16  3 42 16.0000000  0  5G01G07G08G11G30                     -0.000389359
  21333731.930 6   -278812.625 6   -150933.69549  21333733.63349
  21492181.961 6   -237727.813 6   -136807.18049  21492179.24649
  20997103.867 6    -40723.949 6    -22634.30149  20997103.52749
  20115807.539 7   -150214.832 7    -84282.46548  20115804.35948
  23945980.375 4   -215417.824 4   -114121.27048  23945981.80948
 20  5 16  3 42 17.0000000  0  5G01G07G08G11G30                     -0.000390894
  21332720.594 6   -284126.992 6   -155074.76649  21332722.17249
  21491286.141 6   -242436.617 6   -140476.38349  21491283.35549
  20996952.695 6    -41516.691 6    -23252.02749  20996952.98449
  20115244.664 7   -153174.883 7    -86588.99649  20115240.99249
  23944892.422 4   -221138.418 4   -118578.87948  23944892.83648
 20  5 16  3 42 18.0000000  0  5G01G07G08G11G30                     -0.000392429
  21331709.703 6   -289440.891 6   -159215.46149  21331711.17249
  21490389.859 6   -247144.934 6   -144145.19149  21490387.66449
  20996801.734 6    -42309.219 6    -23869.57849  20996802.03949
  20114681.461 7   -156134.344 7    -88895.07048  20114678.06348
  23943804.000 4   -226858.805 4   -123036.32048  23943804.34048
 20  5 16  3 42 19.0000000  0  6G01G07G08G11G16G30                  -0.000393965
  21330698.297 6   -294754.313 6   -163355.78549  21330700.13749
  21489493.539 6   -251852.797 6   -147813.65249  21489491.46149
  20996651.078 6    -43101.523 6    -24486.95749  20996651.34049
  20114118.641 7   -159093.199 7    -91200.67649  20114114.83649
  23348906.52312    -17387.35512     -8761.92256  23348903.58256
  23942715.586 5   -232578.992 5   -127493.60948  23942715.54748
 20  5 16  3 42 20.0000000  0  7G01G07G08G11G16G27G30               -0.000395498
  21329687.406 6   -300067.266 6   -167495.75049  21329688.92249
  21488597.906 6   -256560.109 6   -151481.69549  21488595.39149
  20996500.383 6    -43893.598 6    -25104.15649  20996500.81649
  20113555.539 7   -162051.426 7    -93505.78148  20113551.90648
  23348767.297 2    -18116.008 2     -9329.70746  23348765.22346
  22881530.82814     11039.34814      5948.81657  22881529.77057
  23941626.867 5   -238298.906 5   -131950.68048  23941627.15648
 20  5 16  3 42 21.0000000  0  7G01G07G08G11G16G27G30               -0.000397034
  21328676.563 6   -305379.711 6   -171635.31649  21328678.16449
  21487702.859 6   -261266.906 6   -155149.32049  21487700.13749
  20996349.961 6    -44685.453 6    -25721.18049  20996350.04349
  20112992.578 7   -165009.051 7    -95810.43448  20112989.00048
  23348628.258 3    -18844.504 3     -9897.36346  23348626.67246
  22881591.484 3     11360.527 3      6199.07847  22881591.03547
  23940538.109 5   -244018.566 5   -136407.56648  23940538.59448
 20  5 16  3 42 22.0000000  0  7G01G07G08G11G16G27G30               -0.000398569
  21327665.672 6   -310691.648 6   -175774.48049  21327667.25049
  21486807.219 6   -265973.203 6   -158816.56649  21486804.82049
  20996199.172 6    -45477.051 6    -26338.00849  20996199.65249
  20112430.000 7   -167966.055 7    -98114.58648  20112426.37548
  23348489.836 3    -19572.863 3    -10464.91846  23348488.25446
  22881652.234 3     11681.770 3      6449.38747  22881652.31347
  23939449.797 4   -249738.020 4   -140864.28948  23939450.24648
 20  5 16  3 42 23.0000000  0  7G01G07G08G11G16G27G30               -0.000400105
  21326654.453 6   -316003.148 6   -179913.30949  21326656.75849
  21485911.344 6   -270679.000 6   -162483.42249  21485909.00849
  20996048.289 6    -46268.469 6    -26954.70349  20996048.52749
  20111866.930 7   -170922.461 7   -100418.27348  20111863.59848
  23348352.500 3    -20301.086 3    -11032.34446  23348349.60546
  22881713.031 4     12002.992 4      6699.68447  22881712.86347
  23938361.359 4   -255457.195 4   -145320.79748  23938361.94948
 20  5 16  3 42 24.0000000  0  7G01G07G08G11G16G27G30               -0.000401640
  21325643.992 6   -321314.148 6   -184051.75449  21325645.98449
  21485016.133 6   -275384.301 6   -166149.88749  21485013.61749
  20995897.594 6    -47059.664 6    -27571.21549  20995898.69149
  20111304.797 7   -173878.246 7   -102721.48848  20111300.98048
  23348213.852 2    -21029.059 2    -11599.60246  23348210.57446
  22881775.453 3     12324.320 3      6950.06647  22881773.87547
  23937272.930 4   -261176.191 4   -149777.15648  23937273.77348
 20  5 16  3 42 25.0000000  0  7G01G07G08G11G16G27G30               -0.000403173
  21324633.836 6   -326624.680 6   -188189.82449  21324635.62949
  21484120.648 6   -280089.090 6   -169815.95749  21484118.34849
  20995747.258 6    -47850.598 6    -28187.53149  20995747.85549
  20110742.453 7   -176833.438 7   -105024.24248  20110739.00448
  23348074.008 2    -21756.930 2    -12166.78546  23348072.46546
  22881836.047 3     12645.613 3      7200.41047  22881835.01247
  23936184.570 4   -266894.945 4   -154233.34048  23936185.70348
 20  5 16  3 42 26.0000000  0  7G01G07G08G11G16G27G30               -0.000404711
  21323623.031 6   -331934.719 6   -192327.52049  21323625.00849
  21483225.391 6   -284793.375 6   -173481.62949  21483223.30549
  20995596.617 6    -48641.289 6    -28803.64849  20995597.39149
  20110180.109 7   -179788.004 7   -107326.50048  20110176.81648
  23347935.148 3    -22484.570 3    -12733.76646  23347933.70346
  22881898.047 3     12966.988 3      7450.82447  22881896.41047
  23935096.891 4   -272613.461 4   -158689.32848  23935097.35248
 20  5 16  3 42 27.0000000  0  7G01G07G08G11G16G27G30               -0.000406246
  21322612.453 6   -337244.289 6   -196464.84449  21322614.61749
  21482330.156 6   -289497.145 6   -177146.90649  21482327.82449
  20995446.250 6    -49431.793 6    -29419.62949  20995447.21549
  20109617.789 7   -182741.965 7   -109628.28948  20109614.68048
  23347797.281 3    -23212.055 3    -13300.65646  23347795.64846
  22881957.438 3     13288.391 3      7701.27347  22881957.20347
  23934008.828 4   -278331.730 4   -163145.12148  23934009.10248
 20  5 16  3 42 28.0000000  0  7G01G07G08G11G16G27G30               -0.000407782
  21321602.117 6   -342553.367 6   -200601.78949  21321604.22349
  21481435.281 6   -294200.434 6   -180811.80549  21481432.84849
  20995295.797 6    -50222.070 6    -30035.42649  20995296.64149
  20109055.742 7   -185695.301 7   -111929.59048  20109052.60548
  23347658.438 3    -23939.426 3    -13867.45746  23347657.02346
  22882018.484 3     13609.738 3      7951.66847  22882018.64847
  23932920.734 4   -284049.770 4   -167600.73448  23932921.11748
 20  5 16  3 42 29.0000000  0  7G01G07G08G11G16G27G30               -0.000409317
  21320592.414 6   -347861.953 6   -204738.35249  21320594.17649
  21480540.164 6   -298903.191 6   -184476.29349  21480538.03149
  20995145.492 6    -51012.086 6    -30651.02749  20995146.45349
  20108494.031 7   -188648.051 7   -114230.42648  20108490.64848
  23347520.695 3    -24666.613 3    -14434.09846  23347518.85546
  22882080.188 3     13931.176 3      8202.14547  22882079.39147
  23931832.867 4   -289767.555 4   -172056.14848  23931832.62148
 20  5 16  3 42 30.0000000  0  7G01G07G08G11G16G27G30               -0.000410852
  21319582.055 6   -353170.066 6   -208874.54349  21319584.17249
  21479645.375 6   -303605.473 6   -188140.41049  21479643.23849
  20994995.133 6    -51801.926 6    -31266.48449  20994996.21549
  20107932.211 7   -191600.172 7   -116530.78548  20107928.69148
  23347382.289 3    -25393.648 3    -15000.63746  23347380.20346
  22882141.859 3     14252.652 3      8452.65247  22882140.67247
  23930744.656 4   -295485.121 4   -176511.39148  23930745.11348
 20  5 16  3 42 31.0000000  0  7G01G07G08G11G16G27G30               -0.000412386
  21318572.539 6   -358477.711 6   -213010.37149  21318574.19549
  21478750.773 6   -308307.238 6   -191804.13349  21478748.63749
  20994844.930 6    -52591.516 6    -31881.75449  20994845.53949
  20107370.664 7   -194551.707 7   -118830.68448  20107367.49648
  23347243.930 3    -26120.512 3    -15567.02046  23347242.15246
  22882203.523 3     14574.109 3      8703.13747  22882201.61347
  23929656.930 4   -301202.512 4   -180966.50848  23929656.60548
 20  5 16  3 42 32.0000000  0  7G01G07G08G11G16G27G30               -0.000413921
  21317562.352 6   -363784.992 6   -217145.91849  21317564.16449
  21477856.281 6   -313008.668 6   -195467.58249  21477854.21949
  20994694.547 6    -53381.020 6    -32496.94949  20994695.34449
  20106809.250 7   -197502.754 7   -121130.20349  20106805.84049
  23347105.617 3    -26847.359 3    -16133.39146  23347103.54746
  22882263.758 3     14895.555 3      8953.61747  22882263.20747
  23928568.578 4   -306919.730 4   -185421.49648  23928568.42648
 20  5 16  3 42 33.0000000  0  7G01G07G08G11G16G27G30               -0.000415457
  21316552.047 6   -369091.730 6   -221281.03549  21316554.66049
  21476961.461 6   -317709.461 6   -199130.53149  21476959.33649
  20994544.625 6    -54170.211 6    -33111.89849  20994545.09849
  20106247.797 7   -200453.109 7   -123429.18448  20106244.49648
  23346968.242 3    -27573.938 3    -16699.55946  23346965.52746
  22882324.281 2     15217.039 2      9204.12547  22882324.29747
  23927480.617 4   -312636.676 4   -189876.25448  23927480.82848
 20  5 16  3 42 34.0000000  0  7G01G07G08G11G16G27G30               -0.000416992
  21315542.492 6   -374397.852 6   -225415.67249  21315544.77749
  21476066.883 6   -322409.652 6   -202793.02349  21476064.95349
  20994394.219 6    -54959.078 6    -33726.60549  20994394.85949
  20105686.258 7   -203402.742 7   -125727.59848  20105683.16048
  23346829.180 3    -28300.277 3    -17265.52746  23346827.26646
  22882385.680 2     15538.730 2      9454.79747  22882385.49247
  23926392.656 5   -318353.242 5   -194330.72748  23926393.09048
 20  5 16  3 42 35.0000000  0  7G01G07G08G11G16G27G30               -0.000418528
  21314532.914 6   -379703.324 6   -229549.80549  21314535.13749
  21475173.016 6   -327109.148 6   -206454.96549  21475170.55949
  20994244.406 6    -55747.508 6    -34340.96549  20994244.90649
  20105125.133 7   -206351.602 7   -128025.40248  20105121.70748
  23346691.500 3    -29026.188 3    -17831.18446  23346689.09046
  22882447.383 2     15860.547 2      9705.55147  22882446.18447
  23925304.992 4   -324069.395 4   -198784.87148  23925305.31648
 20  5 16  3 42 36.0000000  0  7G01G07G08G11G16G27G30               -0.000420063
  21313524.039 6   -385008.035 6   -233683.34849  21313526.08249
  21474278.516 6   -331807.906 6   -210116.33249  21474276.28149
  20994094.695 6    -56535.426 6    -34954.92649  20994095.04749
  20104563.984 7   -209299.520 7   -130322.48049  20104560.70749
  23346553.125 3    -29751.738 3    -18396.55146  23346550.93046
  22882507.602 2     16182.703 2      9956.57047  22882508.37947
  23924218.000 4   -329785.008 4   -203238.59448  23924217.82048
 20  5 16  3 42 37.0000000  0  7G01G07G08G11G16G27G30               -0.000421597
  21312514.625 6   -390311.930 6   -237816.24649  21312516.84049
  21473384.750 6   -336505.770 6   -213777.00449  21473382.35249
  20993944.719 6    -57322.820 6    -35568.47749  20993944.87549
  20104003.508 7   -212246.551 7   -132618.87149  20104000.01649
  23346415.328 3    -30476.762 3    -18961.52046  23346413.14846
  22882569.250 2     16505.258 2     10207.91847  22882569.16847
  23923129.758 4   -335500.137 4   -207691.93848  23923130.08248
 20  5 16  3 42 38.0000000  0  7G01G07G08G11G16G27G30               -0.000423132
  21311505.266 6   -395615.031 6   -241948.53549  21311507.11749
  21472490.648 6   -341202.871 6   -217437.09449  21472488.72349
  20993795.016 6    -58109.664 6    -36181.60249  20993795.49249
  20103442.953 7   -215192.652 7   -134914.53548  20103439.46548
  23346276.586 3    -31201.355 3    -19526.14546  23346275.07446
  22882630.406 1     16828.145 1     10459.52347  22882630.58647
  23922042.594 4   -341214.652 4   -212144.80548  23922042.82048
 20  5 16  3 42 39.0000000  0  7G01G07G08G11G16G27G30               -0.000424665
  21310495.984 6   -400917.480 6   -246080.30949  21310497.96949
  21471596.914 6   -345899.254 6   -221096.60249  21471594.75449
  20993645.547 6    -58896.098 6    -36794.39849  20993645.70749
  20102882.266 7   -218137.941 7   -137209.57048  20102878.99648
  23346139.711 3    -31925.563 3    -20090.46546  23346137.13346
  22882693.070 1     17151.230 1     10711.27747  22882692.44947
  23920955.156 4   -346928.738 4   -216597.34848  23920955.60948
 20  5 16  3 42 40.0000000  0  7G01G07G08G11G16G27G30               -0.000426201
  21309487.375 6   -406219.426 6   -250211.69549  21309489.33649
  21470703.281 6   -350595.156 6   -224755.75049  21470701.43049
  20993495.836 6    -59682.336 6    -37407.05149  20993496.02049
  20102321.602 7   -221082.660 7   -139504.14848  20102318.88748
  23346002.070 3    -32649.605 3    -20654.63746  23345999.66046
  22882753.461 1     17474.414 1     10963.12147  22882753.62147
  23919868.055 4   -352642.629 4   -221049.73048  23919868.02348
 20  5 16  3 42 41.0000000  0  7G01G07G08G11G16G27G30               -0.000427734
  21308478.281 6   -411521.074 6   -254342.85949  21308480.22349
  21469809.672 6   -355290.672 6   -228414.59449  21469808.18449
  20993346.430 6    -60468.434 6    -38019.59849  20993346.50049
  20101761.586 7   -224026.906 7   -141798.36748  20101758.05148
  23345864.219 3    -33373.703 3    -21218.87546  23345861.50846
  22882813.984 1     17797.324 1     11214.73447  22882814.31647
  23918780.625 4   -358356.453 4   -225502.05948  23918781.03948
 20  5 16  3 42 42.0000000  0  7G01G07G08G11G16G27G30               -0.000429270
  21307469.227 6   -416822.391 6   -258473.75449  21307471.27749
  21468916.656 6   -359985.887 6   -232073.19949  21468913.78949
  20993197.133 6    -61254.547 6    -38632.15649  20993196.93449
  20101201.523 6   -226970.707 6   -144092.23848  20101198.36748
  23345726.516 3    -34097.723 3    -21783.05146  23345724.14146
  22882874.289 1     18120.074 1     11466.23447  22882877.03947
  23917693.469 4   -364070.164 4   -229954.28948  23917693.21148
 20  5 16  3 42 43.0000000  0  7G01G07G08G11G16G27G30               -0.000430803
  21306460.828 6   -422123.375 6   -262604.39549  21306462.94149
  21468022.883 6   -364680.730 6   -235731.52749  21468021.14149
  20993047.320 6    -62040.555 6    -39244.62549  20993047.27749
  20100641.031 6   -229914.074 6   -146385.76649  20100637.77749
  23345588.906 3    -34821.781 3    -22347.25046  23345586.15246
  22882935.35911                     11717.77357  22882937.55557
  23916606.359 4   -369783.855 4   -234406.51648  23916606.01648
 20  5 16  3 42 44.0000000  0  7G01G07G08G11G16G27G30               -0.000432339
  21305451.953 6   -427424.008 6   -266734.74649  21305454.13749
  21467129.781 6   -369375.176 6   -239389.54349  21467127.69149
  20992897.914 6    -62826.473 6    -39857.03549  20992897.77749
  20100081.055 6   -232856.926 6   -148678.90249  20100077.71549
  23345450.805 3    -35545.781 3    -22911.40646  23345448.51246
  22882996.96911     18765.44911     11969.13357  22882999.59857
  23915519.063 4   -375497.395 4   -238858.62548  23915518.50848
 20  5 16  3 42 45.0000000  0  7G01G07G08G11G16G27G30               -0.000433872
  21304443.555 6   -432724.289 6   -270864.83249  21304445.37949
  21466236.742 6   -374069.266 6   -243047.27049  21466234.36349
  20992747.977 6    -63612.289 6    -40469.35549  20992747.91049
  20099521.516 6   -235799.297 6   -150971.65249  20099518.02749
  23345312.570 3    -36269.703 3    -23475.49246  23345310.32846
  22883056.383 1     19088.113 1     12220.57047  22883060.09847
  23914431.195 4   -381210.852 4   -243310.67648  23914431.76248
 20  5 16  3 42 46.0000000  0  7G01G07G08G11G16G27G30               -0.000435408
  21303434.789 6   -438024.176 6   -274994.60949  21303437.08649
  21465343.313 6   -378762.930 6   -246704.67649  21465341.15249
  20992598.164 6    -64397.977 6    -41081.57849  20992598.46549
  20098961.211 6   -238741.168 6   -153264.02049  20098958.30549
  23345174.953 3    -36993.609 3    -24039.57446  23345173.26246
  22883117.43011     19410.41411     12471.71157  22883121.79357
  23913344.477 5   -386924.164 5   -247762.60548  23913343.88348
 20  5 16  3 42 47.0000000  0  7G01G07G08G11G16G27G30               -0.000436941
  21302426.414 6   -443323.656 6   -279124.07449  21302428.84449
  21464449.977 6   -383456.176 6   -250361.75049  21464447.63749
  20992449.109 6    -65183.516 6    -41693.68849  20992449.30949
  20098401.859 7   -241682.492 7   -155555.96149  20098398.51249
  23345036.375 3    -37717.414 3    -24603.56646  23345034.81646
  22883180.26611                     12723.00057  22883182.91057
  23912257.148 5   -392637.293 5   -252214.38748  23912257.11348
 20  5 16  3 42 48.0000000  0  7G01G07G08G11G16G27G30               -0.000438477
  21301418.250 6   -448622.750 6   -283253.24249  21301420.08649
  21463557.234 6   -388149.039 6   -254018.52749  21463554.90249
  20992299.461 6    -65969.000 6    -42305.75449  20992299.19549
  20097842.242 7   -244623.363 7   -157847.55149  20097838.82849
  23344899.117 3    -38441.188 3    -25167.55546  23344896.81646
  22883242.43811                     12974.21557  22883244.46957
  23911170.414 4   -398350.277 4   -256666.06348  23911169.84048
 20  5 16  3 42 49.0000000  0  7G01G07G08G11G16G27G30               -0.000440010
  21300409.797 6   -453921.555 6   -287382.17649  21300412.02749
  21462664.617 6   -392841.543 6   -257675.02749  21462662.05949
  20992150.289 6    -66754.391 6    -42917.74649  20992150.30949
  20097282.773 6   -247563.766 6   -160138.77048  20097279.43848
  23344761.625 4    -39164.979 4    -25731.55446  23344759.46146
  22883301.79711                     13225.24257  22883305.93857
  23910082.906 4   -404063.305 4   -261117.77748  23910082.69948
 20  5 16  3 42 50.0000000  0  7G01G07G08G11G16G27G30               -0.000441545
  21299401.781 6   -459219.977 6   -291510.82049  21299403.94949
  21461771.594 6   -397533.648 6   -261331.21149  21461769.18049
  20992000.430 6    -67539.633 6    -43529.62149  20992000.58649
  20096723.016 7   -250503.664 7   -162429.59448  20096719.96548
  23344624.563 4    -39888.684 4    -26295.48046  23344622.00846
  22883364.60211                     13476.27357  22883366.96157
  23908995.422 4   -409776.109 4   -265569.31648  23908995.49648
 20  5 16  3 42 51.0000000  0  7G01G07G08G11G16G27G30               -0.000443081
  21298393.789 6   -464517.980 6   -295639.13749  21298395.39849
  21460878.883 6   -402225.355 6   -264987.09049  21460876.35949
  20991851.945 6    -68324.777 6    -44141.41849  20991850.77749
  20096164.094 7   -253443.043 7   -164720.02048  20096160.41848
  23344486.164 3    -40612.250 3    -26859.30946  23344484.56646
  22883425.66411                     13727.16457  22883428.98857
  23907908.680 4   -415488.758 4   -270020.73448  23907908.74248
 20  5 16  3 42 52.0000000  0  7G01G07G08G11G16G27G30               -0.000444614
  21297385.391 6   -469815.609 6   -299767.15649  21297387.23049
  21459986.242 6   -406916.609 6   -268642.61749  21459983.53149
  20991702.195 6    -69109.719 6    -44753.07049  20991701.79749
  20095604.438 6   -256381.867 6   -167010.00848  20095600.93848
  23344348.734 3    -41335.840 3    -27423.14846  23344346.85946
  22883485.80511                     13978.10957  22883489.73457
  23906821.094 4   -421201.316 4   -274472.09048  23906821.57448
 20  5 16  3 42 53.0000000  0  7G01G07G08G11G16G27G30               -0.000446150
  21296377.625 6   -475112.840 6   -303894.87149  21296379.19149
  21459093.430 6   -411607.465 6   -272297.82849  21459090.64149
  20991552.641 6    -69894.574 6    -45364.64549  20991552.45749
  20095045.617 6   -259320.203 6   -169299.62549  20095042.48449
  23344210.648 2    -42059.270 2    -27986.85946  23344208.93046
  22883548.24211                     14228.96557  22883551.30557
  23905734.289 4   -426913.648 4   -278923.25348  23905734.39548
 20  5 16  3 42 54.0000000  0  7G01G07G08G11G16G27G30               -0.000447685
  21295369.594 6   -480409.684 6   -308022.28149  21295371.30949
  21458201.242 6   -416297.910 6   -275952.71549  21458198.28949
  20991403.227 6    -70679.285 6    -45976.09849  20991402.96149
  20094486.180 6   -262258.027 6   -171588.84049  20094483.28149
  23344073.688 3    -42782.730 3    -28550.58246  23344070.94546
  22883608.75811                     14479.85557  22883612.59057
  23904647.977 4   -432625.910 4   -283374.36348  23904647.80548
 20  5 16  3 42 55.0000000  0  7G01G07G08G11G16G27G30               -0.000449221
  21294361.789 6   -485706.141 6   -312149.39549  21294363.39849
  21457308.422 6   -420987.938 6   -279607.28549  21457305.62949
  20991253.805 6    -71463.863 6    -46587.45749  20991253.69149
  20093927.125 6   -265195.340 6   -173877.66049  20093924.50449
  23343936.008 3    -43506.078 3    -29114.21146  23343933.71546
  22883671.32011                     14730.50057  22883673.10557
  23903560.234 4   -438338.016 4   -287825.35248  23903561.12148
 20  5 16  3 42 56.0000000  0  7G01G07G08G11G16G27G30               -0.000450756
  21293353.984 6   -491002.191 6   -316276.18449  21293355.26649
  21456416.648 6   -425677.539 6   -283261.52349  21456413.18449
  20991104.680 6    -72248.301 6    -47198.71549  20991104.48849
  20093368.531 6   -268132.098 6   -176166.04748  20093365.53948
  23343796.930 2    -44229.305 2    -29677.77046  23343796.66446
  22883734.836 1     22630.977 1     14981.29747  22883734.87547
  23902473.211 4   -444049.969 4   -292276.21948  23902474.02048
 20  5 16  3 42 57.0000000  0  7G01G07G08G11G16G27G30               -0.000452291
  21292345.836 6   -496297.773 6   -320402.60949  21292347.96149
  21455523.836 6   -430366.668 6   -286915.39549  21455521.37949
  20990955.531 6    -73032.555 6    -47809.82049  20990955.10249
  20092810.008 6   -271068.270 6   -178453.96149  20092807.02049
  23343659.961 3    -44952.410 3    -30241.23046  23343658.00446
  22883793.820 1     22952.754 1     15232.03947  22883795.46147
  23901386.406 4   -449761.680 4   -296726.89148  23901387.27348
 20  5 16  3 42 58.0000000  0  7G01G07G08G11G16G27G30               -0.000453827
  21291338.406 6   -501592.949 6   -324528.71949  21291339.96149
  21454631.656 6   -435055.352 6   -290568.91049  21454628.64149
  20990806.086 6    -73816.664 6    -48420.81349  20990806.09049
  20092251.445 6   -274003.895 6   -180741.46149  20092248.59049
  23343521.984 2    -45675.426 2    -30804.60546  23343520.96146
  22883857.625 1     23274.473 1     15482.73847  22883857.44547
  23900299.602 4   -455473.234 4   -301177.44948  23900299.93048
 20  5 16  3 42 59.0000000  0  7G01G07G08G11G16G27G30               -0.000455360
  21290330.852 6   -506887.676 6   -328654.47349  21290332.67649
  21453739.539 6   -439743.574 6   -294222.07049  21453736.78549
  20990656.859 6    -74600.586 6    -49031.66449  20990656.85549
  20091692.805 6   -276938.941 6   -183028.50849  20091689.80149
  23343384.695 2    -46398.340 2    -31367.93446  23343383.01646
  22883917.695 1     23596.180 1     15733.43847  22883919.11747
  23899213.359 4   -461184.574 4   -305627.85248  23899213.21548
 20  5 16  3 43  0.0000000  0  7G01G07G08G11G16G27G30               -0.000456896
  21289322.852 6   -512181.977 6   -332779.89849  21289325.11349
  21452847.242 6   -444431.324 6   -297874.85549  21452844.54349
  20990507.906 6    -75384.324 6    -49642.37149  20990507.68849
  20091134.391 6   -279873.449 6   -185315.13748  20091131.12948
  23343247.594 2    -47121.125 2    -31931.14546  23343245.64846
  22883979.555 2     23917.934 2     15984.13747  22883980.02347
  23898125.727 4   -466895.773 4   -310078.13348  23898126.70748
 20  5 16  3 43  1.0000000  0  7G01G07G08G11G16G27G30               -0.000458431
  21288316.297 6   -517475.813 6   -336904.96949  21288317.74649
  21451955.195 6   -449118.609 6   -301527.28149  21451952.95749
  20990358.922 6    -76167.883 6    -50252.93049  20990358.66049
  20090575.891 6   -282807.383 6   -187601.32049  20090573.03149
  23343110.070 3    -47843.750 3    -32494.23846  23343107.89146
  22884041.383 2     24239.684 2     16234.83647  22884041.15247
  23897038.961 4   -472606.754 4   -314528.24648  23897039.79748
 20  5 16  3 43  2.0000000  0  7G01G07G08G11G16G27G30               -0.000459967
  21287308.734 6   -522769.266 6   -341029.73049  21287310.70749
  21451063.555 6   -453805.473 6   -305179.38749  21451061.08649
  20990209.383 6    -76951.289 6    -50863.38349  20990209.62949
  20090017.938 6   -285740.805 6   -189887.10548  20090015.21548
  23342971.625 2    -48566.281 2    -33057.24246  23342970.24646
  22884101.766 2     24561.289 2     16485.41847  22884101.90647
  23895952.305 4   -478317.590 4   -318978.24648  23895952.77748
 20  5 16  3 43  3.0000000  0  7G01G07G08G11G16G27G30               -0.000461500
  21286301.008 6   -528062.266 6   -345154.14149  21286303.53949
  21450171.422 6   -458491.863 6   -308831.12149  21450169.14849
  20990060.641 6    -77734.496 6    -51473.67649  20990060.81349
  20089459.578 6   -288673.629 6   -192172.41449  20089456.95749
  23342834.680 2    -49288.754 2    -33620.19946  23342833.07446
  22884163.523 3     24882.941 3     16736.05947  22884163.37547
  23894866.445 4   -484028.195 4   -323428.06648  23894866.04748
 20  5 16  3 43  4.0000000  0  7G01G07G08G11G16G27G30               -0.000463036
  21285294.266 6   -533354.855 6   -349278.24249  21285295.92649
  21449280.031 6   -463177.824 6   -312482.52049  21449277.69149
  20989911.711 6    -78517.570 6    -52083.86349  20989911.57849
  20088901.633 6   -291605.926 6   -194457.32849  20088899.28149
  23342696.836 2    -50011.059 2    -34183.07046  23342695.54346
  22884225.758 3     25204.496 3     16986.62147  22884224.34047
  23893779.359 4   -489738.668 4   -327877.79748  23893779.19948
 20  5 16  3 43  5.0000000  0  7G01G07G08G11G16G27G30               -0.000464571
  21284286.914 6   -538646.969 6   -353401.96949  21284289.18049
  21448388.438 6   -467863.313 6   -316133.55149  21448386.21549
  20989762.742 6    -79300.449 6    -52693.89849  20989762.50449
  20088344.055 6   -294537.648 6   -196741.78149  20088340.98449
  23342559.688 2    -50733.281 2    -34745.84846  23342557.90246
  22884286.141 3     25526.098 3     17237.22347  22884286.29747
  23892692.516 4   -495448.883 4   -332327.31648  23892692.62548
 20  5 16  3 43  6.0000000  0  7G01G07G08G11G16G27G30               -0.000466106
  21283280.188 6   -543938.617 6   -357525.34049  21283282.05949
  21447496.617 6   -472548.301 6   -319784.18849  21447494.54749
  20989613.461 6    -80083.109 6    -53303.76649  20989613.55949
  20087785.750 6   -297468.766 6   -199025.77349  20087783.02049
  23342422.547 2    -51455.344 2    -35308.46546  23342421.01246
  22884347.523 3     25847.750 3     17487.86347  22884346.81347
  23891606.070 4   -501158.914 4   -336776.69548  23891605.87548
 20  5 16  3 43  7.0000000  0  7G01G07G08G11G16G27G30               -0.000467642
  21282272.859 6   -549229.836 6   -361648.35949  21282275.30549
  21446605.422 6   -477232.816 6   -323434.46149  21446602.99249
  20989464.766 6    -80865.609 6    -53913.50849  20989465.27349
  20087228.375 6   -300399.320 6   -201309.32049  20087225.34049
  23342286.039 3    -52177.297 3    -35871.03146  23342283.07446
  22884409.578 3     26169.367 3     17738.46947  22884408.27047
  23890519.531 4   -506868.711 4   -341225.88348  23890519.36748
 20  5 16  3 43  8.0000000  0  7G01G07G08G11G16G27G30               -0.000469177
  21281266.031 6   -554520.563 6   -365771.00449  21281268.18049
  21445714.273 6   -481916.836 6   -327084.34849  21445711.86749
  20989315.969 6    -81647.910 6    -54523.09449  20989315.75849
  20086671.000 6   -303329.281 6   -203592.40649  20086667.87149
  23342148.305 3    -52899.070 3    -36433.46146  23342145.86346
  22884470.539 3     26490.973 3     17989.07047  22884469.72347
  23889433.148 4   -512578.355 4   -345674.96148  23889432.98448
 20  5 16  3 43  9.0000000  0  7G01G07G08G11G16G27G30               -0.000470711
  21280259.781 6   -559810.809 6   -369893.27349  21280261.37149
  21444822.953 6   -486600.355 6   -330733.84449  21444820.80549
  20989166.922 6    -82429.969 6    -55132.48449  20989166.86349
  20086113.406 6   -306258.637 6   -205875.02749  20086110.21949
  23342011.094 3    -53620.711 3    -36995.78546  23342008.70346
  22884531.266 3     26812.621 3     18239.69947  22884530.89547
  23888346.414 4   -518287.695 4   -350123.79748  23888346.57048
 20  5 16  3 43 10.0000000  0  7G01G07G08G11G16G27G30               -0.000472246
  21279252.867 6   -565100.598 6   -374015.18449  21279255.03949
  21443932.008 6   -491283.379 6   -334382.94949  21443929.44149
  20989018.328 6    -83211.840 6    -55741.73449  20989018.12549
  20085556.016 6   -309187.383 6   -208157.16849  20085553.16049
  23341873.430 2    -54342.152 2    -37557.94946  23341871.36346
  22884592.977 3     27134.344 3     18490.38747  22884592.14547
  23887259.984 4   -523996.875 4   -354572.50448  23887260.03548
 20  5 16  3 43 11.0000000  0  7G01G07G08G11G16G27G30               -0.000473782
  21278246.805 6   -570389.906 6   -378136.72749  21278248.66849
  21443040.805 6   -495965.895 6   -338031.66449  21443038.41449
  20988869.672 6    -83993.461 6    -56350.79349  20988869.24649
  20084998.602 6   -312115.551 6   -210438.85949  20084996.12149
  23341736.344 3    -55063.477 3    -38120.02746  23341734.00446
  22884653.477 3     27456.039 3     18741.05947  22884653.34447
  23886174.414 4   -529705.789 4   -359021.01648  23886173.37148
 20  5 16  3 43 12.0000000  0  7G01G07G08G11G16G27G30               -0.000475317
  21277240.336 6   -575678.695 6   -382257.86749  21277241.98449
  21442149.414 6   -500647.898 6   -341679.98449  21442147.34449
  20988720.758 6    -84774.844 6    -56959.66449  20988721.09849
  20084441.742 6   -315043.078 6   -212720.04749  20084438.99249
  23341599.492 3    -55784.621 3    -38681.94946  23341596.67246
  22884715.516 4     27777.695 4     18991.69547  22884714.89147
  23885088.055 4   -535414.453 4   -363469.32448  23885087.37548
 20  5 16  3 43 13.0000000  0  7G01G07G08G11G16G27G30               -0.000476851
  21276233.445 6   -580966.988 6   -386378.61349  21276235.09849
  21441258.852 6   -505329.348 6   -345327.85949  21441256.74649
  20988572.516 6    -85555.980 6    -57568.34849  20988572.09049
  20083884.578 6   -317969.938 6   -215000.71549  20083882.05149
  23341461.836 3    -56505.535 3    -39243.68046  23341459.71946
  22884776.461 3     28099.480 3     19242.44147  22884776.23447
  23884001.531 4   -541122.820 4   -367917.40648  23884000.41448
 20  5 16  3 43 14.0000000  0  7G01G07G08G11G16G27G30               -0.000478386
  21275227.789 6   -586254.785 6   -390498.97349  21275229.39849
  21440368.273 6   -510010.328 6   -348975.37549  21440365.68849
  20988423.688 6    -86336.898 6    -58176.85949  20988423.87149
  20083328.125 6   -320896.277 6   -217280.98048  20083325.18848
  23341324.602 3    -57226.313 3    -39805.32846  23341322.69946
  22884837.758 3     28421.266 3     19493.18847  22884837.62147
  23882915.336 5   -546831.012 5   -372365.34848  23882914.94948
 20  5 16  3 43 15.0000000  0  7G01G07G08G11G16G27G30               -0.000479921
  21274221.461 6   -591542.125 6   -394618.97749  21274223.48049
  21439477.328 6   -514690.762 6   -352622.46949  21439475.16849
  20988274.828 6    -87117.609 6    -58785.20349  20988275.15249
  20082771.078 6   -323821.953 6   -219560.72749  20082768.33649
  23341187.828 3    -57946.953 3    -40366.88746  23341185.96546
  22884897.328 3     28743.125 3     19743.97347  22884898.85547
  23881829.258 5   -552538.930 5   -376813.08248  23881828.87148
 20  5 16  3 43 16.0000000  0  7G01G07G08G11G16G27G30               -0.000481457
  21273215.266 6   -596828.953 6   -398738.58249  21273217.03549
  21438586.703 6   -519370.715 6   -356269.17649  21438584.33649
  20988126.563 6    -87898.074 6    -59393.35949  20988126.55549
  20082214.555 6   -326747.020 6   -221840.00049  20082211.70349
  23341050.141 3    -58667.422 3    -40928.30946  23341048.15246
  22884960.117 3     29064.980 3     19994.75847  22884959.78547
  23880742.719 4   -558246.629 4   -381260.64548  23880742.97748
 20  5 16  3 43 17.0000000  0  7G01G07G08G11G16G27G30               -0.000482990
  21272209.711 6   -602115.328 6   -402857.84049  21272211.65249
  21437696.297 6   -524050.152 6   -359915.49649  21437694.28949
  20987978.016 6    -88678.340 6    -60001.35549  20987978.15649
  20081658.086 6   -329671.492 6   -224118.80949  20081654.89849
  23340913.516 3    -59387.727 3    -41489.60246  23340911.58646
  22885020.445 3     29386.930 3     20245.62947  22885021.54347
  23879656.391 4   -563954.051 4   -385707.97348  23879656.29748
 20  5 16  3 43 18.0000000  0  7G01G07G08G11G16G27G30               -0.000484526
  21271203.758 6   -607401.191 6   -406976.68849  21271205.40649
  21436805.992 6   -528729.090 6   -363561.42249  21436803.23049
  20987829.836 6    -89458.434 6    -60609.22349  20987829.96149
  20081102.281 6   -332595.371 6   -226397.15649  20081098.76649
  23340777.063 3    -60107.820 3    -42050.70746  23340774.50846
  22885082.055 3     29708.773 3     20496.41047  22885082.78147
  23878570.563 4   -569661.277 4   -390155.16448  23878570.44148
 20  5 16  3 43 19.0000000  0  7G01G07G08G11G16G27G30               -0.000486059
  21270197.500 6   -612686.605 6   -411095.19149  21270199.73849
  21435915.492 6   -533407.551 6   -367206.97349  21435913.72749
  20987681.313 6    -90238.301 6    -61216.91449  20987681.62949
  20080545.313 6   -335518.652 6   -228675.03949  20080542.44549
  23340639.719 2    -60827.801 2    -42611.72746  23340637.65246
  22885142.922 3     30030.703 3     20747.25847  22885143.94947
  23877484.953 4   -575368.309 4   -394602.20748  23877484.62548
 20  5 16  3 43 20.0000000  0  7G01G07G08G11G16G27G30               -0.000487595
  21269191.766 6   -617971.566 6   -415213.34449  21269194.41049
  21435025.680 6   -538085.504 6   -370852.13749  21435023.48849
  20987532.930 6    -91017.969 6    -61824.44549  20987532.77749
  20079989.313 6   -338441.363 6   -230952.48049  20079986.35949
  23340502.523 2    -61547.656 2    -43172.65246  23340500.32046
  22885205.531 4     30352.637 4     20998.11347  22885205.62947
  23876398.625 4   -581075.098 4   -399049.05148  23876398.48048
 20  5 16  3 43 21.0000000  0  7G01G07G08G11G16G27G30               -0.000489130
  21268186.461 6   -623256.000 6   -419331.08249  21268188.57849
  21434135.438 6   -542762.945 6   -374496.88749  21434133.25449
  20987384.594 6    -91797.414 6    -62431.80949  20987384.69949
  20079433.570 6   -341363.422 6   -233229.41049  20079430.60249
  23340365.625 3    -62267.344 3    -43733.45346  23340363.77346
  22885266.227 3     30674.586 3     21248.99247  22885267.29747
  23875312.719 5   -586781.629 5   -403495.69948  23875312.75048
 20  5 16  3 43 22.0000000  0  7G01G07G08G11G16G27G30               -0.000490664
  21267180.883 6   -628539.984 6   -423448.47749  21267182.59049
  21433244.867 6   -547439.895 6   -378141.26649  21433243.19149
  20987236.414 6    -92576.656 6    -63039.01249  20987236.30149
  20078877.242 7   -344284.922 7   -235505.90249  20078874.25449
  23340229.320 2    -62986.883 2    -44294.14146  23340226.85246
  22885327.570 3     30996.531 3     21499.85247  22885327.64547
  23874227.000 4   -592487.922 4   -407942.16048  23874226.47748
 20  5 16  3 43 23.0000000  0  7G01G07G08G11G16G27G30               -0.000492199
  21266175.602 6   -633823.418 6   -427565.43849  21266177.55149
  21432355.523 6   -552116.297 6   -381785.21949  21432353.29349
  20987087.961 6    -93355.641 6    -63646.01249  20987088.50049
  20078321.805 7   -347205.746 7   -237781.86349  20078318.53549
  23340092.055 3    -63706.160 3    -44854.62946  23340089.68446
  22885388.734 4     31318.555 4     21750.77047  22885388.88347
  23873141.781 5   -598193.949 5   -412388.41848  23873140.94148
 20  5 16  3 43 24.0000000  0  7G01G07G08G11G16G27G30               -0.000493732
  21265170.438 6   -639106.418 6   -431682.05949  21265172.05949
  21431465.688 6   -556792.227 6   -385428.79749  21431463.41849
  20986939.984 6    -94134.422 6    -64252.84849  20986939.80149
  20077765.945 6   -350126.008 6   -240057.39849  20077762.99249
  23339955.016 3    -64425.340 3    -45415.03946  23339952.87546
  22885449.680 3     31640.633 3     22001.73047  22885450.51647
  23872055.477 4   -603899.805 4   -416834.53948  23872054.94948
 20  5 16  3 43 25.0000000  0  7G01G07G08G11G16G27G30               -0.000495268
  21264165.297 6   -644388.895 6   -435798.27349  21264166.98449
  21430576.039 6   -561467.586 6   -389071.93849  21430574.03949
  20986791.891 6    -94912.957 6    -64859.50049  20986791.96149
  20077210.594 7   -353045.637 7   -242332.43449  20077207.50049
  23339818.695 2    -65144.309 2    -45975.27346  23339816.23446
  22885510.359 3     31962.719 3     22252.69147  22885511.84447
  23870970.602 5   -609605.352 5   -421280.42248  23870969.00848
 20  5 16  3 43 26.0000000  0  7G01G07G08G11G16G27G30               -0.000496803
  21263160.039 6   -649670.848 6   -439914.08249  21263161.91849
  21429685.820 6   -566142.414 6   -392714.65649  21429684.21949
  20986643.328 6    -95691.203 6    -65465.92649  20986643.73849
  20076655.273 7   -355964.605 7   -244606.95349  20076652.09049
  23339681.930 2    -65863.078 2    -46535.35946  23339678.99646
  22885573.078 4     32284.910 4     22503.75847  22885573.19547
  23869884.695 4   -615310.648 4   -425726.11748  23869883.85548
 20  5 16  3 43 27.0000000  0  7G01G07G08G11G16G27G30               -0.000498337
  21262155.188 6   -654952.297 6   -444029.49649  21262156.80549
  21428796.625 6   -570816.754 6   -396356.99649  21428794.99249
  20986495.406 6    -96469.266 6    -66072.21149  20986496.09049
  20076099.422 6   -358882.953 6   -246880.99249  20076096.52749
  23339544.531 3    -66581.668 3    -47095.32046  23339542.28946
  22885634.141 3     32607.016 3     22754.74247  22885634.68447
  23868798.266 4   -621015.676 4   -430171.59448  23868797.96948
 20  5 16  3 43 28.0000000  0  7G01G07G08G11G16G27G30               -0.000499872
  21261149.781 6   -660233.250 6   -448144.52749  21261152.25449
  21427907.328 6   -575490.535 6   -399998.89849  21427905.50449
  20986347.617 6    -97247.043 6    -66678.27349  20986347.48049
  20075544.219 6   -361800.668 6   -249154.53549  20075541.48849
  23339408.789 3    -67300.105 3    -47655.13346  23339405.65246
  22885695.102 3     32929.320 3     23005.89147  22885696.60947
  23867713.336 5   -626720.453 5   -434616.86348  23867712.52048
 20  5 16  3 43 29.0000000  0  7G01G07G08G11G16G27G30               -0.000501406
  21260145.375 6   -665513.727 6   -452259.18049  21260147.32449
  21427017.969 6   -580163.813 6   -403640.41849  21427015.58249
  20986199.570 6    -98024.633 6    -67284.18449  20986200.21949
  20074989.523 6   -364717.801 6   -251427.62549  20074986.14849
  23339271.453 3    -68018.426 3    -48214.85546  23339268.78546
  22885756.781 3     33251.477 3     23256.93047  22885757.22747
  23866627.055 5   -632425.020 5   -439061.96948  23866627.00048
 20  5 16  3 43 29.9990000  0  7G01G07G08G11G16G27G30                0.000497061
  21259141.198 6   -670788.414 6   -456369.32449  21259143.50349
  21426129.933 6   -584831.938 6   -407277.91449  21426127.44849
  20986051.651 6    -98801.215 6    -67889.31349  20986052.26549
  20074434.925 7   -367631.402 7   -253697.96149  20074431.65549
  23339135.347 3    -68735.773 3    -48773.80946  23339132.54646
  22885818.589 3     33573.539 3     23507.88747  22885818.05847
  23865542.792 5   -638123.605 5   -443502.42248  23865542.60548
 20  5 16  3 43 30.9990000  0  7G01G07G08G11G16G27G30                0.000495527
  21258136.823 6   -676067.855 6   -460483.18049  21258138.65149
  21425240.581 6   -589504.152 6   -410918.60249  21425238.50349
  20985904.065 6    -99578.305 6    -68494.84049  20985904.48349
  20073880.019 6   -370547.270 6   -255970.07049  20073877.23749
  23338998.339 2    -69453.641 2    -49333.18846  23338995.94046
  22885879.511 3     33895.895 3     23759.07447  22885880.32347
  23864458.159 5   -643827.625 5   -447947.11348  23864456.58548
 20  5 16  3 43 31.9990000  0  7G01G07G08G11G16G27G30                0.000493992
  21257131.870 6   -681346.832 6   -464596.66849  21257134.33949
  21424351.714 6   -594175.895 6   -414558.91449  21424349.59749
  20985756.112 6   -100355.188 6    -69100.19949  20985757.04249
  20073325.214 6   -373462.547 6   -258241.71549  20073322.16749
  23338862.433 3    -70171.410 3    -49892.52046  23338858.90546
  22885940.956 3     34218.320 3     24010.30947  22885941.35547
  23863372.355 4   -649531.438 4   -452391.64148  23863371.42148
 20  5 16  3 43 32.9990000  0  7G01G07G08G11G16G27G30                0.000492458
  21256127.870 6   -686625.293 6   -468709.76649  21256129.55449
  21423462.878 6   -598847.066 6   -418198.78549  21423460.76149
  20985608.144 6   -101131.828 6    -69705.37549  20985608.96849
  20072770.675 7   -376377.191 7   -260512.86749  20072767.83549
  23338725.831 3    -70888.973 3    -50451.67246  23338723.03446
  22886001.612 2     34540.715 2     24261.50847  22886002.64747
  23862287.198 4   -655234.973 4   -456835.95348  23862286.49148
 20  5 16  3 43 33.9990000  0  7G01G07G08G11G16G27G30                0.000490923
  21255123.448 6   -691903.230 6   -472822.43849  21255125.55049
  21422573.862 6   -603517.738 6   -421838.27749  21422571.88249
  20985460.511 6   -101908.234 6    -70310.35949  20985461.33149
  20072216.253 7   -379291.191 7   -262783.50849  20072213.03449
  23338588.784 2    -71606.316 2    -51010.65646  23338586.52246
  22886063.151 2     34863.203 2     24512.78547  22886064.26147
  23861200.964 4   -660938.215 4   -461280.03548  23861200.62848
 20  5 16  3 43 34.9990000  0  7G01G07G08G11G16G27G30                0.000489389
  21254118.776 6   -697180.660 6   -476934.71949  21254121.07749
  21421685.347 6   -608187.836 6   -425477.31649  21421683.36649
  20985312.730 6   -102684.371 6    -70915.13749  20985313.55849
  20071661.495 7   -382204.547 7   -265053.66449  20071658.87449
  23338452.581 3    -72323.508 3    -51569.51646  23338449.94446
  22886124.339 2     35185.820 2     24764.16047  22886125.38247
  23860116.659 4   -666641.250 4   -465723.95748  23860115.75348
 20  5 16  3 43 35.9990000  0  7G01G07G08G11G16G27G30                0.000487856
  21253114.847 6   -702457.594 6   -481046.61349  21253116.91349
  21420796.737 6   -612857.438 6   -429115.96549  21420794.64749
  20985165.167 6   -103460.270 6    -71519.73849  20985166.05049
  20071107.394 7   -385117.277 7   -267323.32049  20071104.29249
  23338316.151 3    -73040.477 3    -52128.18846  23338313.64046
  22886185.831 2     35508.344 2     25015.46947  22886187.21047
  23859031.292 4   -672343.941 4   -470167.61748  23859030.71848
 20  5 16  3 43 36.9990000  0  7G01G07G08G11G16G27G30                0.000486320
  21252110.636 6   -707734.004 6   -485158.09449  21252112.69849
  21419908.097 6   -617526.523 6   -432754.21949  21419905.78849
  20985017.776 6   -104235.938 6    -72124.15649  20985018.33149
  20070553.487 7   -388029.398 7   -269592.50849  20070550.65949
  23338179.628 3    -73757.305 3    -52686.75446  23338177.30846
  22886247.120 1     35831.012 1     25266.89147  22886248.67947
  23857945.894 4   -678046.430 4   -474611.10948  23857945.81948
 20  5 16  3 43 37.9990000  0  7G01G07G08G11G16G27G30                0.000484787
  21251106.956 6   -713009.941 6   -489269.21549  21251108.76949
  21419019.425 6   -622195.086 6   -436392.05949  21419017.94849
  20984870.089 6   -105011.402 6    -72728.41449  20984871.13649
  20069999.120 6   -390940.910 6   -271861.21949  20069996.73049
  23338043.011 3    -74473.934 3    -53245.15646  23338041.10846
  22886309.230 2     36153.594 2     25518.26247  22886309.96047
  23856861.105 4   -683748.688 4   -479054.43448  23856860.50348
 20  5 16  3 43 38.9990000  0  7G01G07G08G11G16G27G30                0.000483253
  21250102.808 6   -718285.438 6   -493379.99249  21250104.56249
  21418131.433 6   -626863.145 6   -440029.50449  21418129.36649
  20984722.667 6   -105786.645 6    -73332.50049  20984723.26949
  20069445.112 6   -393851.836 6   -274129.47349  20069442.18749
  23337906.917 3    -75190.453 3    -53803.49246  23337904.39046
  22886370.526 1     36476.234 1     25769.66847  22886371.55847
  23855775.987 4   -689450.684 4   -483497.54748  23855775.06948
 20  5 16  3 43 39.9990000  0  7G01G07G08G11G16G27G30                0.000481718
  21249099.097 6   -723560.387 6   -497490.34049  21249101.09349
  21417242.878 6   -631530.691 6   -443666.55149  21417241.15949
  20984574.987 6   -106561.664 6    -73936.41049  20984576.15949
  20068891.620 7   -396762.117 7   -276397.22349  20068888.65549
  23337769.925 2    -75906.770 2    -54361.66046  23337767.74146
  22886431.183 1     36798.953 1     26021.14147  22886433.21847
  23854691.183 4   -695152.492 4   -487940.52048  23854690.60148
 20  5 16  3 43 40.9990000  0  7G01G07G08G11G16G27G30                0.000480185
  21248095.612 6   -728834.797 6   -501600.27749  21248097.55849
  21416354.831 6   -636197.664 6   -447303.15249  21416352.69049
  20984427.573 6   -107336.410 6    -74540.10249  20984428.62849
  20068337.917 6   -399671.754 6   -278664.47349  20068334.80049
  23337634.151 3    -76622.922 3    -54919.69546  23337631.65546
  22886492.620 1     37121.746 1     26272.67247  22886494.74947
  23853606.386 4   -700853.941 4   -492383.20748  23853605.69448
 20  5 16  3 43 41.9990000  0  7G01G07G08G11G16G27G30                0.000478651
  21247091.815 6   -734108.738 6   -505709.84049  21247093.90549
  21415466.925 6   -640864.133 6   -450939.35949  21415465.31549
  20984280.769 6   -108110.914 6    -75143.60949  20984281.12449
  20067784.144 7   -402580.785 7   -280931.25449  20067781.44049
  23337497.651 2    -77338.820 2    -55477.53546  23337495.67546
  22886553.550 1     37444.547 1     26524.20347  22886555.71847
  23852520.300 4   -706555.180 4   -496825.73048  23852520.35848
 20  5 16  3 43 42.9990000  0  7G01G07G08G11G16G27G30                0.000477118
  21246088.331 6   -739382.203 6   -509819.02749  21246090.81549
  21414579.190 6   -645530.137 6   -454575.21149  21414577.27249
  20984133.026 6   -108885.262 6    -75746.99649  20984134.22649
  20067230.597 6   -405489.254 6   -283197.58649  20067227.79649
  23337361.355 2    -78054.598 2    -56035.27346  23337359.03846
  22886615.237 2     37767.352 2     26775.74247  22886617.02647
  23851435.909 4   -712256.258 4   -501268.12148  23851435.46848
 20  5 16  3 43 43.9990000  0  7G01G07G08G11G16G27G30                0.000475582
  21245085.073 6   -744655.203 6   -513927.86749  21245086.77649
  21413691.308 6   -650195.590 6   -458210.62549  21413689.44049
  20983986.167 6   -109659.363 6    -76350.18849  20983986.44449
  20066677.440 6   -408397.047 6   -285463.39849  20066674.68749
  23337225.167 2    -78770.262 2    -56592.93846  23337223.34746
  22886676.026 1     38090.195 1     27027.31647  22886678.73747
  23850350.456 4   -717957.016 4   -505710.26248  23850350.72248
 20  5 16  3 43 44.9990000  0  7G01G07G08G11G16G27G30                0.000474049
  21244081.737 6   -749927.789 6   -518036.36349  21244083.57749
  21412803.636 6   -654860.637 6   -461845.73049  21412801.60549
  20983838.480 6   -110433.348 6    -76953.29349  20983839.44049
  20066124.011 7   -411304.402 7   -287728.87549  20066121.28449
  23337089.542 2    -79485.816 2    -57150.53546  23337087.25346
  22886737.198 1     38412.898 1     27278.77347  22886739.72247
  23849266.019 4   -723657.676 4   -510152.33248  23849266.24548
 20  5 16  3 43 45.9990000  0  7G01G07G08G11G16G27G30                0.000472515
  21243078.417 6   -755199.883 6   -522144.49249  21243080.64749
  21411915.878 6   -659525.160 6   -465480.42249  21411914.08149
  20983691.073 6   -111207.090 6    -77556.21149  20983691.97249
  20065570.800 7   -414211.109 7   -289993.83649  20065568.08549
  23336953.558 2    -80201.246 2    -57707.99646  23336951.67146
  22886800.050 1     38735.699 1     27530.30547  22886801.51147
  23848181.026 4   -729358.055 4   -514594.19148  23848181.44848
 20  5 16  3 43 46.9990000  0  7G01G07G08G11G16G27G30                0.000470980
  21242075.050 6   -760471.484 6   -526252.23049  21242077.18749
  21411028.409 6   -664189.168 6   -469114.71549  21411026.17549
  20983544.058 6   -111980.637 6    -78158.97749  20983544.80049
  20065017.589 7   -417117.207 7   -292258.33249  20065014.96849
  23336817.276 2    -80916.438 2    -58265.28546  23336814.61646
  22886860.597 1     39058.504 1     27781.84447  22886861.94847
  23847096.331 4   -735058.203 4   -519035.85248  23847096.91748
 20  5 16  3 43 47.9990000  0  7G01G07G08G11G16G27G30                0.000469446
  21241071.769 6   -765742.625 6   -530359.60949  21241073.92949
  21410141.230 6   -668852.707 6   -472748.64549  21410138.85149
  20983396.815 6   -112753.992 6    -78761.59049  20983397.77649
  20064464.675 7   -420022.734 7   -294522.37949  20064462.15549
  23336680.565 2    -81631.605 2    -58822.57446  23336679.25746
  22886921.573 1     39381.348 1     28033.40247  22886924.74147
  23846011.909 4   -740758.160 4   -523477.38348  23846012.12848
 20  5 16  3 43 48.9990000  0  7G01G07G08G11G16G27G30                0.000467913
  21240069.378 6   -771013.258 6   -534466.59849  21240070.96849
  21409253.730 6   -673515.684 6   -476382.13349  21409251.69449
  20983249.800 6   -113527.098 6    -79364.00849  20983250.53849
  20063912.183 7   -422927.641 7   -296785.93849  20063909.56949
  23336544.511 2    -82346.453 2    -59379.60246  23336542.62446
  22886984.72211                     28285.03557  22886985.65557
  23844927.448 4   -746457.828 4   -527918.68048  23844927.30848
 20  5 16  3 43 49.9990000  0  7G01G07G08G11G16G27G30                0.000466379
  21239066.370 6   -776283.445 6   -538573.23849  21239068.17549
  21408366.620 6   -678178.223 6   -480015.28149  21408364.65549
  20983102.448 6   -114300.031 6    -79966.29349  20983103.41349
  20063359.464 7   -425831.984 7   -299049.07049  20063356.66349
  23336408.401 1    -83061.281 1    -59936.59446  23336406.30046
  22887044.784 1     40027.000 1     28536.50847  22887046.98047
  23843842.206 4   -752157.313 4   -532359.84448  23843842.80048
 20  5 16  3 43 50.9990000  0  7G01G07G08G11G16G27G30                0.000464846
  21238063.737 6   -781553.141 6   -542679.48849  21238065.96449
  21407479.308 6   -682840.227 6   -483648.00849  21407477.35849
  20982955.612 6   -115072.711 6    -80568.38749  20982956.48349
  20062806.776 7   -428735.672 7   -301311.67649  20062804.00349
  23336272.542 2    -83775.871 2    -60493.42646  23336270.28446
  22887107.245 1     40349.883 1     28788.09447  22887108.26947
