     2.10           OBSERVATION DATA    GPS(GPS)            RINEX VERSION / TYPE
cnvtToRINEX 3.07.0  convertToRINEX OPR  19-May-20 12:30 UTC PGM / RUN BY / DATE 
----------------------------------------------------------- COMMENT             
GG06                                                        MARKER NAME         
GG06                                                        MARKER NUMBER       
GNSS Observer       Trimble                                 OBSERVER / AGENCY   
0440101800          5700                2.32                REC # / TYPE / VERS 
                    TRM39105.00                             ANT # / TYPE        
 -3050162.7771  4928363.6029  2653597.5691                  APPROX POSITION XYZ 
        0.1030        0.0000        0.0000                  ANTENNA: DELTA H/E/N
     1     1     0                                          WAVELENGTH FACT L1/2
     4    C1    L1    L2    P2                              # / TYPES OF OBSERV 
  2020     5    16     1    38   31.0000000     GPS         TIME OF FIRST OBS   
  2020     5    16     3     9    5.0000000     GPS         TIME OF LAST OBS    
     0                                                      RCV CLOCK OFFS APPL 
    18                                                      LEAP SECONDS        
    11                                                      # OF SATELLITES     
   G01  3046  3046  3046  3046                              PRN / # OF OBS      
   G04  5435  5435  5435  5435                              PRN / # OF OBS      
   G07  3929  3929  3929  3929                              PRN / # OF OBS      
   G08  5416  5416  5416  5416                              PRN / # OF OBS      
   G09  5416  5416  5416  5416                              PRN / # OF OBS      
   G11  5435  5435  5435  5435                              PRN / # OF OBS      
   G16  5416  5416  5416  5416                              PRN / # OF OBS      
   G21   147   146   142   142                              PRN / # OF OBS      
   G26  5435  5435  5429  5429                              PRN / # OF OBS      
   G27  5435  5435  5435  5435                              PRN / # OF OBS      
   G31  2817  2817  2817  2817                              PRN / # OF OBS      
CARRIER PHASE MEASUREMENTS: PHASE SHIFTS REMOVED            COMMENT             
                                                            END OF HEADER       
 20  5 16  1 38 31.0000000  0  6G04G11G21G26G27G31                   0.000136271
  21453963.20316    -41081.88716     -9181.95758  21453962.51658
  23524265.35916   -117350.27016    -53211.00457  23524263.54357
  25200024.83613                                
  22907824.46915    -19487.89815                
  20140744.32817    -40075.99617     -6927.48959  20140736.28959
  23503252.23416    -13625.00816     -6509.86757  23503251.25057
 20  5 16  1 38 32.0000000  0  6G04G11G21G26G27G31                   0.000134182
  21453423.492 6    -43918.055 6    -11391.94548  21453422.80148
  23522987.055 6   -124066.566 6    -58444.47347  23522985.16047
  25199763.391 3     -6619.223 3                
  22907524.461 5    -21062.074 5      -199.28957  22907525.72357
  20140220.453 7    -42828.406 7     -9072.21449  20140212.59049
  23503082.914 6    -14513.543 6     -7202.23047  23503081.71147
 20  5 16  1 38 33.0000000  0  6G04G11G21G26G27G31                   0.000132092
  21452883.438 6    -46755.504 6    -13602.93848  21452882.81648
  23521708.789 6   -130784.719 6    -63679.39147  23521706.58247
  25199502.359 3     -7990.871 3                
  22907225.070 5    -22638.117 5     -1427.37947  22907225.61347
  20139696.430 7    -45582.133 7    -11217.94949  20139696.87149
  23502913.813 5    -15403.691 5     -7895.85247  23502912.52747
 20  5 16  1 38 34.0000000  0  6G04G11G21G26G27G31                   0.000129999
  21452343.227 6    -49594.395 6    -15815.04748  21452342.98048
  23520430.023 5   -137504.793 5    -68915.82047  23520428.03147
  25199241.563 3     -9364.141 3                
  22906924.359 5    -24216.234 5     -2657.08247  22906925.88747
  20139172.156 7    -48337.270 7    -13364.83249  20139172.69949
  23502744.281 6    -16295.609 6     -8590.84447  23502743.05147
 20  5 16  1 38 35.0000000  0  6G04G11G21G26G27G31                   0.000127899
  21451802.828 6    -52434.559 6    -18028.16848  21451802.68048
  23519150.242 5   -144226.715 5    -74153.68047  23519149.09047
  25198979.680 2    -10738.938 2                
  22906623.859 5    -25796.215 5     -3888.23847  22906625.30947
  20138647.648 7    -51093.699 7    -15512.71149  20138648.38349
  23502573.922 6    -17189.145 6     -9287.10547  23502572.64547
 20  5 16  1 38 36.0000000  0  6G04G11G21G26G27G31                   0.000125807
  21451261.961 6    -55275.996 6    -20242.27748  21451261.58648
  23517870.867 5   -150950.418 5    -79392.93847  23517869.56347
  25198717.930 3    -12115.211 3      -810.62956  25198714.59456
  22906322.695 5    -27378.113 5     -5120.89847  22906324.34047
  20138123.070 7    -53851.402 7    -17661.57449  20138123.14849
  23502403.859 6    -18084.305 6     -9984.63748  23502402.55548
 20  5 16  1 38 37.0000000  0  6G04G11G21G26G27G31                   0.000123705
  21450721.414 6    -58118.492 6    -22457.21948  21450720.40648
  23516590.586 5   -157675.715 5    -84633.41847  23516590.19947
  25198455.305 2    -13492.805 2     -1884.07046  25198452.75846
  22906021.367 5    -28961.660 5     -6354.82847  22906023.04347
  20137597.844 7    -56610.160 7    -19811.24649  20137598.05949
  23502232.945 6    -18980.848 6    -10683.24648  23502232.00448
 20  5 16  1 38 38.0000000  0  6G04G11G21G26G27G31                   0.000121609
  21450180.383 6    -60962.055 6    -24672.98048  21450179.58648
  23515311.234 5   -164402.570 5    -89875.13347  23515309.96147
  25198193.281 2    -14871.648 2     -2958.49646  25198190.13346
  22905719.609 5    -30546.875 5     -7590.05947  22905721.25047
  20137072.891 7    -59369.980 7    -21961.74649  20137072.76649
  23502062.438 5    -19878.770 5    -11382.92247  23502061.29347
 20  5 16  1 38 39.0000000  0  6G04G11G21G26G27G31                   0.000119505
  21449638.828 6    -63806.664 6    -26889.55948  21449638.12548
  23514031.031 5   -171131.031 5    -95118.08647  23514029.27047
  25197930.250 3    -16251.711 3     -4033.87946  25197928.00046
  22905417.500 5    -32133.754 5     -8826.59047  22905419.32047
  20136547.508 7    -62130.848 7    -24113.07449  20136547.63749
  23501890.344 5    -20778.078 5    -12083.69147  23501890.25047
 20  5 16  1 38 40.0000000  0  6G04G11G21G26G27G31                   0.000117405
  21449097.445 6    -66652.227 6    -29106.88748  21449096.76648
  23512750.250 5   -177860.977 5   -100362.19147  23512748.82047
  25197666.984 2    -17632.996 2     -5110.21146  25197664.94546
  22905115.508 5    -33722.195 5    -10064.33247  22905116.75047
  20136021.898 7    -64892.672 7    -26265.14149  20136022.24649
  23501719.266 5    -21678.688 5    -12785.46547  23501718.79347
 20  5 16  1 38 41.0000000  0  6G04G11G21G26G27G31                   0.000115301
  21448555.875 6    -69498.617 6    -31324.85248  21448555.06648
  23511468.719 5   -184592.266 5   -105607.35247  23511467.71147
  25197404.086 3    -19015.316 3     -6187.35946  25197401.97346
  22904812.508 5    -35312.094 5    -11303.22347  22904814.98847
  20135496.023 7    -67655.324 7    -28417.85549  20135496.41449
  23501547.898 5    -22580.477 5    -13488.16447  23501547.29347
 20  5 16  1 38 42.0000000  0  6G04G11G21G26G27G31                   0.000113199
  21448013.914 6    -72345.863 6    -33543.48448  21448012.89548
  23510187.633 5   -191324.957 5   -110853.60247  23510186.47347
  25197141.734 3    -20398.656 3     -7265.27746  25197138.93446
  22904509.891 5    -36903.461 5    -12543.25047  22904512.03947
  20134970.047 7    -70418.832 7    -30571.23849  20134970.29749
  23501376.266 5    -23483.410 5    -14191.75047  23501375.88347
 20  5 16  1 38 43.0000000  0  6G04G11G21G26G27G31                   0.000111094
  21447472.008 6    -75193.969 6    -35762.78148  21447471.18048
  23508906.266 5   -198059.048 5   -116100.93347  23508904.91847
  25196877.984 3    -21783.152 3     -8344.10246  25196875.28946
  22904206.828 5    -38496.277 5    -13784.40647  22904208.48847
  20134443.922 7    -73183.203 7    -32725.29349  20134444.41449
  23501203.852 5    -24387.578 5    -14896.29347  23501203.42247
 20  5 16  1 38 44.0000000  0  6G04G11G21G26G27G31                   0.000108990
  21446930.016 6    -78042.770 6    -37982.62948  21446928.86348
  23507624.422 5   -204794.300 5   -121349.17747  23507623.14847
  25196614.016 3    -23168.570 3     -9423.64146  25196611.98046
  22903903.305 5    -40090.408 5    -15026.58247  22903905.20347
  20133917.906 7    -75948.266 7    -34879.88749  20133918.37949
  23501031.281 5    -25292.762 5    -15601.62947  23501031.07447
 20  5 16  1 38 45.0000000  0  6G04G11G21G26G27G31                   0.000106882
  21446387.398 6    -80892.273 6    -40203.02348  21446387.03548
  23506343.070 5   -211530.832 5   -126598.41847  23506341.43447
  25196350.148 3    -24554.832 3    -10503.82846  25196348.26646
  22903600.102 5    -41685.871 5    -16269.80547  22903601.68447
  20133391.523 7    -78714.012 7    -37035.02049  20133391.66049
  23500859.656 5    -26198.943 5    -16307.74747  23500858.64847
 20  5 16  1 38 46.0000000  0  6G04G11G21G26G27G31                   0.000104776
  21445845.148 6    -83742.422 6    -42423.91448  21445844.59848
  23505061.047 5   -218268.531 5   -131848.56647  23505059.18047
  25196086.313 3    -25941.934 3    -11584.68846  25196084.44546
  22903296.133 5    -43282.559 5    -17513.97747  22903297.53147
  20132865.320 7    -81480.414 7    -39190.65649  20132865.14849
  23500686.617 5    -27106.152 5    -17014.66447  23500685.82047
 20  5 16  1 38 47.0000000  0  6G04G11G21G26G27G31                   0.000102667
  21445302.977 6    -86593.176 6    -44645.28548  21445302.24648
  23503778.914 5   -225007.348 5   -137099.59847  23503776.64847
  25195822.117 3    -27329.934 3    -12666.25846  25195820.49646
  22902992.148 5    -44880.484 5    -18759.12147  22902993.89847
  20132338.633 7    -84247.430 7    -41346.77349  20132338.81649
  23500513.758 5    -28014.293 5    -17722.31347  23500513.25847
 20  5 16  1 38 48.0000000  0  6G04G11G21G26G27G31                   0.000100561
  21444760.430 6    -89444.402 6    -46867.02348  21444759.53548
  23502495.766 5   -231747.180 5   -142351.42247  23502493.94147
  25195558.039 3    -28718.629 3    -13748.36346  25195555.75846
  22902687.891 5    -46479.492 5    -20005.09847  22902689.11347
  20131812.102 7    -87014.914 7    -43503.25849  20131812.31349
  23500340.922 5    -28923.234 5    -18430.57447  23500340.07847
 20  5 16  1 38 49.0000000  0  6G04G11G21G26G27G31                   0.000098450
  21444217.500 6    -92296.164 6    -49089.17648  21444216.78948
  23501213.438 5   -238488.082 5   -147604.07847  23501211.00047
  25195293.648 3    -30108.016 3    -14831.01246  25195291.46546
  22902383.242 5    -48079.648 5    -21251.98047  22902384.87947
  20131285.398 7    -89782.941 7    -45660.16449  20131285.55149
  23500167.797 5    -29833.039 5    -19139.52347  23500167.19947
 20  5 16  1 38 50.0000000  0  9G04G08G09G11G16G21G26G27G31          0.000096342
  21443674.883 6    -95148.449 6    -51311.73448  21443674.28948
  20749986.37517   -120268.00017    -71649.86759  20749986.95359
  23071049.34416   -121654.70716    -62617.77359  23071049.69559
  23499930.172 5   -245230.023 5   -152857.53547  23499927.94547
  21501675.12516    -52885.84016    -26685.34858  21501672.70358
  25195029.117 3    -31498.191 3    -15914.27046  25195026.91446
  22902078.773 5    -49680.895 5    -22499.69547  22902080.19547
  20130758.578 7    -92551.461 7    -47817.45349  20130758.57849
  23499994.094 5    -30743.703 5    -19849.13747  23499993.48047
 20  5 16  1 38 51.0000000  0  9G04G08G09G11G16G21G26G27G31          0.000094231
  21443131.852 6    -98001.121 6    -53534.59848  21443131.06348
  20749054.547 7   -125164.891 7    -75465.62149  20749054.91049
  23070148.586 6   -126387.977 6    -66306.03949  23070149.14849
  23498647.461 5   -251972.840 5   -158111.67647  23498645.15647
  21501274.734 6    -54989.734 6    -28324.74248  21501272.17248
  25194764.234 3    -32888.930 3    -16997.96546  25194762.67246
  22901773.609 5    -51283.191 5    -23748.23447  22901775.57447
  20130231.539 7    -95320.395 7    -49975.06349  20130231.66849
  23499821.039 5    -31655.113 5    -20559.32847  23499820.37547
 20  5 16  1 38 52.0000000  0  9G04G08G09G11G16G21G26G27G31          0.000092123
  21442589.047 6   -100854.215 6    -55757.78948  21442588.10948
  20748122.250 7   -130062.234 7    -79281.73849  20748123.03549
  23069248.109 6   -131121.676 6    -69994.63349  23069248.16049
  23497364.055 5   -258716.641 5   -163366.58647  23497361.96947
  21500874.078 6    -57094.582 6    -29964.88348  21500871.64548
  25194499.336 2    -34280.316 2    -18082.16446  25194497.88346
  22901468.898 5    -52886.473 5    -24997.54747  22901470.11747
  20129704.625 7    -98089.742 7    -52132.98849  20129704.93049
  23499647.375 5    -32567.267 5    -21270.10347  23499646.62547
 20  5 16  1 38 53.0000000  0  9G04G08G09G11G16G21G26G27G31          0.000090010
  21442046.063 6   -103707.551 6    -57981.17248  21442045.27048
  20747190.328 7   -134959.887 7    -83098.09049  20747191.08249
  23068346.750 6   -135855.691 6    -73683.48049  23068347.05149
  23496081.109 5   -265461.230 5   -168622.10247  23496078.55947
  21500473.109 6    -59200.219 6    -31605.64148  21500470.42248
  25194234.414 3    -35672.199 3    -19166.74646  25194233.33646
  22901163.094 5    -54490.645 5    -26247.55947  22901165.23047
  20129177.617 7   -100859.336 7    -54291.11349  20129177.43049
  23499473.789 5    -33479.984 5    -21981.32047  23499473.02747
 20  5 16  1 38 54.0000000  0  9G04G08G09G11G16G21G26G27G31          0.000087898
  21441503.227 6   -106561.207 6    -60204.79748  21441502.05148
  20746258.570 7   -139857.895 7    -86914.71949  20746259.10249
  23067445.734 6   -140590.070 6    -77372.60549  23067446.07049
  23494796.367 5   -272206.621 5   -173878.24647  23494794.62147
  21500072.703 6    -61306.695 6    -33247.05148  21500069.66448
  25193968.953 2    -37064.586 2    -20251.71546  25193968.29346
  22900857.820 5    -56095.727 5    -27498.27047  22900859.28147
  20128650.641 7   -103629.230 7    -56449.48049  20128650.62949
  23499300.250 6    -34393.359 6    -22693.03547  23499299.35947
 20  5 16  1 38 55.0000000  0  9G04G08G09G11G16G21G26G27G31          0.000085785
  21440960.117 6   -109415.168 6    -62428.66448  21440958.90648
  20745326.391 7   -144756.281 7    -90731.63749  20745326.77049
  23066544.930 6   -145324.801 6    -81062.00849  23066545.20349
  23493512.883 5   -278952.895 5   -179135.08247  23493511.35947
  21499671.047 6    -63414.047 6    -34889.14548  21499668.67648
  25193704.445 2    -38457.496 2    -21337.09446  25193703.12546
  22900552.383 5    -57701.730 5    -28749.69947  22900554.07447
  20128123.383 7   -106399.457 7    -58608.09449  20128123.69149
  23499126.172 6    -35307.402 6    -23405.28147  23499125.48047
 20  5 16  1 38 56.0000000  0  9G04G08G09G11G16G21G26G27G31          0.000083673
  21440416.813 6   -112269.348 6    -64652.69948  21440415.91848
  20744393.961 7   -149654.906 7    -94548.75049  20744394.78549
  23065643.906 6   -150059.801 6    -84751.61349  23065644.26249
  23492228.938 5   -285699.867 5   -184392.47347  23492227.04347
  21499270.430 6    -65522.137 6    -36531.80948  21499268.05548
  25193439.141 2    -39850.840 2    -22422.80546  25193438.24246
  22900246.000 5    -59308.563 5    -30001.78147  22900248.21147
  20127596.055 7   -109169.883 7    -60766.86349  20127596.55149
  23498952.164 5    -36221.953 5    -24117.92247  23498951.13747
 20  5 16  1 38 57.0000000  0  9G04G08G09G11G16G21G26G27G31          0.000081556
  21439873.758 6   -115123.707 6    -66876.87948  21439872.77048
  20743461.789 7   -154553.828 7    -98366.09449  20743462.28149
  23064742.758 5   -154795.051 5    -88441.41849  23064742.95349
  23490945.461 6   -292447.566 6   -189650.41847  23490943.49647
  21498869.039 6    -67630.961 6    -38175.05148  21498866.39148
  25193174.813 2    -41244.582 2    -23508.84446  25193173.19546
  22899940.273 5    -60916.203 5    -31254.49247  22899942.14147
  20127068.781 7   -111940.512 7    -62925.79749  20127069.10249
  23498778.125 6    -37137.035 6    -24830.97347  23498776.97747
 20  5 16  1 38 58.0000000  0  9G04G08G09G11G16G21G26G27G31          0.000079445
  21439330.484 6   -117978.332 6    -69101.25848  21439329.75848
  20742529.406 7   -159453.039 7   -102183.66049  20742530.35949
  23063841.438 6   -159530.574 6    -92131.43449  23063842.10249
  23489661.305 6   -299196.043 6   -194908.97347  23489659.06647
  21498467.328 6    -69740.551 6    -39818.88748  21498465.21148
  25192908.664 3    -42638.777 3    -24595.25046  25192907.48846
  22899634.289 5    -62524.668 5    -32507.85247  22899636.17647
  20126541.570 7   -114711.375 7    -65084.91049  20126541.71549
  23498604.570 6    -38052.723 6    -25544.49247  23498602.73047
 20  5 16  1 38 59.0000000  0  9G04G08G09G11G16G21G26G27G31          0.000077328
  21438787.086 6   -120833.230 6    -71325.85948  21438785.75448
  20741596.977 7   -164352.582 7   -106001.48849  20741598.20349
  23062940.328 6   -164266.434 6    -95821.71549  23062940.74249
  23488376.570 6   -305945.320 6   -200168.14847  23488375.12547
  21498066.102 6    -71850.984 6    -41463.37948  21498063.69948
  25192644.391 3    -44033.512 3    -25682.05546  25192642.23446
  22899327.891 5    -64134.074 5    -33761.93047  22899330.06347
  20126014.414 7   -117482.520 7    -67244.25049  20126014.90249
  23498429.766 6    -38969.004 6    -26258.48447  23498428.16847
 20  5 16  1 39  0.0000000  0  9G04G08G09G11G16G21G26G27G31          0.000075214
  21438243.859 6   -123688.313 6    -73550.59848  21438242.94548
  20740664.789 7   -169252.367 7   -109819.50449  20740665.61349
  23062039.234 6   -169002.543 6    -99512.18849  23062039.75449
  23487092.094 6   -312695.293 6   -205427.86747  23487089.84847
  21497664.039 6    -73962.113 6    -43108.41448  21497661.88748
  25192378.719 3    -45428.637 3    -26769.16046  25192376.68846
  22899021.781 5    -65744.254 5    -35016.62147  22899023.56347
  20125487.266 7   -120253.859 7    -69403.74249  20125487.28949
  23498255.125 6    -39885.832 6    -26972.88747  23498253.56347
 20  5 16  1 39  1.0000000  0  9G04G08G09G11G16G21G26G27G31          0.000073097
  21437700.695 6   -126543.516 6    -75775.43848  21437699.64148
  20739732.211 7   -174152.332 7   -113637.65649  20739732.92249
  23061138.125 6   -173738.801 6   -103202.77749  23061138.32049
  23485807.945 6   -319445.949 6   -210688.12147  23485805.50047
  21497262.383 6    -76073.930 6    -44753.99648  21497259.78148
  25192112.641 3    -46824.125 3    -27856.54746  25192111.21146
  22898715.383 5    -67355.160 5    -36271.87547  22898717.18047
  20124959.672 7   -123025.320 7    -71563.32449  20124959.94149
  23498080.563 6    -40803.109 6    -27687.65247  23498079.25047
 20  5 16  1 39  2.0000000  0  9G04G08G09G11G16G21G26G27G31          0.000070982
  21437156.727 6   -129398.863 6    -78000.38348  21437156.47748
  20738799.773 7   -179052.500 7   -117455.96949  20738800.46949
  23060236.898 6   -178475.258 6   -106893.52749  23060236.68049
  23484523.367 6   -326197.234 6   -215948.85947  23484520.82047
  21496860.852 6    -78186.430 6    -46400.09448  21496857.85948
  25191847.375 3    -48219.918 3    -28944.18846  25191845.62146
  22898408.734 5    -68966.801 5    -37527.69947  22898410.36347
  20124432.016 7   -125796.902 7    -73722.99649  20124432.27349
  23497905.898 6    -41720.855 6    -28402.78547  23497904.46947
 20  5 16  1 39  3.0000000  0  9G04G08G09G11G16G21G26G27G31          0.000068865
  21436613.648 6   -132254.332 6    -80225.41848  21436612.98848
  20737867.219 7   -183952.844 7   -121274.41849  20737867.78549
  23059334.992 6   -183211.871 6   -110584.39549  23059335.84449
  23483238.258 6   -332949.184 6   -221210.12147  23483235.93847
  21496458.797 6    -80299.563 6    -48046.69548  21496455.75848
  25191581.680 3    -49616.078 3    -30032.10246  25191579.52046
  22898101.461 5    -70579.203 5    -38784.10947  22898103.66047
  20123904.578 7   -128568.617 7    -75882.77049  20123904.94949
  23497731.352 6    -42639.027 6    -29118.25047  23497729.90647
 20  5 16  1 39  4.0000000  0  9G04G08G09G11G16G21G26G27G31          0.000066750
  21436070.328 6   -135109.906 6    -82450.55148  21436069.35548
  20736934.672 7   -188853.363 7   -125093.00449  20736935.62549
  23058433.938 6   -187948.660 6   -114275.40649  23058434.26249
  23481953.031 6   -339701.777 6   -226471.88347  23481951.03947
  21496056.031 6    -82413.383 6    -49693.82448  21496053.34048
  25191315.578 3    -51012.559 3    -31120.26246  25191314.09446
  22897794.773 5    -72192.301 5    -40041.06647  22897796.74247
  20123377.281 7   -131340.457 7    -78042.65249  20123377.37949
  23497556.563 6    -43557.676 6    -29834.08247  23497555.05947
 20  5 16  1 39  5.0000000  0  9G04G08G09G11G16G21G26G27G31          0.000064629
  21435527.031 6   -137965.574 6    -84675.75048  21435525.96948
  20736002.195 7   -193754.020 7   -128911.70349  20736003.06649
  23057532.891 6   -192685.574 6   -117966.50449  23057533.05549
  23480668.313 6   -346454.973 6   -231734.11347  23480665.89847
  21495653.445 6    -84527.797 6    -51341.42648  21495650.88748
  25191049.617 3    -52409.320 3    -32208.66046  25191048.20346
  22897487.414 5    -73806.125 5    -41298.59847  22897489.66847
  20122849.867 7   -134112.367 7    -80202.57449  20122849.62949
  23497381.555 6    -44476.734 6    -30550.23047  23497379.98847
 20  5 16  1 39  6.0000000  0  9G04G08G09G11G16G21G26G27G31          0.000062513
  21434983.836 6   -140821.367 6    -86901.03948  21434982.70348
  20735069.500 7   -198654.828 7   -132730.51649  20735070.30549
  23056630.773 6   -197422.652 6   -121657.73449  23056631.27749
  23479382.711 6   -353208.813 6   -236996.84447  23479381.05147
  21495251.188 6    -86642.891 6    -52989.54748  21495248.75048
  25190783.609 3    -53806.457 3    -33297.33646  25190782.35546
  22897180.508 5    -75420.664 5    -42556.68847  22897182.11747
  20122322.391 7   -136884.422 7    -82362.62149  20122322.19949
  23497205.977 6    -45396.246 6    -31266.72347  23497205.10547
 20  5 16  1 39  7.0000000  0  9G04G08G09G11G16G21G26G27G31          0.000060392
  21434440.320 6   -143677.203 6    -89126.36348  21434439.11348
  20734136.742 7   -203555.746 7   -136549.41049  20734137.44949
  23055729.391 6   -202159.848 6   -125349.05549  23055729.64849
  23478097.852 6   -359963.277 6   -242260.07047  23478095.35947
  21494848.797 6    -88758.582 6    -54638.13748  21494846.19148
  25190518.141 3    -55203.855 3    -34386.21146  25190516.13746
  22896872.813 5    -77035.871 5    -43815.29347  22896875.41847
  20121794.594 7   -139656.504 7    -84522.68849  20121795.00849
  23497031.000 6    -46316.160 6    -31983.53547  23497030.12547
 20  5 16  1 39  8.0000000  0  9G04G08G09G11G16G21G26G27G31          0.000058275
  21433896.789 6   -146533.063 6    -91351.71148  21433895.83248
  20733204.336 6   -208456.777 6   -140368.39149  20733205.15249
  23054827.516 5   -206897.109 5   -129040.43049  23054828.41849
  23476812.008 6   -366718.250 6   -247523.67647  23476809.94147
  21494445.719 6    -90874.820 6    -56287.15248  21494442.95348
  25190251.742 3    -56601.508 3    -35475.28546  25190250.30946
  22896565.758 5    -78651.715 5    -45074.39147  22896567.53547
  20121267.125 7   -142428.637 7    -86682.78149  20121267.38749
  23496855.820 5    -47236.441 5    -32700.64147  23496854.69147
 20  5 16  1 39  9.0000000  0  9G04G08G09G11G16G21G26G27G31          0.000056154
  21433353.203 6   -149389.141 6    -93577.22748  21433352.38748
  20732271.695 7   -213358.063 7   -144187.57449  20732272.39849
  23053926.500 6   -211634.629 6   -132732.00049  23053926.87949
  23475526.148 6   -373473.953 6   -252787.85547  23475524.46547
  21494043.219 6    -92991.813 6    -57936.76248  21494040.30548
  25189986.039 3    -57999.520 3    -36564.65646  25189984.47746
  22896257.742 5    -80268.371 5    -46334.12147  22896260.20747
  20120739.844 7   -145200.953 7    -88843.03549  20120740.01649
  23496680.883 6    -48157.238 6    -33418.14147  23496679.18047
 20  5 16  1 39 10.0000000  0  9G04G08G09G11G16G21G26G27G31          0.000054037
  21432809.219 6   -152245.270 6    -95802.77348  21432808.44148
  20731338.875 6   -218259.473 6   -148006.84849  20731339.66049
  23053024.703 5   -216372.246 5   -136423.64549  23053025.41049
  23474241.023 6   -380230.262 6   -258052.51647  23474238.65647
  21493640.305 6    -95109.426 6    -59586.84048  21493637.78948
  25189719.141 3    -59397.863 3    -37654.29346  25189717.98446
  22895949.773 5    -81885.691 5    -47594.37147  22895952.36347
  20120212.055 7   -147973.348 7    -91003.34049  20120211.99649
  23496506.148 6    -49078.453 6    -34135.96947  23496504.28947
 20  5 16  1 39 11.0000000  0  9G04G08G09G11G16G21G26G27G31          0.000051914
  21432266.398 6   -155101.410 6    -98028.34048  21432265.44948
  20730406.070 7   -223160.922 7   -151826.16049  20730406.94149
  23052123.234 5   -221109.902 5   -140115.32849  23052123.58649
  23472955.336 6   -386987.074 6   -263317.56647  23472953.40647
  21493237.141 6    -97227.527 6    -61237.31648  21493234.36748
  25189453.656 2    -60796.441 2    -38744.09846  25189451.86746
  22895641.961 5    -83503.609 5    -48855.08647  22895644.37147
  20119684.375 7   -150745.730 7    -93163.63749  20119684.56649
  23496330.383 6    -49999.969 6    -34854.03947  23496328.75447
 20  5 16  1 39 12.0000000  0  9G04G08G09G11G16G21G26G27G31          0.000049795
  21431722.359 6   -157957.492 6   -100253.86748  21431721.58648
  20729473.398 6   -228062.348 6   -155645.45749  20729474.16449
  23051221.438 5   -225847.547 5   -143807.00049  23051222.10549
  23471669.320 6   -393744.348 6   -268582.97347  23471667.22747
  21492834.047 6    -99346.148 6    -62888.18848  21492831.62948
  25189187.797 3    -62195.152 3    -39834.01246  25189185.88746
  22895334.227 5    -85122.094 5    -50116.24247  22895336.26247
  20119157.078 7   -153518.059 7    -95323.89849  20119157.14849
  23496154.586 6    -50921.793 6    -35572.35247  23496153.14147
 20  5 16  1 39 13.0000000  0  9G04G08G09G11G16G21G26G27G31          0.000047672
  21431179.055 6   -160813.508 6   -102479.33248  21431178.21948
  20728540.719 7   -232963.801 7   -159464.77349  20728541.28949
  23050319.898 5   -230585.203 5   -147498.68849  23050320.88749
  23470383.359 6   -400502.113 6   -273848.75847  23470381.70347
  21492430.602 6   -101465.238 6    -64539.43048  21492428.14848
  25188921.695 3    -63594.020 3    -40924.03546  25188919.65646
  22895026.063 5    -86741.121 5    -51377.81647  22895027.91447
  20118629.617 7   -156290.340 7    -97484.11349  20118629.45749
  23495978.930 6    -51843.895 6    -36290.87147  23495977.72347
 20  5 16  1 39 14.0000000  0  9G04G08G09G11G16G21G26G27G31          0.000045553
  21430635.758 6   -163669.500 6   -104704.77748  21430634.84848
  20727608.258 7   -237865.258 7   -163284.09449  20727608.76249
  23049418.758 5   -235322.867 5   -151190.36749  23049418.71549
  23469097.109 6   -407260.332 6   -279114.91047  23469095.51247
  21492027.422 6   -103584.844 6    -66191.06648  21492024.68048
  25188655.781 3    -64993.121 3    -42014.25046  25188653.27346
  22894718.242 5    -88360.730 5    -52639.84847  22894720.05147
  20118101.836 7   -159062.559 7    -99644.29349  20118102.00849
  23495803.727 5    -52766.285 5    -37009.61747  23495802.23847
 20  5 16  1 39 15.0000000  0  9G04G08G09G11G16G21G26G27G31          0.000043428
  21430092.063 6   -166525.500 6   -106930.23048  21430091.35548
  20726675.453 7   -242766.809 7   -167103.47749  20726675.93449
  23048517.789 5   -240060.547 5   -154882.07049  23048517.34049
  23467811.281 6   -414019.109 6   -284381.48847  23467809.23447
  21491623.820 6   -105704.992 6    -67843.13748  21491621.05948
  25188388.859 3    -66392.375 3    -43104.57046  25188387.39546
  22894409.531 5    -89980.969 5    -53902.37947  22894411.93047
  20117574.438 7   -161834.809 7   -101804.48449  20117574.71949
  23495628.094 5    -53688.984 5    -37728.60547  23495626.78947
 20  5 16  1 39 16.0000000  0  9G04G08G09G11G16G21G26G27G31          0.000041309
  21429548.383 6   -169381.473 6   -109155.66048  21429547.68448
  20725742.734 7   -247668.371 7   -170922.87949  20725743.24249
  23047615.367 5   -244798.293 5   -158573.82049  23047615.69949
  23466525.133 6   -420778.398 6   -289648.46947  23466523.32847
  21491221.023 6   -107825.684 6    -69495.62548  21491217.75448
  25188123.039 3    -67791.879 3    -44195.08646  25188121.04346
  22894101.523 5    -91601.781 5    -55165.35547  22894103.44147
  20117046.758 7   -164607.055 7   -103964.67649  20117047.07449
  23495452.055 5    -54612.063 5    -38447.87947  23495450.87947
 20  5 16  1 39 17.0000000  0  9G04G08G09G11G16G21G26G27G31          0.000039185
  21429005.055 6   -172237.328 6   -111381.01248  21429004.34848
  20724810.070 7   -252569.895 7   -174742.23849  20724810.61749
  23046714.211 5   -249535.984 5   -162265.52349  23046714.31649
  23465238.648 6   -427538.063 6   -294915.73847  23465236.84047
  21490816.836 6   -109946.754 6    -71148.40248  21490814.37148
  25187856.602 3    -69191.461 3    -45285.66046  25187854.60546
  22893793.078 5    -93223.102 5    -56428.73047  22893794.91047
  20116519.375 7   -167379.156 7   -106124.75049  20116519.74249
  23495277.078 5    -55535.328 5    -39167.30547  23495275.39547
 20  5 16  1 39 18.0000000  0  9G04G08G09G11G16G21G26G27G31          0.000037064
  21428461.453 6   -175093.117 6   -113606.30148  21428460.92648
  20723877.602 7   -257471.414 7   -178561.60949  20723877.82849
  23045812.688 5   -254273.617 5   -165957.18849  23045812.94949
  23463952.375 6   -434298.199 6   -300183.37547  23463950.39847
  21490412.852 6   -112068.320 6    -72801.57448  21490410.57448
  25187590.109 3    -70591.191 3    -46376.34846  25187588.22346
  22893484.461 5    -94844.953 5    -57692.50447  22893486.12147
  20115991.938 7   -170151.184 7   -108284.77349  20115991.68449
  23495100.516 5    -56458.840 5    -39886.92647  23495099.75047
 20  5 16  1 39 19.0000000  0  9G04G08G09G11G16G21G26G27G31          0.000034939
  21427918.250 6   -177948.852 6   -115831.55148  21427917.48048
  20722944.570 7   -262372.910 7   -182380.95749  20722945.39149
  23044911.125 6   -259011.262 6   -169648.85549  23044911.22349
  23462665.758 6   -441058.820 6   -305451.39547  23462663.80147
  21490009.398 6   -114190.375 6    -74455.12148  21490006.73048
  25187323.547 3    -71991.098 3    -47467.19146  25187321.80146
  22893175.188 5    -96467.367 5    -58956.72747  22893177.61347
  20115464.516 7   -172923.195 7   -110444.78549  20115464.60549
  23494924.711 5    -57382.668 5    -40606.80147  23494923.66447
 20  5 16  1 39 20.0000000  0  9G04G08G09G11G16G21G26G27G31          0.000032818
  21427374.758 6   -180804.535 6   -118056.75848  21427374.30548
  20722011.688 7   -267274.426 7   -186200.31349  20722012.35249
  23044009.117 5   -263748.906 5   -173340.52749  23044009.81649
  23461379.266 6   -447819.914 6   -310719.78547  23461376.99247
  21489605.617 6   -116312.910 6    -76109.04748  21489602.76248
  25187057.078 3    -73391.191 3    -48558.18046  25187055.16046
  22892866.586 5    -98090.332 5    -60221.38747  22892868.73847
  20114936.828 7   -175695.109 7   -112604.71949  20114937.01649
  23494749.047 5    -58306.762 5    -41326.87547  23494747.85247
 20  5 16  1 39 21.0000000  0  9G04G08G09G11G16G21G26G27G31          0.000030691
  21426831.398 6   -183660.238 6   -120281.98048  21426830.71148
  20721079.211 7   -272176.008 7   -190019.73049  20721079.77049
  23043107.734 5   -268486.590 5   -177032.22349  23043108.10949
  23460092.445 6   -454581.527 6   -315988.57847  23460090.75047
  21489201.273 6   -118435.969 6    -77763.37948  21489198.65648
  25186791.070 3    -74791.445 3    -49649.28946  25186789.01246
  22892557.203 5    -99713.898 5    -61486.50047  22892559.18847
  20114409.523 7   -178467.059 7   -114764.68049  20114409.47349
  23494572.836 5    -59231.203 5    -42047.22347  23494571.74247
 20  5 16  1 39 22.0000000  0  9G04G08G09G11G16G21G26G27G31          0.000028570
  21426288.359 6   -186515.816 6   -122507.10548  21426287.64548
  20720146.195 7   -277077.516 7   -193839.08649  20720146.96549
  23042206.492 5   -273224.219 5   -180723.87949  23042206.44549
  23458805.672 6   -461343.543 6   -321257.67247  23458803.73047
  21488797.313 6   -120559.496 6    -79418.07048  21488794.68448
  25186524.438 3    -76191.867 3    -50740.50046  25186522.51246
  22892248.852 5   -101337.992 5    -62752.03147  22892250.55947
  20113881.914 7   -181238.898 7   -116924.55549  20113882.26649
  23494397.180 5    -60155.863 5    -42767.73047  23494395.95347
 20  5 16  1 39 23.0000000  0  9G04G08G09G11G16G21G26G27G31          0.000026443
  21425744.820 6   -189371.328 6   -124732.18448  21425743.93048
  20719213.367 7   -281979.016 7   -197658.43849  20719214.25449
  23041304.508 5   -277961.832 5   -184415.53149  23041304.97349
  23457518.875 6   -468106.023 6   -326527.13747  23457516.89147
  21488392.898 6   -122683.441 6    -81073.10248  21488389.92648
  25186257.906 3    -77592.375 3    -51831.81346  25186256.29346
  22891939.461 5   -102962.582 5    -64017.95347  22891941.18047
  20113354.516 7   -184010.664 7   -119084.37149  20113354.44549
  23494221.070 5    -61080.801 5    -43488.46947  23494219.87547
 20  5 16  1 39 24.0000000  0  9G04G08G09G11G16G21G26G27G31          0.000024321
  21425201.523 6   -192226.773 6   -126957.20748  21425200.43048
  20718280.781 7   -286880.500 7   -201477.78149  20718281.62949
  23040403.672 5   -282699.425 5   -188107.16049  23040403.40249
  23456231.891 6   -474868.941 6   -331796.94547  23456230.19547
  21487988.672 6   -124807.914 6    -82728.53548  21487986.16048
  25185990.898 3    -78993.055 3    -52923.26646  25185989.58646
  22891630.672 5   -104587.750 5    -65284.32047  22891632.00047
  20112827.148 7   -186782.379 7   -121244.14849  20112827.29749
  23494045.148 5    -62005.961 5    -44209.37147  23494044.48047
 20  5 16  1 39 25.0000000  0  9G04G08G09G11G16G21G26G27G31          0.000022192
  21424658.219 6   -195082.254 6   -129182.25848  21424657.07448
  20717348.211 7   -291782.031 7   -205297.15649  20717349.03549
  23039501.664 6   -287437.059 6   -191798.82449  23039502.06349
  23454944.320 6   -481632.398 6   -337067.17247  23454943.00847
  21487584.352 6   -126932.926 6    -84384.39148  21487581.54348
  25185724.289 3    -80393.992 3    -54014.89546  25185722.99646
  22891321.273 5   -106213.543 5    -66551.16847  22891322.52047
  20112299.555 7   -189554.086 7   -123403.92649  20112299.73049
  23493869.398 5    -62931.496 5    -44930.56647  23493868.23847
 20  5 16  1 39 26.0000000  0  9G04G08G09G11G16G21G26G27G31          0.000020069
  21424114.305 6   -197937.570 6   -131407.18048  21424113.73848
  20716415.320 7   -296683.492 7   -209116.48449  20716416.18449
  23038599.984 5   -292174.582 5   -195490.40649  23038600.62949
  23453657.023 6   -488396.246 6   -342337.69947  23453655.71947
  21487179.859 6   -129058.332 6    -86040.54748  21487177.34048
  25185457.977 3    -81795.004 3    -55106.60546  25185456.39546
  22891011.820 5   -107839.793 5    -67818.37147  22891012.92647
  20111772.047 7   -192325.660 7   -125563.59049  20111772.41049
  23493693.219 5    -63857.234 5    -45651.91847  23493691.85947
 20  5 16  1 39 27.0000000  0  9G04G08G09G11G16G21G26G27G31          0.000017941
  21423571.242 6   -200792.816 6   -133632.04748  21423570.39148
  20715482.914 7   -301584.934 7   -212935.78549  20715483.48449
  23037698.859 5   -296912.102 5   -199181.98449  23037698.91049
  23452370.109 6   -495160.555 6   -347608.59847  23452368.84447
  21486775.555 6   -131184.184 6    -87697.05948  21486772.68848
  25185190.969 2    -83196.086 2    -56198.35546  25185189.94546
  22890702.039 5   -109466.613 5    -69086.02747  22890703.78947
  20111244.781 7   -195097.156 7   -127723.19949  20111244.68449
  23493516.742 5    -64783.246 5    -46373.48847  23493515.45347
 20  5 16  1 39 28.0000000  0  9G04G08G09G11G16G21G26G27G31          0.000015818
  21423027.727 6   -203648.004 6   -135856.87148  21423026.86748
  20714550.094 7   -306486.391 7   -216755.09849  20714551.01649
  23036797.141 6   -301649.594 6   -202873.53549  23036797.46149
  23451082.367 5   -501925.332 5   -352879.85247  23451081.86347
  21486370.633 6   -133310.551 6    -89353.96148  21486368.04348
  25184925.039 3    -84597.383 3    -57290.27746  25184923.09846
  22890391.953 5   -111093.953 5    -70354.08647  22890394.00847
  20110717.492 7   -197868.617 7   -129882.77749  20110717.52749
  23493340.586 5    -65709.512 5    -47095.25047  23493339.35547
 20  5 16  1 39 29.0000000  0  9G04G08G09G11G16G21G26G27G31          0.000013687
  21422484.484 6   -206503.277 6   -138081.75848  21422483.97348
  20713617.008 7   -311387.957 7   -220574.49649  20713618.21949
  23035895.656 5   -306387.219 5   -206565.19149  23035895.98449
  23449795.359 5   -508690.680 5   -358151.54347  23449793.91047
  21485965.938 6   -135437.504 6    -91011.33648  21485963.40248
  25184657.758 3    -85998.980 3    -58382.43046  25184656.68846
  22890082.313 5   -112721.988 5    -71622.68447  22890084.53147
  20110189.797 7   -200640.133 7   -132042.39549  20110190.02049
  23493164.336 5    -66636.164 5    -47817.32447  23493162.96947
 20  5 16  1 39 30.0000000  0  9G04G08G09G11G16G21G26G27G31          0.000011564
  21421941.547 6   -209358.316 6   -140306.45748  21421940.81648
  20712684.828 7   -316289.344 7   -224393.76249  20712685.51249
  23034994.367 5   -311124.703 5   -210256.73449  23034994.16449
  23448508.133 5   -515456.363 5   -363423.49647  23448506.52047
  21485561.617 6   -137564.781 6    -92668.94948  21485558.40648
  25184391.203 2    -87400.523 2    -59474.55546  25184389.99246
  22889772.508 5   -114350.379 5    -72891.55147  22889774.55947
  20109662.344 7   -203411.406 7   -134201.83649  20109662.82449
  23492987.961 5    -67562.934 5    -48539.48847  23492986.69147
 20  5 16  1 39 31.0000000  0  9G04G08G09G11G16G21G26G27G31          0.000009434
  21421398.117 6   -212213.164 6   -142531.02048  21421397.21148
  20711751.867 7   -321190.621 7   -228212.94149  20711752.56349
  23034092.266 6   -315862.023 6   -213948.15649  23034093.05949
  23447220.188 6   -522222.359 6   -368695.69547  23447219.11747
  21485156.383 6   -139692.422 6    -94326.85548  21485153.70748
  25184125.102 2    -88802.215 2    -60566.79746  25184123.01246
  22889462.211 5   -115979.242 5    -74160.80147  22889464.34847
  20109135.180 7   -206182.555 7   -136361.17249  20109135.56349
  23492811.695 5    -68489.906 5    -49261.80947  23492810.26247
 20  5 16  1 39 32.0000000  0  9G04G08G09G11G16G21G26G27G31          0.000007309
  21420854.922 6   -215067.945 6   -144755.52348  21420854.07848
  20710819.148 7   -326091.840 7   -232032.06349  20710820.14849
  23033191.313 5   -320599.262 5   -217639.50849  23033191.57449
  23445932.781 5   -528988.789 5   -373968.24247  23445931.38347
  21484751.383 6   -141820.492 6    -95985.09448  21484749.03148
  25183857.586 3    -90203.910 3    -61659.02346  25183856.21946
  22889152.406 5   -117608.570 5    -75430.40647  22889154.30547
  20108608.039 7   -208953.578 7   -138520.40249  20108607.92249
  23492635.180 5    -69417.070 5    -49984.27347  23492633.96547
 20  5 16  1 39 33.0000000  0  9G04G08G09G11G16G21G26G27G31          0.000005178
  21420311.555 6   -217922.672 6   -146979.98448  21420310.62148
  20709886.523 7   -330993.102 7   -235851.23449  20709887.10549
  23032289.383 5   -325336.566 5   -221330.91449  23032289.85549
  23444644.953 6   -535755.684 6   -379241.14147  23444643.37947
  21484346.313 6   -143949.078 6    -97643.73448  21484343.77048
  25183591.258 2    -91605.875 2    -62751.44946  25183590.10246
  22888842.313 5   -119238.492 5    -76700.47747  22888843.98847
  20108080.672 7   -211724.563 7   -140679.61349  20108080.80949
  23492458.391 5    -70344.570 5    -50707.00047  23492457.91447
 20  5 16  1 39 34.0000000  0  9G04G08G09G11G16G21G26G27G31          0.000003052
  21419768.375 6   -220777.262 6   -149204.33648  21419767.93448
  20708953.969 7   -335894.273 7   -239670.32849  20708954.73049
  23031387.969 5   -330073.711 5   -225022.19949  23031388.56349
  23443357.352 5   -542522.984 5   -384514.36347  23443355.70347
  21483941.070 6   -146078.063 6    -99302.68048  21483938.81648
  25183324.148 3    -93007.832 3    -63843.87946  25183322.93846
  22888532.188 5   -120868.883 5    -77970.91047  22888533.78947
  20107553.789 7   -214495.410 7   -142838.71949  20107553.38349
  23492282.250 5    -71272.230 5    -51429.85547  23492280.96547
 20  5 16  1 39 35.0000000  0  9G04G08G09G11G16G21G26G27G31          0.000000921
  21419225.484 6   -223631.813 6   -151428.66448  21419224.59048
  20708021.188 7   -340795.469 7   -243489.44549  20708022.00849
  23030486.344 5   -334810.906 5   -228713.51649  23030487.02749
  23442069.586 5   -549290.785 5   -389787.97347  23442067.89147
  21483536.148 6   -148207.535 6   -100962.01648  21483533.59848
  25183057.719 3    -94410.051 3    -64936.51246  25183055.90246
  22888221.375 5   -122499.875 5    -79241.81647  22888223.78547
  20107026.297 7   -217266.230 7   -144997.80149  20107026.43049
  23492105.391 5    -72200.207 5    -52152.95347  23492104.52747
 20  5 16  1 39 36.0000000  0  9G04G08G09G11G16G21G26G27G31         -0.000001205
  21418682.039 6   -226486.281 6   -153652.92248  21418681.09848
  20707088.617 7   -345696.625 7   -247308.53149  20707089.12549
  23029585.227 5   -339548.055 5   -232404.80149  23029585.78949
  23440781.125 5   -556058.965 5   -395061.88347  23440779.72347
  21483130.594 6   -150337.488 6   -102621.71548  21483128.16448
  25182790.789 2    -95812.352 2    -66029.21146  25182789.32446
  22887910.641 5   -124131.348 5    -80513.08647  22887913.13347
  20106498.906 7   -220036.961 7   -147156.80949  20106498.85949
  23491928.984 5    -73128.426 5    -52876.23847  23491927.95347
 20  5 16  1 39 37.0000000  0  9G04G08G09G11G16G21G26G27G31         -0.000003336
  21418138.836 6   -229340.660 6   -155877.12548  21418137.84048
  20706156.039 7   -350597.754 7   -251127.59049  20706156.76249
  23028683.367 5   -344285.152 5   -236096.04749  23028683.84049
  23439493.602 5   -562827.621 5   -400336.16047  23439492.27747
  21482725.148 6   -152467.867 6   -104281.75848  21482722.40648
  25182524.438 2    -97214.797 2    -67122.02046  25182522.40246
  22887600.414 5   -125763.359 5    -81784.78547  22887602.46547
  20105971.570 7   -222807.590 7   -149315.74249  20105971.53949
  23491752.250 5    -74056.879 5    -53599.71947  23491751.19147
 20  5 16  1 39 38.0000000  0  9G04G08G09G11G16G21G26G27G31         -0.000005465
  21417595.813 6   -232194.965 6   -158101.26248  21417595.10548
  20705223.547 7   -355498.875 7   -254946.64849  20705224.14849
  23027782.117 5   -349022.254 5   -239787.29749  23027783.04349
  23438205.375 6   -569596.707 6   -405610.76647  23438203.78147
  21482319.359 6   -154598.719 6   -105942.15648  21482316.94548
  25182257.414 3    -98617.391 3    -68214.93046  25182255.55946
  22887290.078 5   -127395.902 5    -83056.90247  22887291.75847
  20105444.648 7   -225578.148 7   -151474.62549  20105444.51249
  23491575.406 5    -74985.621 5    -54323.41847  23491574.62947
 20  5 16  1 39 39.0000000  0  9G04G08G09G11G16G21G26G27G31         -0.000007595
  21417052.617 6   -235049.000 6   -160325.18448  21417051.63748
  20704290.844 7   -360399.734 7   -258765.49649  20704291.37949
  23026880.641 5   -353759.066 5   -243478.32049  23026881.35949
  23436917.258 6   -576366.031 6   -410885.55947  23436915.66047
  21481914.063 6   -156729.824 6   -107602.75848  21481911.65248
  25181989.461 3   -100019.902 3    -69307.80946  25181988.57446
  22886978.789 5   -129028.785 5    -84329.28147  22886980.99247
  20104917.414 7   -228348.441 7   -153633.28949  20104917.44149
  23491398.961 5    -75914.371 5    -55047.12547  23491398.15647
 20  5 16  1 39 40.0000000  0  9G04G08G09G11G16G21G26G27G31         -0.000009724
  21416509.203 6   -237902.992 6   -162549.07448  21416508.46148
  20703358.234 7   -365300.645 7   -262584.39149  20703358.80149
  23025979.688 6   -358495.926 6   -247169.37949  23025979.78149
  23435628.836 6   -583135.875 6   -416160.75047  23435627.21147
  21481509.313 6   -158861.453 6   -109263.76648  21481506.02048
  25181723.453 3   -101422.578 3    -70400.79346  25181721.76246
  22886667.523 5   -130662.227 5    -85602.08247  22886670.31347
  20104390.313 7   -231118.688 7   -155791.92649  20104390.23849
  23491222.570 5    -76843.453 5    -55771.08647  23491221.14847
 20  5 16  1 39 41.0000000  0  9G04G08G09G11G16G21G26G27G31         -0.000011856
  21415966.844 6   -240756.820 6   -164772.83648  21415965.89848
  20702425.078 7   -370201.410 7   -266403.16449  20702426.39149
  23025078.031 6   -363232.645 6   -250860.32449  23025078.72749
  23434340.703 6   -589906.023 6   -421436.19547  23434338.73047
  21481103.086 6   -160993.414 6   -110925.03948  21481100.46548
  25181456.406 3   -102825.316 3    -71493.84446  25181454.61746
  22886357.125 5   -132296.094 5    -86875.22747  22886359.38347
  20103863.398 7   -233888.770 7   -157950.43449  20103862.96149
  23491045.375 6    -77772.672 6    -56495.15247  23491044.11347
 20  5 16  1 39 42.0000000  0  9G04G08G09G11G16G21G26G27G31         -0.000013985
  21415423.438 6   -243610.410 6   -166996.41048  21415422.58648
  20701492.750 7   -375102.000 7   -270221.80949  20701493.59449
  23024177.234 6   -367969.191 6   -254551.14149  23024177.33249
  23433052.266 5   -596676.461 5   -426711.86347  23433050.77747
  21480697.172 6   -163125.703 6   -112586.56348  21480694.52048
  25181188.656 3   -104228.074 3    -72586.90646  25181187.68846
  22886046.117 5   -133930.367 5    -88148.69147  22886048.76247
  20103335.867 7   -236658.645 7   -160108.77049  20103336.00849
  23490869.109 6    -78702.047 6    -57219.33647  23490867.68047
 20  5 16  1 39 43.0000000  0  9G04G08G09G11G16G21G26G27G31         -0.000016117
  21414880.578 6   -246463.844 6   -169219.87548  21414879.33248
  20700560.484 7   -380002.523 7   -274040.39849  20700561.19149
  23023276.414 6   -372705.645 6   -258241.89149  23023276.14149
  23431764.023 5   -603447.293 5   -431987.83647  23431762.44547
  21480291.047 6   -165258.383 6   -114248.38748  21480288.44148
  25180921.727 3   -105630.859 3    -73680.00046  25180920.28146
  22885735.188 5   -135565.086 5    -89422.50447  22885737.53547
  20102808.867 7   -239428.332 7   -162266.97349  20102809.12949
  23490691.984 5    -79631.555 5    -57943.62947  23490690.77047
 20  5 16  1 39 44.0000000  0  9G04G08G09G11G16G21G26G27G31         -0.000018248
  21414337.234 6   -249317.184 6   -171443.25448  21414336.75448
  20699627.914 7   -384902.973 7   -277858.92649  20699628.37549
  23022374.516 6   -377442.027 6   -261932.57449  23022374.76649
  23430475.313 6   -610218.559 6   -437264.14547  23430473.41047
  21479885.313 6   -167391.520 6   -115910.57448  21479882.70748
  25180655.383 3   -107033.785 3    -74773.19146  25180653.19146
  22885424.195 5   -137200.309 5    -90696.71547  22885426.37147
  20102281.922 7   -242197.961 7   -164425.12549  20102282.16049
  23490515.016 6    -80561.316 6    -58668.11747  23490513.94947
 20  5 16  1 39 45.0000000  0  9G04G08G09G11G16G21G26G27G31         -0.000020380
  21413794.484 6   -252170.410 6   -173666.54748  21413793.55148
  20698695.367 7   -389803.320 7   -281677.37949  20698696.34449
  23021472.859 6   -382178.313 6   -265623.18449  23021473.68449
  23429186.789 6   -616990.145 6   -442540.70747  23429184.88347
  21479479.273 6   -169525.020 6   -117573.03948  21479476.53148
  25180388.633 3   -108436.805 3    -75866.45746  25180386.59846
  22885113.195 5   -138835.996 5    -91971.27747  22885114.69147
  20101754.922 7   -244967.410 7   -166583.13749  20101755.04749
  23490337.734 6    -81491.266 6    -59392.75847  23490336.49247
 20  5 16  1 39 46.0000000  0  9G04G08G09G11G16G21G26G27G31         -0.000022511
  21413251.523 6   -255023.367 6   -175889.63348  21413250.76248
  20697762.750 7   -394703.488 7   -285495.69149  20697763.33249
  23020571.609 6   -386914.398 6   -269313.64549  23020572.25849
  23427898.094 6   -623762.070 6   -447817.53147  23427896.53947
  21479073.031 6   -171658.820 6   -119235.74248  21479070.65248
  25180121.734 3   -109839.703 3    -76959.62546  25180119.86346
  22884801.586 5   -140472.086 5    -93246.14547  22884803.81647
  20101228.063 7   -247736.637 7   -168740.97749  20101227.93449
  23490160.836 6    -82421.316 6    -60117.47747  23490159.65647
 20  5 16  1 39 47.0000000  0  9G04G08G09G11G16G21G26G27G31         -0.000024645
  21412708.313 6   -257876.184 6   -178112.60248  21412707.65248
  20696830.453 7   -399603.570 7   -289313.93849  20696830.90649
  23019670.398 6   -391650.383 6   -273004.02349  23019671.03549
  23426609.234 6   -630534.352 6   -453094.63347  23426607.41447
  21478666.953 6   -173793.039 6   -120898.77048  21478664.19148
  25179854.000 3   -111242.797 3    -78052.94946  25179852.28546
  22884490.875 5   -142108.609 5    -94521.35947  22884492.22747
  20100701.117 7   -250505.734 7   -170898.71549  20100701.02749
  23489983.656 6    -83351.590 6    -60842.37147  23489982.64147
 20  5 16  1 39 48.0000000  0  9G04G08G09G11G16G21G26G27G31         -0.000026775
  21412166.031 6   -260728.848 6   -180335.45748  21412164.93048
  20695898.063 7   -404503.535 7   -293132.09449  20695898.84049
  23018769.336 6   -396386.250 6   -276694.30549  23018769.77049
  23425320.102 6   -637306.961 6   -458371.99247  23425318.66847
  21478261.047 6   -175927.609 6   -122562.07048  21478258.46148
  25179587.039 3   -112645.875 3    -79146.26246  25179585.36346
  22884179.445 5   -143745.551 5    -95796.90647  22884180.96947
  20100174.094 7   -253274.641 7   -173056.30949  20100174.22349
  23489806.680 6    -84281.984 6    -61567.35547  23489805.75447
 20  5 16  1 39 49.0000000  0  9G04G08G09G11G16G21G26G27G31         -0.000028910
  21411623.102 6   -263581.320 6   -182558.16048  21411622.32848
  20694965.461 7   -409403.406 7   -296950.17649  20694966.29749
  23017868.500 6   -401122.000 6   -280384.50449  23017868.65649
  23424031.789 5   -644079.949 5   -463649.64547  23424029.85547
  21477855.094 6   -178062.535 6   -124225.64848  21477852.16448
  25179320.008 3   -114049.035 3    -80239.62946  25179318.65246
  22883867.555 5   -145382.973 5    -97072.82047  22883869.25447
  20099647.039 7   -256043.410 7   -175213.78949  20099647.31349
  23489629.133 6    -85212.559 6    -62292.48047  23489628.71547
 20  5 16  1 39 50.0000000  0  9G04G08G09G11G16G21G26G27G31         -0.000031040
  21411080.344 6   -266433.781 6   -184780.86348  21411079.36748
  20694033.008 7   -414303.297 7   -300768.27349  20694033.72749
  23016967.008 6   -405857.746 6   -284074.70349  23016967.52049
  23422742.289 5   -650853.410 5   -468927.66447  23422741.23847
  21477448.414 6   -180198.016 6   -125889.66448  21477445.88348
  25179052.781 3   -115452.383 3    -81333.13746  25179051.83646
  22883555.758 5   -147020.961 5    -98349.18047  22883557.32047
  20099120.227 7   -258812.113 7   -177371.22749  20099120.39549
  23489452.344 6    -86143.434 6    -63017.84447  23489451.44147
 20  5 16  1 39 51.0000000  0  9G04G08G09G11G16G21G26G27G31         -0.000033176
  21410537.648 6   -269286.063 6   -187003.41848  21410536.27048
  20693100.531 7   -419203.074 7   -304586.27749  20693101.31349
  23016065.531 5   -410593.348 5   -287764.78949  23016066.38349
  23421453.273 6   -657627.203 6   -474205.94547  23421451.86747
  21477041.773 6   -182333.844 6   -127553.95348  21477039.26248
  25178786.000 3   -116855.727 3    -82426.63346  25178784.69146
  22883243.539 5   -148659.359 5    -99625.85947  22883245.55147
  20098593.242 7   -261580.672 7   -179528.54349  20098593.50049
  23489274.906 6    -87074.457 6    -63743.32047  23489274.27047
 20  5 16  1 39 52.0000000  0  9G04G08G09G11G16G21G26G27G31         -0.000035307
  21409994.914 6   -272138.176 6   -189225.84848  21409993.85548
  20692168.289 7   -424102.727 7   -308404.18849  20692169.53549
  23015164.070 5   -415328.852 5   -291454.79349  23015164.83649
  23420164.734 5   -664401.391 5   -479484.53547  23420162.58647
  21476635.531 6   -184470.031 6   -129218.51648  21476632.96948
  25178519.219 3   -118259.172 3    -83520.23446  25178517.66846
  22882931.953 5   -150298.227 5   -100902.89847  22882933.78947
  20098066.570 7   -264349.070 7   -181685.73049  20098066.46949
  23489097.828 5    -88005.684 5    -64468.95347  23489097.43047
 20  5 16  1 39 53.0000000  0  9G04G08G09G11G16G21G26G27G31         -0.000037443
  21409452.078 6   -274990.059 6   -191448.09448  21409451.20348
  20691235.664 7   -429002.195 7   -312221.95749  20691236.72749
  23014263.523 5   -420064.176 5   -295144.65249  23014263.89849
  23418875.672 6   -671175.840 6   -484763.32447  23418873.55947
  21476228.781 6   -186606.539 6   -130883.32848  21476226.09848
  25178252.531 3   -119662.605 3    -84613.82446  25178250.47346
  22882620.000 5   -151937.488 5   -102180.24647  22882621.57047
  20097539.867 7   -267117.223 7   -183842.73449  20097539.68849
  23488920.516 6    -88936.980 6    -65194.64547  23488920.43047
 20  5 16  1 39 54.0000000  0  9G04G08G09G11G16G21G26G27G31         -0.000039576
  21408909.773 6   -277841.660 6   -193670.11348  21408908.87948
  20690303.805 7   -433901.422 7   -316039.53949  20690304.42649
  23013362.594 5   -424799.227 5   -298834.30549  23013363.24249
  23417586.383 6   -677950.520 6   -490042.29747  23417584.32047
  21475822.188 6   -188743.297 6   -132548.33248  21475819.70348
  25177985.297 3   -121065.977 3    -85707.36746  25177983.55946
  22882308.078 5   -153577.012 5   -103457.79347  22882310.09047
  20097013.297 7   -269885.078 7   -185999.50049  20097013.23849
  23488743.523 5    -89868.320 5    -65920.36347  23488742.70347
 20  5 16  1 39 55.0000000  0  9G04G08G09G11G16G21G26G27G31         -0.000041712
  21408366.859 6   -280693.098 6   -195892.01648  21408365.77048
  20689371.523 7   -438800.555 7   -319857.03949  20689372.44549
  23012461.289 5   -429534.176 5   -302523.86749  23012461.69949
  23416297.258 6   -684725.563 6   -495321.54747  23416295.02347
  21475415.836 6   -190880.410 6   -134213.60548  21475413.49248
  25177718.164 3   -122469.359 3    -86800.91046  25177716.56646
  22881995.609 5   -155216.984 5   -104735.69147  22881997.66047
  20096486.320 7   -272652.773 7   -188156.14849  20096486.35549
  23488566.180 5    -90799.828 5    -66646.21147  23488565.21547
 20  5 16  1 39 56.0000000  0  9G04G08G09G11G16G21G26G27G31         -0.000043844
  21407824.359 6   -283544.316 6   -198113.74248  21407823.53548
  20688439.156 7   -443699.535 7   -323674.42649  20688440.15649
  23011560.492 5   -434269.000 5   -306213.34049  23011560.80149
  23415008.188 6   -691500.918 6   -500601.04747  23415005.30947
  21475008.297 6   -193017.879 6   -135879.16048  21475006.06348
  25177451.156 3   -123872.773 3    -87894.48046  25177449.39846
  22881683.625 5   -156857.438 5   -106013.96147  22881685.74647
  20095959.797 7   -275420.285 7   -190312.65249  20095959.75449
  23488388.547 5    -91731.480 5    -67372.18047  23488387.98047
 20  5 16  1 39 57.0000000  0  9G04G08G09G11G16G21G26G27G31         -0.000045982
  21407281.484 6   -286395.477 6   -200335.42648  21407280.73848
  20687507.266 7   -448598.465 7   -327491.77049  20687507.98049
  23010659.938 5   -439003.719 5   -309902.72349  23010659.96149
  23413718.820 6   -698276.723 6   -505880.89547  23413716.05147
  21474601.688 6   -195155.793 6   -137545.06648  21474599.43448
  25177184.414 4   -125276.301 4    -88988.14146  25177182.19946
  22881371.227 5   -158498.348 5   -107292.59447  22881373.48847
  20095433.211 7   -278187.695 7   -192469.07449  20095433.40649
  23488211.586 5    -92663.383 5    -68098.33647  23488210.64147
 20  5 16  1 39 58.0000000  0  9G04G08G09G11G16G21G26G27G31         -0.000048115
  21406739.352 6   -289246.348 6   -202556.88348  21406738.27748
  20686574.867 7   -453497.195 7   -331308.96549  20686575.45349
  23009759.289 5   -443738.270 5   -313591.97349  23009759.09449
  23412429.156 6   -705052.758 6   -511160.92247  23412426.76247
  21474194.820 6   -197293.969 6   -139211.18048  21474192.51248
  25176917.172 4   -126679.801 4    -90081.78546  25176915.51646
  22881058.719 5   -160139.625 5   -108571.52047  22881061.13347
  20094906.711 7   -280954.852 7   -194625.29749  20094906.75849
  23488034.406 5    -93595.324 5    -68824.53147  23488033.44947
 20  5 16  1 39 59.0000000  0  9G04G08G09G11G16G21G26G27G31         -0.000050253
  21406196.641 6   -292097.031 6   -204778.19548  21406195.98848
  20685642.672 7   -458395.797 7   -335126.05549  20685643.36749
  23008857.898 6   -448472.629 6   -317281.08249  23008858.16449
  23411139.313 6   -711829.125 6   -516441.20747  23411137.14547
  21473788.109 6   -199432.500 6   -140877.57048  21473785.54348
  25176649.875 4   -128083.332 4    -91175.43846  25176648.32446
  22880746.430 5   -161781.324 5   -109850.77047  22880748.86347
  20094380.227 7   -283721.816 7   -196781.37549  20094380.03549
  23487857.430 5    -94527.465 5    -69550.87947  23487856.13347
 20  5 16  1 40  0.0000000  0  9G04G08G09G11G16G21G26G27G31         -0.000052385
  21405654.133 6   -294947.586 6   -206999.41448  21405653.50848
  20684710.602 7   -463294.316 7   -338943.08649  20684711.49249
  23007956.883 5   -453206.922 5   -320970.14849  23007957.30549
  23409849.711 6   -718605.879 6   -521721.79747  23409847.57847
  21473381.242 6   -201571.430 6   -142544.26648  21473378.57848
  25176382.969 4   -129486.953 4    -92269.16846  25176381.20746
  22880433.977 5   -163423.469 5   -111130.36747  22880435.82047
  20093853.484 7   -286488.652 7   -198937.35249  20093853.93449
  23487679.234 5    -95459.734 5    -70277.32047  23487679.11347
 20  5 16  1 40  1.0000000  0  9G04G08G09G11G16G21G26G27G31         -0.000054523
  21405111.938 6   -297797.996 6   -209220.51648  21405111.01248
  20683778.180 6   -468192.746 6   -342760.04349  20683778.91449
  23007056.109 6   -457941.066 6   -324659.09849  23007056.05149
  23408560.656 6   -725382.984 6   -527002.65647  23408557.90247
  21472973.695 6   -203710.754 6   -144211.27348  21472971.19548
  25176116.016 4   -130890.613 4    -93362.91446  25176114.25446
  22880121.445 5   -165066.078 5   -112410.32847  22880123.21547
  20093327.352 7   -289255.328 7   -201093.20749  20093327.07849
  23487501.938 5    -96392.219 5    -71003.93447  23487501.03547
 20  5 16  1 40  2.0000000  0  9G04G08G09G11G16G21G26G27G31         -0.000056658
  21404569.313 6   -300648.230 6   -211441.47748  21404568.45348
  20682846.102 7   -473091.043 7   -346576.90249  20682846.91449
  23006154.547 5   -462675.176 5   -328348.02349  23006154.81649
  23407270.930 6   -732160.477 6   -532283.81347  23407267.92247
  21472567.078 6   -205850.473 6   -145878.59048  21472564.37148
  25175848.297 4   -132294.352 4    -94456.74246  25175847.14546
  22879809.172 5   -166709.145 5   -113690.63347  22879811.03947
  20092800.758 7   -292021.852 7   -203248.93849  20092800.92649
  23487324.664 5    -97324.863 5    -71730.66447  23487323.78947
 20  5 16  1 40  3.0000000  0  9G04G08G09G11G16G21G26G27G31         -0.000058796
