     2.10           OBSERVATION DATA    GPS(GPS)            RINEX VERSION / TYPE
cnvtToRINEX 2.50.0  convertToRINEX OPR  30-May-18 13:32 UTC PGM / RUN BY / DATE 
----------------------------------------------------------- COMMENT             
GE201                                                       MARKER NAME         
GE201                                                       MARKER NUMBER       
GNSS Observer       Trimble                                 OBSERVER / AGENCY   
0220297922          5700                2.32                REC # / TYPE / VERS 
                    TRM39105-00                             ANT # / TYPE
 -2966946.1553  5005522.7256  2603716.0670                  APPROX POSITION XYZ 
        1.3030        1.2609        1.3069                  ANTENNA: DELTA H/E/N
     1     1     0                                          WAVELENGTH FACT L1/2
     4    C1    L1    L2    P2                              # / TYPES OF OBSERV 
  2018     5    30     0    33   45.0000000     GPS         TIME OF FIRST OBS   
  2018     5    30     1    35   45.0000000     GPS         TIME OF LAST OBS    
     0                                                      RCV CLOCK OFFS APPL 
    17                                                      LEAP SECONDS        
    12                                                      # OF SATELLITES     
   G03   733   730   728   728                              PRN / # OF OBS      
   G08    65    56     0     0                              PRN / # OF OBS      
   G14   745   744   745   745                              PRN / # OF OBS      
   G16   745   745   745   745                              PRN / # OF OBS      
   G21    36    33     0     0                              PRN / # OF OBS      
   G22   609   604   575   575                              PRN / # OF OBS      
   G23   716   715   715   715                              PRN / # OF OBS      
   G26   745   745   745   745                              PRN / # OF OBS      
   G27   738   738   738   738                              PRN / # OF OBS      
   G29   191   189   130   130                              PRN / # OF OBS      
   G31   745   745   745   745                              PRN / # OF OBS      
   G32   504   498   428   428                              PRN / # OF OBS      
CARRIER PHASE MEASUREMENTS: PHASE SHIFTS REMOVED            COMMENT             
                                                            END OF HEADER       
 18  5 30  0 33 45.0000000  0  8G03G14G16G22G26G29G31G32             0.000198183
  23888988.37511                     37562.25856  23888990.10256
  20855450.47716    104524.28916     65347.10258  20855448.80558
  20662353.33617     11989.52017      7446.37158  20662351.01658
  23856346.75815     82626.36715     54898.82856  23856342.24256
  20831499.90617     82322.55117     50382.63758  20831501.65658
  23992763.08616    142817.69116     80353.64157  23992762.50057
  21745760.01616     59346.52016     36371.90258  21745757.75858
  23002129.50816    164287.10516    111792.26257  23002129.61757
 18  5 30  0 33 50.0000000  0  8G03G14G16G22G26G29G31G32             0.000200403
  23890269.71915     65441.68815                
  20857706.688 6    116378.570 6     74584.20748  20857704.99648
  20662595.742 6     13262.523 6      8438.32448  20662593.77348
  23858224.492 5     92498.488 5     62591.38346  23858221.18846
  20833218.539 7     91352.059 7     57418.61748  20833219.66048
  23996024.977 6    159956.023 6     93708.15647  23996023.68047
  21746994.344 6     65833.539 6     41426.71548  21746992.53148
  23005882.133 6    184007.934 6    127159.13347  23005882.63347
 18  5 30  0 33 55.0000000  0  8G03G14G16G22G26G29G31G32             0.000202610
  23891550.898 4     72168.719 4                
  20859961.016 6    128229.023 6     83818.32048  20859959.73848
  20662837.461 6     14529.551 6      9425.57848  20662834.32848
  23860101.719 6    102359.141 6     70274.91446  23860097.63346
  20834933.656 6    100370.777 6     64446.17648  20834936.04748
  23999284.438 6    177086.664 6    107056.68847  23999283.69947
  21748226.734 7     72306.102 7     46470.30147  21748223.55947
  23009632.023 6    203718.352 6    142517.87947  23009633.42247
 18  5 30  0 34  0.0000000  0  8G03G14G16G22G26G29G31G32             0.000204809
  23892828.383 4     78890.254 4                
  20862216.063 6    140076.875 6     93050.39848  20862214.33648
  20663077.648 6     15791.617 6     10409.04748  20663075.38748
  23861975.797 6    112209.754 6     77950.66046  23861972.02746
  20836648.477 6    109379.922 6     71466.27348  20836650.10548
  24002543.406 6    194210.801 6    120400.16047  24002542.13747
  21749455.523 6     78765.504 6     51503.54347  21749452.68047
  23013381.367 6    223419.457 6    157869.35947  23013382.84047
 18  5 30  0 34  5.0000000  0  8G03G14G16G22G26G29G31G32             0.000206997
  23894107.008 4     85606.695 4                
  20864470.063 6    151922.500 6    102280.78148  20864468.38748
  20663316.125 6     17049.207 6     11388.97348  20663314.27048
  23863848.344 5    122050.742 5     85618.96146  23863844.87146
  20838361.953 7    118379.918 7     78479.23448  20838362.94148
  24005800.930 6    211328.926 6    133738.95347  24005799.99247
  21750682.438 7     85212.145 7     56526.89847  21750679.23047
  23017129.102 6    243111.699 6    173213.94947  23017129.55147
 18  5 30  0 34 10.0000000  0  8G03G14G16G22G26G29G31G32             0.000209175
  23895385.594 3     92319.234 3                
  20866724.461 6    163767.113 6    111510.30548  20866722.57048
  20663554.797 6     18303.469 6     12366.33248  20663552.57848
  23865720.188 5    131883.184 5     93280.60546  23865716.43846
  20840072.680 6    127371.844 6     85485.92648  20840074.23848
  24009057.273 6    228442.023 6    147073.83247  24009056.37147
  21751906.750 6     91647.137 6     61541.20747  21751903.86747
  23020875.078 6    262796.203 6    188552.53147  23020876.00847
 18  5 30  0 34 15.0000000  0  8G03G14G16G22G26G29G31G32             0.000211346
  23896662.219 4     99028.188 4     38190.50856  23896687.94956
  20868978.602 6    175611.000 6    120739.34048  20868976.39548
  20663793.680 6     19554.828 6     13341.40248  20663790.92648
  23867589.250 6    141707.441 6    100935.85246  23867586.03546
  20841782.016 6    136356.133 6     92486.68048  20841783.79748
  24012312.945 6    245550.672 6    160405.21547  24012311.94147
  21753129.094 6     98070.922 6     66546.78947  21753126.12947
  23024618.703 6    282473.363 6    203885.33647  23024620.48047
 18  5 30  0 34 20.0000000  0  9G03G14G16G22G26G27G29G31G32          0.000213507
  23897936.555 5    105733.758 5     43415.49246  23897964.83646
  20871231.906 6    187454.301 6    129967.82448  20871230.21948
  20664030.734 7     20803.172 7     14314.12948  20664027.86748
  23869456.430 5    151523.766 5    108585.10546  23869453.42246
  20843490.570 7    145332.801 7     99481.48448  20843491.83648
  22483959.68014   -106761.14814    -65697.12156  22483960.63756
  24015567.695 6    262654.816 6    173733.14147  24015567.07847
  21754348.570 6    104483.703 6     71543.67647  21754346.57447
  23028362.578 6    302143.332 6    219212.57447  23028363.93047
 18  5 30  0 34 25.0000000  0  9G03G14G16G22G26G27G29G31G32          0.000215658
  23899212.328 5    112436.332 5     48638.14545  23899238.30145
  20873485.609 6    199297.527 6    139196.32048  20873483.91048
  20664267.906 6     22049.324 6     15285.16848  20664265.15248
  23871322.453 5    161332.441 5    116228.19146  23871319.71546
  20845197.086 7    154302.488 7    106470.85248  20845198.73448
  22481298.164 5   -120749.984 5    -76597.50447  22481298.84847
  24018821.836 6    279755.031 6    187057.94547  24018821.17647
  21755567.359 6    110885.797 6     76532.35947  21755564.88747
  23032104.164 6    321806.480 6    234534.49647  23032105.79347
 18  5 30  0 34 30.0000000  0  9G03G14G16G22G26G27G29G31G32          0.000217802
  23900488.836 5    119136.473 5     53858.93045  23900507.21545
  20875739.359 6    211141.289 6    148425.21948  20875737.83648
  20664504.898 6     23293.734 6     16254.82447  20664501.75047
  23873187.703 5    171134.133 5    123865.89146  23873184.96946
  20846902.391 7    163265.750 7    113455.21548  20846904.48848
  22478634.852 5   -134746.238 5    -87503.68447  22478635.32447
  24022074.992 6    296851.836 6    200380.15247  24022075.00447
  21756783.781 6    117277.977 6     81513.26647  21756781.48047
  23035844.586 6    341463.559 6    249851.65647  23035845.98847
 18  5 30  0 34 35.0000000  0  9G03G14G16G22G26G27G29G31G32          0.000219936
  23901762.586 5    125834.547 5     59078.21946  23901772.89846
  20877993.414 6    222985.863 6    157654.75448  20877991.45348
  20664741.047 6     24536.602 6     17223.26648  20664738.16448
  23875052.422 5    180929.086 5    131498.33646  23875048.82046
  20848607.164 7    172222.844 7    120434.71949  20848609.10549
  22475970.227 5   -148749.621 5    -98415.42646  22475969.73846
  24025327.961 6    313945.582 6    213699.93047  24025327.44547
  21757998.477 6    123660.309 6     86486.46547  21757995.74247
  23039584.047 6    361114.672 6    265164.21547  23039586.00447
 18  5 30  0 34 40.0000000  0  9G03G14G16G22G26G27G29G31G32          0.000222063
  23903036.414 5    132529.977 5     64295.43847  23903040.90247
  20880247.703 6    234830.664 6    166884.46548  20880245.73048
  20664977.086 6     25777.508 6     18190.20348  20664974.04348
  23876914.320 5    190716.859 5    139125.12146  23876911.21146
  20850310.383 7    181173.219 7    127409.04349  20850312.27349
  22473304.109 5   -162760.672 5   -109333.09046  22473303.99246
  24028580.156 6    331035.656 6    227016.89147  24028580.17247
  21759211.297 6    130032.477 6     91451.81647  21759208.52747
  23043322.797 6    380759.375 6    280471.75447  23043324.58647
 18  5 30  0 34 45.0000000  0  9G03G14G16G22G26G27G29G31G32          0.000224182
  23904310.734 5    139224.008 5     69511.50847  23904312.91447
  20882501.547 6    246677.020 6    176115.39148  20882499.87948
  20665212.539 7     27017.641 7     19156.54348  20665209.74648
  23878775.305 4    200498.602 4    146747.25046  23878772.75046
  20852013.141 7    190118.117 7    134379.07049  20852014.73449
  22470635.992 5   -176778.090 5   -120255.77746  22470636.06646
  24031831.703 5    348123.383 5    240331.94146  24031831.43446
  21760421.664 6    136395.660 6     96410.10547  21760419.41447
  23047060.086 6    400398.914 6    295775.25047  23047061.94147
 18  5 30  0 34 50.0000000  0  9G03G14G16G22G26G27G29G31G32          0.000226292
  23905585.086 5    145915.941 5     74725.98847  23905585.87547
  20884755.945 6    258524.219 6    185346.96948  20884754.48448
  20665448.523 7     28256.320 7     20121.75048  20665445.80548
  23880635.711 4    210273.637 4    154364.18846  23880633.45346
  20853714.148 7    199056.832 7    141344.29749  20853715.14149
  22467967.617 5   -190802.586 5   -131183.94146  22467967.46946
  24035082.141 5    365208.023 5    253644.64146  24035082.27746
  21761630.930 6    142749.195 6    101360.91047  21761628.12547
  23050796.008 6    420032.563 6    311074.18447  23050798.23447
 18  5 30  0 34 55.0000000  0  9G03G14G16G22G26G27G29G31G32          0.000228395
  23906858.172 5    152606.328 5     79939.28947  23906858.94547
  20887010.711 6    270372.801 6    194579.61348  20887008.85248
  20665683.813 7     29494.152 7     21086.28148  20665681.12548
  23882494.813 4    220042.555 4    161976.29746  23882491.81646
  20855414.008 7    207989.926 7    148305.14549  20855415.54349
  22465297.773 5   -204833.531 5   -142117.13346  22465297.84846
  24038333.453 5    382290.113 5    266955.35246  24038333.09446
  21762838.352 6    149093.684 6    106304.66847  21762835.68847
  23054530.719 6    439660.883 6    326368.95347  23054533.33647
 18  5 30  0 35  0.0000000  0  9G03G14G16G22G26G27G29G31G32          0.000230490
  23908130.922 5    159295.344 5     85151.46547  23908131.73447
  20889265.617 6    282222.797 6    203813.37148  20889264.50848
  20665919.594 7     30731.125 7     22050.15648  20665916.67648
  23884352.945 5    229805.441 5    169583.74246  23884348.80146
  20857112.773 7    216917.488 7    155261.68449  20857114.38349
  22462626.188 5   -218870.875 5   -153055.31646  22462625.99246
  24041583.766 5    399369.754 5    280264.12946  24041583.75046
  21764044.391 6    155429.117 6    111241.36748  21764041.20348
  23058264.641 6    459283.941 6    341659.63347  23058267.44947
 18  5 30  0 35  5.0000000  0  9G03G14G16G22G26G27G29G31G32          0.000232576
  23909402.938 4    165982.867 4     90362.55947  23909404.17647
  20891520.852 6    294074.301 6    213048.30148  20891519.36748
  20666154.914 6     31967.285 6     23013.40247  20666151.87147
  23886208.742 5    239562.152 5    177186.31646  23886205.35546
  20858810.336 6    225839.594 6    162214.00048  20858811.59848
  22459953.961 5   -232914.570 5   -163998.43447  22459954.20347
  24044833.211 5    416446.904 5    293571.03546  24044833.46946
  21765247.797 6    161755.469 6    116170.98047  21765244.71947
  23061997.586 6    478901.668 6    356946.17847  23062000.44947
 18  5 30  0 35 10.0000000  0  9G03G14G16G22G26G27G29G31G32          0.000234657
  23910675.078 5    172668.676 5     95572.24247  23910676.67647
  20893776.969 6    305927.180 6    222284.30948  20893774.86348
  20666389.484 7     33202.637 7     23976.00448  20666386.93448
  23888065.023 4    249312.777 4    184784.21946  23888060.90246
  20860507.102 7    234755.910 7    169161.75848  20860508.28148
  22457280.289 5   -246964.715 5   -174946.60946  22457280.16846
  24048081.828 5    433521.488 5    306875.83246  24048082.93846
  21766449.922 6    168073.031 6    121093.75047  21766447.34047
  23065729.961 6    498514.172 6    372228.60547  23065732.97747
 18  5 30  0 35 15.0000000  0  9G03G14G16G22G26G27G29G31G32          0.000236729
  23911946.891 6    179353.543 6    100781.27747  23911948.18447
  20896032.391 6    317781.902 6    231521.74648  20896030.87948
  20666624.789 7     34437.516 7     24938.24648  20666622.02748
  23889919.063 4    259057.676 4    192377.67246  23889915.28946
  20862203.023 7    243667.141 7    176105.57048  20862204.13348
  22454605.508 5   -261020.766 5   -185899.35547  22454605.34047
  24051331.016 6    450594.070 6    320179.18047  24051331.33247
  21767650.406 6    174381.859 6    126009.71547  21767647.43447
  23069461.391 6    518121.762 6    387507.23847  23069464.14847
 18  5 30  0 35 20.0000000  0  9G03G14G16G22G26G27G29G31G32          0.000238792
  23913219.289 6    186037.359 6    105989.44147  23913220.19147
  20898288.805 6    329638.484 6    240760.63748  20898286.90648
  20666859.539 6     35672.031 6     25900.20748  20666856.46548
  23891772.594 4    268796.977 4    199966.71946  23891768.58646
  20863897.977 7    252573.273 7    183045.41448  20863898.91048
  22451928.992 5   -275082.695 5   -196856.71147  22451929.55947
  24054579.805 6    467664.574 6    333480.86347  24054580.13347
  21768849.320 6    180682.180 6    130919.04747  21768846.36347
  23073191.203 6    537724.492 6    402782.06647  23073194.33247
 18  5 30  0 35 25.0000000  0  9G03G14G16G22G26G27G29G31G32          0.000240849
  23914491.031 6    192720.664 6    111197.18447  23914491.71947
  20900545.820 7    341497.512 7    250001.42648  20900544.16048
  20667094.953 6     36906.703 6     26862.27748  20667091.84048
  23893624.891 4    278531.148 4    207551.79346  23893621.11346
  20865591.930 7    261474.824 7    189981.69148  20865592.32048
  22449252.164 5   -289149.914 5   -207818.16846  22449252.53946
  24057828.047 6    484733.590 6    346781.37947  24057828.32047
  21770047.023 6    186974.516 6    135822.15247  21770043.46947
  23076920.336 6    557322.910 6    418053.55947  23076923.97747
 18  5 30  0 35 30.0000000  0  9G03G14G16G22G26G27G29G31G32          0.000242899
  23915763.266 6    199403.691 6    116404.72747  23915763.94947
  20902802.789 6    353359.230 6    259244.31348  20902801.05948
  20667329.648 6     38141.754 6     27824.65248  20667326.96948
  23895476.922 4    288260.465 4    215133.02046  23895472.50046
  20867285.188 7    270372.023 7    196914.57448  20867285.72748
  22446574.180 5   -303222.164 5   -218783.56346  22446574.08246
  24061075.563 6    501801.277 6    360080.89146  24061075.95746
  21771242.734 6    193259.094 6    140719.22347  21771239.98847
  23080649.164 5    576917.273 5    433321.87947  23080652.15247
 18  5 30  0 35 35.0000000  0  9G03G14G16G22G26G27G29G31G32          0.000244942
  23917035.406 6    206085.898 6    121611.62547  23917035.21547
  20905060.188 6    365223.078 6    268488.86748  20905058.88348
  20667564.570 7     39376.656 7     28786.91848  20667561.69148
  23897327.156 4    297984.281 4    222710.03146  23897322.91446
  20868977.414 7    279264.320 7    203843.62949  20868978.35549
  22443895.727 5   -317300.016 5   -229753.31346  22443895.68846
  24064323.586 6    518867.199 6    373379.00046  24064323.58646
  21772437.266 6    199535.395 6    145609.83247  21772434.39547
  23084376.641 5    596507.000 5    448586.58247  23084380.21147
 18  5 30  0 35 40.0000000  0  9G03G14G16G22G26G27G29G31G32          0.000246977
  23918306.672 6    212768.035 6    126818.50447  23918307.09047
  20907318.820 7    377089.797 7    277735.65648  20907317.00048
  20667799.758 6     40612.199 6     29749.66848  20667797.03948
  23899176.742 5    307703.426 5    230283.36346  23899172.97346
  20870668.578 7    288152.488 7    210769.48049  20870669.30549
  22441215.883 5   -331382.660 5   -240726.79746  22441215.87146
  24067570.609 6    535932.012 6    386676.25046  24067570.29346
  21773630.195 6    205804.191 6    150494.60947  21773627.42647
  23088104.516 5    616092.840 5    463848.27047  23088107.49647
 18  5 30  0 35 45.0000000  0  9G03G14G16G22G26G27G29G31G32          0.000249004
  23919577.594 6    219449.637 6    132024.93047  23919578.24647
  20909577.297 7    388958.992 7    286984.37948  20909575.30948
  20668035.063 6     41847.914 6     30712.55148  20668032.22348
  23901025.109 4    317417.375 4    237852.66846  23901021.21946
  20872359.133 7    297036.039 7    217691.71949  20872359.82849
  22438535.297 5   -345470.531 5   -251704.36746  22438534.93446
  24070817.477 6    552995.230 6    399972.24646  24070817.50046
  21774821.555 6    212065.082 6    155373.20347  21774818.31647
  23091831.000 6    635674.391 6    479106.59047  23091833.14147
 18  5 30  0 35 50.0000000  0  9G03G14G16G22G26G27G29G31G32          0.000251026
  23920848.047 6    226130.078 6    137230.47747  23920849.46147
  20911836.375 7    400829.996 7    296234.50848  20911834.29748
  20668270.313 6     43083.102 6     31675.03148  20668267.66448
  23902872.133 4    327125.402 4    245417.32446  23902868.60546
  20874048.289 7    305914.344 7    224609.87549  20874049.52349
  22435853.016 5   -359564.242 5   -262686.45747  22435852.83247
  24074063.914 6    570056.246 6    413266.55546  24074064.08246
  21776011.281 6    218317.414 6    160245.14147  21776008.35947
  23095556.109 6    655250.918 6    494361.01247  23095558.38747
 18  5 30  0 35 55.0000000  0  9G03G14G16G22G26G27G29G31G32          0.000253038
  23922120.078 5    232808.598 5    142434.51647  23922120.45747
  20914095.359 7    412702.055 7    305485.45348  20914093.67648
  20668505.055 6     44317.137 6     32636.61748  20668501.65648
  23904718.375 5    336826.902 5    252976.92246  23904714.94946
  20875736.813 7    314786.688 7    231523.39549  20875737.90649
  22433170.492 5   -373664.563 5   -273673.70747  22433169.76247
  24077310.813 6    587114.324 6    426558.55146  24077310.16446
  21777199.344 6    224560.414 6    165109.82447  21777196.96547
  23099279.805 6    674821.715 6    509610.96147  23099282.57047
 18  5 30  0 36  0.0000000  0  9G03G14G16G22G26G27G29G31G32          0.000255043
  23923389.602 6    239484.695 6    147636.67647  23923390.67247
  20916354.891 6    424574.672 6    314736.84048  20916353.05948
  20668739.234 6     45549.441 6     33596.85548  20668736.41048
  23906562.711 5    346521.398 5    260531.08246  23906559.92246
  20877424.250 7    323652.535 7    238431.83649  20877424.94549
  22430485.383 5   -387771.930 5   -284666.46547  22430485.31647
  24080556.148 6    604168.934 6    439847.85546  24080555.41046
  21778385.133 6    230793.613 6    169966.85247  21778382.91047
  23103002.547 5    694386.363 5    524856.13347  23103005.31347
 18  5 30  0 36  5.0000000  0  9G03G14G16G22G26G27G29G31G32          0.000257038
  23924660.281 6    246159.152 6    152837.52747  23924660.68847
  20918614.211 7    436448.594 7    323989.24648  20918611.66048
  20668973.859 7     46780.707 7     34556.27348  20668970.54748
  23908406.734 5    356209.555 5    268080.28146  23908403.23446
  20879110.555 7    332512.602 7    245335.78949  20879111.08249
  22427799.219 5   -401885.578 5   -295664.11747  22427799.30147
  24083800.625 6    621220.820 6    453135.02346  24083799.66846
  21779570.344 6    237017.766 6    174816.84047  21779567.60947
  23106724.633 6    713945.398 6    540096.93047  23106727.54347
 18  5 30  0 36 10.0000000  0 10G03G14G16G22G23G26G27G29G31G32       0.000259027
  23925929.070 6    252831.590 6    158036.82447  23925930.52747
  20920873.930 6    448323.566 6    333242.46548  20920871.99648
  20669207.891 6     48010.730 6     35514.72748  20669204.27048
  23910249.234 5    365891.129 5    275624.33646  23910246.23446
  24120407.78115   -395542.16815   -192151.74257  24120406.58657
  20880795.227 7    341366.633 7    252235.02749  20880796.17249
  22425112.695 5   -416005.801 5   -306666.89547  22425112.21547
  24087045.117 6    638269.734 6    466419.90646  24087044.50046
  21780752.422 6    243232.621 6    179659.58647  21780749.79747
  23110446.039 5    733498.707 5    555333.25847  23110448.56647
 18  5 30  0 36 15.0000000  0 10G03G14G16G22G23G26G27G29G31G32       0.000261007
  23927198.445 6    259503.254 6    163235.52747  23927200.09447
  20923134.141 7    460200.719 7    342497.38748  20923132.17648
  20669442.367 6     49240.691 6     36473.12948  20669438.35548
  23912090.109 4    375567.316 4    283164.23046  23912087.47346
  24117847.344 5   -408998.594 5   -202637.25447  24117845.93447
  20882478.578 7    350215.797 7    259130.48049  20882479.89549
  22422424.898 5   -430131.352 5   -317673.81347  22422424.69947
  24090289.914 6    655316.801 6    479703.29746  24090288.70746
  21781933.672 6    249439.324 6    184495.96147  21781931.34847
  23114165.828 5    753047.402 5    570565.98847  23114168.34447
 18  5 30  0 36 20.0000000  0 10G03G14G16G22G23G26G27G29G31G32       0.000262981
  23928468.445 6    266174.430 6    168433.85547  23928469.39847
  20925394.516 7    472080.398 7    351754.28148  20925392.22348
  20669676.461 6     50470.871 6     37431.71548  20669672.52748
  23913931.117 5    385238.344 5    290700.07046  23913928.22346
  24115285.242 5   -422461.855 5   -213128.10247  24115283.55547
  20884161.828 7    359060.418 7    266022.39549  20884163.00049
  22419736.250 5   -444261.922 5   -328684.64147  22419735.48447
  24093533.203 6    672362.379 6    492985.57046  24093531.96546
  21783113.586 6    255638.227 6    189326.28547  21783111.23047
  23117885.414 5    772591.824 5    585795.37947  23117887.73047
 18  5 30  0 36 25.0000000  0 10G03G14G16G22G23G26G27G29G31G32       0.000264948
  23929737.258 6    272845.527 6    173632.10947  23929738.71947
  20927655.930 7    483962.996 7    361013.43848  20927653.85248
  20669910.461 6     51701.727 6     38390.82048  20669907.05148
  23915770.586 5    394904.707 5    298232.28946  23915767.40246
  24112721.625 5   -435931.520 5   -223623.97347  24112720.66847
  20885843.938 7    367900.891 7    272911.07049  20885845.36349
  22417046.086 5   -458397.137 5   -339699.09447  22417045.89847
  24096776.289 6    689406.816 6    506266.93846  24096775.46546
  21784291.719 6    261829.746 6    194150.82847  21784289.18047
  23121603.898 5    792132.324 5    601021.71947  23121606.04347
 18  5 30  0 36 30.0000000  0 10G03G14G16G22G23G26G27G29G31G32       0.000266909
  23931007.414 6    279515.836 6    178829.73847  23931008.21147
  20929917.625 6    495847.750 6    370274.27048  20929915.11348
  20670144.945 6     52932.406 6     39349.78548  20670141.42648
  23917608.828 5    404565.500 5    305760.17246  23917605.67246
  24110157.273 5   -449408.359 5   -234125.37947  24110155.98447
  20887525.508 7    376736.465 7    279795.91849  20887526.69549
  22414355.016 5   -472537.641 5   -350717.65647  22414355.29747
  24100019.734 6    706449.313 6    519546.79346  24100018.39146
  21785468.336 6    268013.160 6    198969.06648  21785465.94948
  23125321.195 6    811668.141 6    616244.41047  23125323.19147
 18  5 30  0 36 35.0000000  0 10G03G14G16G22G23G26G27G29G31G32       0.000268862
  23932275.891 6    286186.398 6    184027.54347  23932278.05547
  20932179.984 6    507735.773 6    379537.66448  20932177.08248
  20670379.102 6     54164.090 6     40309.53148  20670375.57448
  23919446.336 5    414221.961 5    313284.66846  23919443.50446
  24107591.594 5   -462891.172 5   -244631.48047  24107590.02347
  20889206.352 7    385568.238 7    286677.82049  20889207.56349
  22411663.555 5   -486682.379 5   -361739.54347  22411663.59847
  24103262.688 6    723491.000 6    532826.02346  24103261.53946
  21786643.648 6    274189.641 6    203781.89847  21786641.27747
  23129037.289 5    831200.461 5    631464.38347  23129040.11747
 18  5 30  0 36 40.0000000  0 10G03G14G16G22G23G26G27G29G31G32       0.000270807
  23933545.078 5    292856.961 5    189225.38347  23933547.69147
  20934442.453 7    519626.801 7    388803.40248  20934440.18048
  20670613.797 6     55396.473 6     41269.82848  20670610.30148
  23921283.938 5    423873.734 5    320805.55546  23921279.67646
  24105024.547 6   -476380.340 6   -255142.52347  24105023.25447
  20890886.258 7    394395.926 7    293556.52349  20890887.50449
  22408970.688 5   -500831.547 5   -372764.85547  22408971.76647
  24106505.531 6    740531.629 6    546104.42646  24106504.09046
  21787817.586 6    280358.816 6    208589.03947  21787814.84847
  23132753.828 5    850728.895 5    646681.32847  23132756.28947
 18  5 30  0 36 45.0000000  0 10G03G14G16G22G23G26G27G29G31G32       0.000272747
  23934814.992 5    299527.367 5    194423.09047  23934817.43047
  20936705.930 7    531520.742 7    398071.41048  20936703.24248
  20670848.547 7     56629.422 7     42230.56648  20670844.36748
  23923118.555 5    433520.699 5    328322.63746  23923115.52746
  24102457.016 6   -489875.816 6   -265658.48447  24102455.03147
  20892564.859 7    403219.422 7    300431.97349  20892566.35249
  22406277.766 5   -514985.285 5   -383793.75447  22406277.89147
  24109747.227 6    757571.113 6    559381.94146  24109746.46946
  21788989.961 7    286520.668 7    213390.47347  21788987.28147
  23136469.734 5    870253.391 5    661895.21147  23136471.48847
 18  5 30  0 36 50.0000000  0 10G03G14G16G22G23G26G27G29G31G32       0.000274679
  23936084.469 5    306197.508 5    199620.60247  23936087.02747
  20938969.711 7    543417.418 7    407341.53948  20938967.33648
  20671083.117 6     57862.871 6     43191.69148  20671079.38748
  23924952.938 5    443162.742 5    335835.91446  23924950.38746
  24099887.938 6   -503377.734 6   -276179.45347  24099886.24647
  20894243.406 7    412038.578 7    307304.03949  20894244.43849
  22403583.336 5   -529143.684 5   -394826.26647  22403584.08247
  24112990.086 6    774609.316 6    572658.44146  24112988.35546
  21790160.898 6    292675.016 6    218186.06647  21790158.96147
  23140184.438 5    889773.793 5    677105.89147  23140186.34047
 18  5 30  0 36 55.0000000  0 10G03G14G16G22G23G26G27G29G31G32       0.000276606
  23937353.922 5    312867.594 5    204818.05147  23937356.51647
  20941234.148 6    555317.090 6    416614.00448  20941231.36748
  20671317.961 6     59096.992 6     44153.34048  20671314.01648
  23926787.352 5    452800.094 5    343345.56346  23926783.85946
  24097317.258 6   -516885.863 6   -286705.26247  24097315.60547
  20895920.711 7    420853.629 7    314172.90249  20895921.57849
  22400888.203 5   -543306.484 5   -405862.20747  22400888.53947
  24116232.195 6    791646.461 6    585934.13746  24116230.56646
  21791331.133 6    298822.051 6    222975.96147  21791328.65647
  23143898.641 5    909290.320 5    692313.55947  23143899.98047
 18  5 30  0 37  0.0000000  0 10G03G14G16G22G23G26G27G29G31G32       0.000278524
  23938623.211 5    319538.191 5    210015.90647  23938626.25847
  20943498.906 7    567220.199 7    425889.14848  20943496.44948
  20671552.781 7     60332.277 7     45115.89548  20671549.43848
  23928620.195 5    462433.285 5    350851.93846  23928616.84846
  24094745.727 6   -530399.813 6   -297235.60247  24094743.41847
  20897597.500 7    429665.047 7    321038.93849  20897598.59049
  22398192.641 5   -557473.168 5   -416901.19547  22398193.02047
  24119474.266 6    808682.961 6    599209.31646  24119472.89146
  21792499.094 6    304962.285 6    227760.55548  21792497.37948
  23147610.859 6    928803.477 6    707518.60547  23147612.87947
 18  5 30  0 37  5.0000000  0 10G03G14G16G22G23G26G27G29G31G32       0.000280437
  23939892.672 5    326209.559 5    215214.36347  23939895.76647
  20945765.031 7    579127.145 7    435167.28148  20945762.57448
  20671788.000 6     61569.086 6     46079.64148  20671784.63748
  23930453.148 5    472062.555 5    358355.25046  23930448.84446
  24092173.422 6   -543919.133 6   -307770.15647  24092170.51247
  20899273.672 7    438473.211 7    327902.43849  20899274.27349
  22395496.063 6   -571643.484 6   -427942.98847  22395496.27747
  24122716.563 6    825719.180 6    612484.28146  24122715.18846
  21793666.656 7    311096.063 7    232540.12147  21793665.03947
  23151323.992 6    948313.582 6    722721.25847  23151325.87547
 18  5 30  0 37 10.0000000  0 10G03G14G16G22G23G26G27G29G31G32       0.000282345
  23941162.164 5    332881.543 5    220413.30147  23941165.20347
  20948031.398 7    591037.773 7    444448.28948  20948028.96548
  20672023.820 7     62807.234 7     47044.42648  20672020.38348
  23932285.000 5    481687.828 5    365855.44546  23932279.76646
  24089599.336 6   -557443.910 6   -318308.94547  24089596.78147
  20900949.344 7    447277.934 7    334763.25449  20900949.29349
  22392799.227 5   -585817.426 5   -438987.61747  22392798.83247
  24125958.227 6    842754.980 6    625758.93446  24125956.52046
  21794832.844 6    317223.266 6    237314.56647  21794830.91847
  23155036.344 6    967820.477 6    737921.41047  23155037.76247
 18  5 30  0 37 15.0000000  0 10G03G14G16G22G23G26G27G29G31G32       0.000284245
  23942432.359 5    339554.035 5    225612.63747  23942434.77347
  20950298.656 7    602951.914 7    453732.02748  20950295.96148
  20672259.898 6     64046.641 6     48010.18448  20672256.28548
  23934115.883 5    491308.824 5    373352.33246  23934110.41046
  24087024.836 5   -570974.328 5   -328852.11347  24087022.38347
  20902624.297 7    456079.082 7    341621.28149  20902624.76649
  22390100.758 5   -599995.145 5   -450035.18847  22390101.10547
  24129199.969 6    859790.188 6    639033.10246  24129198.07846
  21795996.984 6    323343.758 6    242083.77748  21795995.32848
  23158747.617 6    987324.039 6    753118.97747  23158749.45747
 18  5 30  0 37 20.0000000  0 10G03G14G16G22G23G26G27G29G31G32       0.000286139
  23943701.445 5    346227.332 5    230812.59847  23943704.98447
  20952566.977 7    614869.910 7    463018.77348  20952564.39548
  20672496.195 7     65287.613 7     48977.17248  20672492.34448
  23935944.922 5    500925.988 5    380846.24646  23935940.00446
  24084448.383 5   -584510.004 5   -339399.38747  24084446.62547
  20904298.313 7    464876.965 7    348476.77048  20904298.55148
  22387402.047 5   -614176.328 5   -461085.44147  22387402.47347
  24132441.742 6    876825.148 6    652307.08646  24132440.10546
  21797160.875 6    329457.879 6    246848.02748  21797159.02048
  23162459.180 6   1006824.605 6    768314.20347  23162460.39847
 18  5 30  0 37 25.0000000  0 10G03G14G16G22G23G26G27G29G31G32       0.000288025
  23944971.813 5    352901.535 5    236013.24647  23944974.73047
  20954835.281 7    626791.879 7    472308.60948  20954833.00048
  20672732.242 7     66530.293 7     49945.48848  20672728.60548
  23937775.508 5    510539.410 5    388337.20745  23937769.36345
  24081871.836 5   -598050.797 5   -349950.65647  24081869.56347
  20905972.156 7    473671.711 7    355329.82048  20905972.35248
  22384703.109 5   -628360.816 5   -472138.29747  22384703.62547
  24135682.852 6    893860.016 6    665580.99646  24135681.63346
  21798323.477 6    335565.785 6    251607.43047  21798320.89547
  23166168.758 6   1026322.238 6    783507.14847  23166170.93047
 18  5 30  0 37 30.0000000  0 10G03G14G16G22G23G26G27G29G31G32       0.000289907
  23946241.648 5    359576.539 5    241214.54747  23946244.78547
  20957104.563 7    638717.621 7    481601.38348  20957102.41448
  20672969.555 7     67774.422 7     50914.92648  20672965.53948
  23939603.852 5    520148.891 5    395825.14845  23939597.74245
  24079294.219 6   -611596.961 6   -360506.10947  24079291.53947
  20907644.781 7    482463.133 7    362180.26649  20907644.90249
  22382002.523 5   -642548.754 5   -483193.82847  22382003.80147
  24138924.789 6    910894.535 6    678854.63746  24138923.26646
  21799484.406 6    341667.324 6    256361.86347  21799482.21947
  23169878.492 6   1045816.777 6    798697.67647  23169880.39847
 18  5 30  0 37 35.0000000  0 10G03G14G16G22G23G26G27G29G31G32       0.000291782
  23947512.125 5    366252.367 5    246416.48047  23947514.81647
  20959374.977 7    650647.301 7    490897.23448  20959372.62948
  20673206.414 7     69020.199 7     51885.66448  20673202.82048
  23941431.539 6    529754.543 6    403310.05146  23941425.53946
  24076715.469 5   -625148.277 5   -371065.57047  24076712.66447
  20909317.336 7    491251.316 7    369028.19948  20909317.60948
  22379302.453 5   -656740.051 5   -494251.98847  22379303.34847
  24142165.516 6    927928.836 6    692128.10946  24142164.47746
  21800644.367 6    347762.586 6    261111.42247  21800642.02347
  23173587.766 6   1065308.336 6    813885.87547  23173589.84447
 18  5 30  0 37 40.0000000  0 10G03G14G16G22G23G26G27G29G31G32       0.000293652
  23948782.680 4    372928.938 4    251618.98847  23948784.85247
  20961645.508 7    662580.707 7    500195.98848  20961643.49648
  20673443.563 6     70267.406 6     52857.50848  20673440.05148
  23943258.625 6    539356.188 6    410791.82046  23943252.40646
  24074135.695 5   -638704.980 5   -381629.25047  24074132.91047
  20910988.828 7    500036.109 7    375873.48848  20910988.70348
  22376601.578 5   -670934.848 5   -505312.86747  22376601.83647
  24145408.336 6    944962.727 6    705401.26246  24145405.97346
  21801802.922 6    353851.422 6    265855.96547  21801800.55147
  23177295.961 6   1084796.688 6    829071.59047  23177298.10947
 18  5 30  0 37 45.0000000  0 10G03G14G16G22G23G26G27G29G31G32       0.000295515
  23950053.836 5    379605.789 5    256821.70347  23950055.37147
  20963917.227 7    674517.566 7    509497.42248  20963914.98848
  20673681.000 6     71515.746 6     53830.24248  20673677.62548
  23945084.969 6    548953.523 6    418270.29746  23945078.58646
  24071555.094 5   -652267.301 5   -392197.30147  24071552.19947
  20912659.859 7    508817.219 7    382715.89848  20912659.72748
  22373899.547 5   -685133.395 5   -516376.67647  22373900.04747
  24148648.813 6    961995.930 6    718673.89546  24148647.18846
  21802960.094 6    359933.543 6    270595.28147  21802957.60947
  23181003.430 6   1104281.605 6    844254.62147  23181005.95747
 18  5 30  0 37 50.0000000  0 10G03G14G16G22G23G26G27G29G31G32       0.000297371
  23951324.391 5    386283.121 5    262024.83246  23951325.85546
  20966189.195 7    686457.922 7    518801.59448  20966187.64548
  20673919.109 6     72765.336 6     54803.94148  20673915.44548
  23946910.305 5    558546.613 5    425745.40246  23946903.76246
  24068973.656 5   -665835.145 5   -402769.65247  24068969.61347
  20914330.391 7    517594.734 7    389555.52048  20914329.99248
  22371196.852 5   -699335.629 5   -527443.33247  22371197.44947
  24151890.070 5    979028.535 5    731946.05946  24151888.50046
  21804116.648 6    366009.055 6    275329.43447  21804113.99647
  23184711.406 6   1123763.125 6    859435.01647  23184713.39847
 18  5 30  0 37 55.0000000  0 10G03G14G16G22G23G26G27G29G31G32       0.000299221
  23952596.047 5    392961.727 5    267228.91447  23952596.67247
  20968462.516 6    698402.676 6    528109.18848  20968460.36348
  20674157.148 6     74017.000 6     55779.26248  20674153.68848
  23948735.391 5    568136.395 5    433218.00046  23948728.65246
  24066391.109 5   -679407.609 5   -413345.60947  24066387.06647
  20916000.164 7    526369.496 7    396392.99248  20915999.70348
  22368493.352 5   -713540.625 5   -538512.16047  22368494.37147
  24155131.445 5    996061.328 5    745218.35246  24155129.80946
  21805271.305 6    372078.785 6    280059.09047  21805268.88347
  23188418.078 6   1143242.109 6    874613.42647  23188420.43447
 18  5 30  0 38  0.0000000  0 10G03G14G16G22G23G26G27G29G31G32       0.000301065
  23953866.148 5    399641.148 5    272433.66447  23953867.17647
  20970735.891 6    710351.207 6    537419.71548  20970733.94148
  20674395.328 6     75270.156 6     56755.73448  20674392.28948
  23950559.828 5    577722.129 5    440687.38346  23950552.86346
  24063807.375 5   -692985.215 5   -423925.53547  24063802.63747
  20917668.930 7    535140.910 7    403227.85548  20917669.06648
  22365789.617 5   -727748.949 5   -549583.57447  22365790.72747
  24158371.938 5   1013093.777 5    758490.40646  24158371.03146
  21806425.367 6    378142.195 6    284783.81348  21806422.83648
  23192124.727 6   1162717.965 6    889789.40247  23192126.62547
 18  5 30  0 38  5.0000000  0 10G03G14G16G22G23G26G27G29G31G32       0.000302902
  23955137.461 5    406321.637 5    277639.23847  23955138.25047
  20973010.836 6    722303.992 6    546733.56648  20973008.82048
  20674634.266 6     76525.207 6     57733.69948  20674631.57848
  23952382.859 5    587304.324 5    448154.04746  23952376.60246
  24061222.633 5   -706567.633 5   -434509.24247  24061217.81647
  20919337.602 7    543909.430 7    410060.46548  20919337.77048
  22363085.484 5   -741960.195 5   -560657.26247  22363085.94147
  24161613.680 5   1030126.266 5    771762.47746  24161612.25446
  21807577.859 6    384199.711 6    289503.95747  21807575.27047
  23195830.031 6   1182191.125 6    904963.27348  23195832.24648
 18  5 30  0 38 10.0000000  0 10G03G14G16G22G23G26G27G29G31G32       0.000304735
  23956408.805 5    413003.465 5    282845.85247  23956409.53547
  20975286.516 7    734261.137 7    556050.80548  20975284.21948
  20674873.508 6     77782.363 6     58713.29348  20674870.41848
  23954206.336 6    596883.168 6    455618.08246  23954199.84046
  24058637.172 5   -720154.566 5   -445096.48047  24058632.01247
  20921005.570 7    552675.168 7    416890.90248  20921006.12148
  22360379.922 5   -756174.156 5   -571733.07847  22360380.77747
  24164854.430 5   1047158.988 5    785034.71146  24164853.44546
  21808729.633 6    390251.488 6    294219.62948  21808726.94548
  23199535.188 6   1201661.742 6    920135.16448  23199537.01248
 18  5 30  0 38 15.0000000  0 10G03G14G16G22G23G26G27G29G31G32       0.000306562
  23957680.242 5    419686.387 5    288053.34847  23957680.50047
  20977562.313 6    746222.453 6    565371.30948  20977560.69948
  20675112.688 6     79041.383 6     59694.35548  20675110.34848
  23956028.883 6    606458.340 6    463079.24246  23956022.03946
  24056050.484 5   -733746.324 5   -455687.45347  24056045.85947
  20922673.172 7    561437.938 7    423719.03149  20922673.55949
  22357675.039 5   -770391.074 5   -582811.19147  22357675.68447
  24168095.836 5   1064191.652 5    798306.91446  24168094.41046
  21809880.273 6    396297.355 6    298930.68848  21809877.38748
  23203240.172 6   1221129.555 6    935304.86748  23203241.78148
 18  5 30  0 38 20.0000000  0 10G03G14G16G22G23G26G27G29G31G32       0.000308382
  23958952.555 6    426370.152 6    293261.46947  23958951.96547
  20979839.242 6    758187.770 6    574694.91448  20979837.37948
  20675352.406 6     80302.133 6     60676.75048  20675350.24248
  23957849.164 6    616029.793 6    470537.53546  23957843.53546
  24053463.398 5   -747343.008 5   -466282.28947  24053458.49647
  20924340.086 7    570197.555 7    430544.69548  20924340.21148
  22354969.641 5   -784611.023 5   -593891.66847  22354969.58247
  24171337.711 5   1081224.160 5    811578.98046  24171335.25846
  21811029.500 6    402337.121 6    303637.00047  21811026.96147
  23206944.133 6   1240594.434 6    950472.27748  23206945.53548
 18  5 30  0 38 25.0000000  0 10G03G14G16G22G23G26G27G29G31G32       0.000310196
  23960224.734 6    433055.242 6    298470.62547  23960223.79347
  20982116.617 6    770157.453 6    584021.93848  20982115.46148
  20675592.992 6     81564.922 6     61660.74248  20675590.70348
  23959670.102 6    625597.754 6    477993.08646  23959664.79346
  24050875.383 5   -760944.215 5   -476880.62147  24050869.98847
  20926006.539 7    578954.395 7    437368.20748  20926006.75448
  22352262.680 5   -798833.652 5   -604974.22347  22352262.44947
  24174578.328 5   1098256.828 5    824851.17646  24174576.70346
  21812177.898 6    408371.184 6    308338.86348  21812175.24648
  23210647.570 6   1260056.719 6    965637.67647  23210649.39847
 18  5 30  0 38 30.0000000  0 10G03G14G16G22G23G26G27G29G31G32       0.000312004
  23961497.242 6    439741.383 6    303680.61747  23961496.52747
  20984395.414 6    782131.309 6    593352.21148  20984394.28548
  20675833.242 6     82829.559 6     62646.18048  20675831.38348
  23961489.563 5    635162.105 5    485445.82046  23961484.81646
  24048286.461 5   -774550.152 5   -487482.64146  24048280.94146
  20927671.953 7    587708.199 7    444189.35549  20927672.24649
  22349555.641 5   -813059.199 5   -616059.07447  22349555.45747
  24177819.078 5   1115289.477 5    838123.33646  24177817.88346
  21813324.492 6    414399.359 6    313036.14147  21813322.27347
  23214350.852 6   1279516.230 6    980800.91848  23214352.37148
 18  5 30  0 38 35.0000000  0 10G03G14G16G22G23G26G27G29G31G32       0.000313807
  23962770.164 6    446428.895 6    308891.64547  23962769.57047
  20986675.102 6    794109.656 6    602685.97748  20986673.30548
  20676074.813 6     84096.395 6     63633.31348  20676072.32848
  23963309.391 5    644723.090 5    492895.90646  23963304.92646
  24045696.117 5   -788160.496 5   -498088.09447  24045690.63347
  20929337.141 7    596459.344 7    451008.43048  20929337.83248
  22346848.141 5   -827287.234 5   -627145.84847  22346848.12947
  24181060.859 5   1132322.418 5    851395.75846  24181058.89146
  21814470.688 6    420421.949 6    317729.07047  21814468.21547
  23218053.195 6   1298973.238 6    995962.19548  23218055.37548
 18  5 30  0 38 40.0000000  0 10G03G14G16G22G23G26G27G29G31G32       0.000315603
  23964042.773 6    453117.457 6    314103.52347  23964041.64847
  20988955.438 6    806092.133 6    612022.97748  20988953.68448
  20676315.766 6     85365.063 6     64621.88748  20676313.74648
  23965128.203 6    654280.387 6    500343.17646  23965123.48046
  24043105.344 5   -801775.531 5   -508697.19546  24043099.50046
  20931001.992 7    605207.457 7    457825.14148  20931002.13748
  22344139.805 6   -841518.121 6   -638234.85247  22344140.02747
  24184301.531 5   1149355.285 5    864668.08646  24184299.86746
  21815615.805 6    426438.625 6    322417.39147  21815613.21147
  23221755.039 6   1318427.406 6   1011121.27048  23221757.13748
 18  5 30  0 38 45.0000000  0 10G03G14G16G22G23G26G27G29G31G32       0.000317394
  23965315.867 6    459807.164 6    319316.27047  23965315.32047
  20991236.641 6    818078.898 6    621363.29748  20991234.68448
  20676557.422 6     86635.730 6     65612.01648  20676555.26248
  23966946.320 6    663834.113 6    507787.62146  23966942.18046
  24040513.391 5   -815395.141 5   -519309.89147  24040508.25047
  20932666.109 7    613952.680 7    464639.59848  20932666.46548
  22341431.734 6   -855751.723 6   -649325.96947  22341431.32047
  24187543.438 5   1166388.242 5    877940.50046  24187541.16446
  21816759.195 6    432449.555 6    327101.22347  21816756.50447
  23225456.617 6   1337878.883 6   1026278.24648  23225458.69948
 18  5 30  0 38 50.0000000  0 10G03G14G16G22G23G26G27G29G31G32       0.000319180
  23966589.492 6    466498.688 6    324530.45347  23966588.77047
  20993518.023 6    830070.586 6    630707.46548  20993516.39548
  20676799.406 6     87908.973 6     66604.15648  20676797.59848
  23968763.906 6    673384.969 6    515229.83247  23968759.63747
  24037920.688 5   -829018.742 5   -529925.67646  24037915.93846
  20934329.805 7    622695.660 7    471452.30549  20934330.80149
  22338722.594 6   -869987.328 6   -660418.64547  22338721.93047
  24190784.539 5   1183421.805 5    891213.41446  24190782.67646
  21817902.367 7    438455.375 7    331781.08647  21817899.78147
  23229157.164 6   1357328.281 6   1041433.59848  23229159.44148
 18  5 30  0 38 55.0000000  0 10G03G14G16G22G23G26G27G29G31G32       0.000320959
  23967863.469 6    473191.531 6    329745.64847  23967862.72347
  20995801.188 6    842066.719 6    640055.09048  20995799.27348
  20677042.367 6     89184.375 6     67597.98448  20677040.34048
  23970580.188 6    682932.418 6    522669.40646  23970577.24246
  24035328.367 6   -842646.641 6   -540544.81347  24035322.75847
  20935993.125 7    631435.898 7    478262.87149  20935994.20749
  22336013.266 5   -884225.434 5   -671513.27747  22336013.26647
  24194026.508 5   1200455.613 5    904486.50446  24194023.71546
  21819043.883 6    444455.641 6    336456.60947  21819041.56347
  23232857.773 6   1376775.180 6   1056587.00847  23232860.23047
 18  5 30  0 39  0.0000000  0 10G03G14G16G22G23G26G27G29G31G32       0.000322733
  23969137.359 6    479886.664 6    334962.62947  23969136.49247
  20998084.992 6    854068.215 6    649406.91048  20998083.17248
  20677285.859 6     90462.902 6     68594.22348  20677283.76248
  23972397.055 6    692477.441 6    530107.07046  23972393.55146
  24032733.703 6   -856278.000 6   -551166.64847  24032728.23847
  20937656.117 7    640174.340 7    485072.03949  20937657.41449
  22333303.305 5   -898465.078 5   -682609.08647  22333303.35247
  24197267.664 5   1217490.570 5    917760.47746  24197265.04346
  21820185.047 6    450451.281 6    341128.53947  21820182.71547
  23236558.750 6   1396220.441 6   1071739.14548  23236560.85548
 18  5 30  0 39  5.0000000  0 10G03G14G16G22G23G26G27G29G31G32       0.000324503
  23970410.922 6    486583.504 6    340180.91847  23970411.16447
  21000369.320 6    866074.605 6    658762.52748  21000367.82448
  20677529.805 6     91743.961 6     69592.45348  20677527.56348
  23974212.664 6    702019.449 6    537542.41046  23974209.54746
  24030140.109 5   -869913.313 5   -561791.57846  24030133.94546
  20939318.250 7    648910.457 7    491879.39849  20939319.34849
  22330593.547 5   -912706.707 5   -693706.46547  22330593.39847
  24200509.688 5   1234526.148 5    931034.91046  24200506.77346
  21821325.031 6    456441.766 6    345796.43447  21821322.52747
  23240258.766 6   1415663.563 6   1086889.61348  23240260.71948
 18  5 30  0 39 10.0000000  0 10G03G14G16G22G23G26G27G29G31G32       0.000326265
  23971686.305 6    493281.723 6    345400.33246  23971685.69546
  21002655.500 6    878085.469 6    668121.64148  21002653.57048
  20677774.156 6     93027.195 6     70592.37148  20677771.94948
  23976027.906 6    711558.102 6    544975.10246  23976024.97346
  24027543.977 6   -883552.840 6   -572419.77347  24027538.46147
  20940980.313 7    657643.840 7    498684.63349  20940981.52349
  22327883.125 5   -926950.785 5   -704805.73447  22327882.81647
  24203751.859 5   1251561.980 5    944309.57046  24203749.14546
  21822463.688 6    462426.738 6    350460.05547  21822461.24647
  23243957.922 6   1435104.164 6   1102038.11348  23243959.85948
 18  5 30  0 39 15.0000000  0 10G03G14G16G22G23G26G27G29G31G32       0.000328022
  23972961.516 6    499981.633 6    350621.05947  23972960.55547
  21004941.813 7    890101.195 7    677484.53148  21004939.94548
  20678018.813 6     94312.969 6     71594.27348  20678016.10948
  23977842.711 6    721093.723 6    552405.46146  23977839.81346
  24024947.984 6   -897196.258 6   -583051.02747  24024942.32047
  20942641.703 7    666374.934 7    505488.07849  20942643.10949
  22325171.445 5   -941196.828 5   -715906.55147  22325171.50447
  24206993.672 5   1268598.375 5    957584.66846  24206990.65646
  21823601.281 6    468406.602 6    355119.66047  21823599.02047
  23247657.117 6   1454542.633 6   1117184.95348  23247659.05948
 18  5 30  0 39 20.0000000  0 10G03G14G16G22G23G26G27G29G31G32       0.000329775
  23974236.055 6    506683.758 6    355843.44547  23974236.21947
  21007229.211 7    902122.242 7    686851.57048  21007226.91848
  20678263.672 6     95601.746 6     72598.52348  20678261.58648
  23979655.977 5    730626.832 5    559833.84446  23979653.69946
  24022350.602 6   -910843.078 6   -593684.86747  24022345.28547
  20944303.008 7    675104.145 7    512290.05548  20944304.04748
  22322461.484 6   -955444.391 6   -727008.55147  22322460.49647
  24210235.898 5   1285635.859 5    970860.61746  24210233.04346
  21824738.578 6    474381.813 6    359775.66847  21824736.34047
  23251355.734 6   1473979.410 6   1132330.48448  23251357.47748
 18  5 30  0 39 25.0000000  0 10G03G14G16G22G23G26G27G29G31G32       0.000331522
  23975511.672 6    513388.379 6    361067.83647  23975511.93847
  21009517.859 6    914148.969 6    696223.04748  21009515.95748
  20678510.188 6     96893.848 6     73605.34848  20678507.43448
  23981469.953 6    740157.730 6    567260.52346  23981467.55146
  24019752.672 6   -924492.965 6   -604321.14847  24019748.35247
  20945963.750 7    683831.801 7    519090.81348  20945964.74248
  22319749.859 6   -969693.098 6   -738111.44147  22319748.51247
  24213478.133 5   1302674.637 5    984137.57446  24213475.53946
  21825874.555 6    480352.672 6    364428.29347  21825872.77347
  23255054.711 6   1493414.797 6   1147474.91448  23255056.27048
 18  5 30  0 39 30.0000000  0 10G03G14G16G22G23G26G27G29G31G32       0.000333263
  23976787.695 6    520094.840 6    366293.64547  23976788.53547
  21011807.336 6    926180.691 6    705598.41448  21011805.08648
  20678756.594 6     98188.641 6     74614.27748  20678753.78548
  23983282.477 6    749685.695 6    574684.92247  23983280.80147
  24017154.398 6   -938146.563 6   -614960.30547  24017150.10947
  20947624.281 7    692557.242 7    525889.85548  20947625.18048
  22317037.609 6   -983943.652 6   -749215.76647  22317037.01247
  24216720.602 5   1319714.238 5    997415.16446  24216718.10946
  21827010.086 6    486318.586 6    369077.04747  21827008.05547
  23258752.188 6   1512848.145 6   1162617.76648  23258754.17648
 18  5 30  0 39 35.0000000  0 10G03G14G16G22G23G26G27G29G31G32       0.000335001
  23978065.047 6    526803.551 6    371521.23046  23978065.37946
  21014097.609 6    938217.840 6    714978.01248  21014095.41048
  20679003.594 6     99486.484 6     75625.58248  20679000.57448
  23985096.141 5    759211.191 5    582107.38346  23985093.19146
  24014555.703 6   -951803.395 6   -625601.97347  24014551.62947
  20949284.234 7    701280.895 7    532687.51248  20949285.56648
  22314325.531 5   -998195.543 5   -760321.12947  22314325.12547
  24219963.719 5   1336754.961 5   1010693.65646  24219961.10546
  21828144.641 6    492279.953 6    373722.26647  21828142.75447
  23262450.148 6   1532279.926 6   1177759.39147  23262451.72747
 18  5 30  0 39 40.0000000  0 10G03G14G16G22G23G26G27G29G31G32       0.000336733
  23979342.242 6    533514.406 6    376750.45747  23979342.77047
  21016389.750 6    950260.254 6    724361.70348  21016387.56648
  20679251.133 6    100787.277 6     76639.18048  20679248.53548
  23986907.586 5    768734.102 5    589527.82446  23986905.64546
  24011956.852 6   -965463.605 6   -636246.28947  24011952.07447
  20950943.773 7    710002.633 7    539483.66448  20950945.04348
  22311613.547 6  -1012448.879 6   -771427.63347  22311612.77347
  24223206.273 4   1353796.672 4   1023972.91446  24223204.11746
  21829278.219 6    498236.688 6    378363.86747  21829276.34447
  23266147.328 6   1551709.930 6   1192899.63347  23266149.00847
 18  5 30  0 39 45.0000000  0 10G03G14G16G22G23G26G27G29G31G32       0.000338459
  23980618.914 6    540227.109 6    381981.13347  23980621.01647
  21018682.414 7    962307.648 7    733749.27748  21018679.53548
  20679499.086 6    102090.773 6     77654.89848  20679496.11348
  23988719.125 5    778254.094 5    596945.98046  23988717.07446
  24009356.516 6   -979127.426 6   -646893.40647  24009352.34047
  20952603.063 7    718722.188 7    546278.11748  20952604.78548
  22308900.875 6  -1026703.941 6   -782535.46547  22308899.94947
  24226448.773 4   1370839.109 4   1037252.73846  24226446.90646
  21830410.594 6    504188.461 6    383001.60948  21830408.78948
  23269844.680 6   1571137.898 6   1208038.28948  23269846.21548
 18  5 30  0 39 50.0000000  0 10G03G14G16G22G23G26G27G29G31G32       0.000340179
  23981897.281 6    546942.410 6    387213.80546  23981899.14846
  21020975.641 6    974360.770 6    743141.30548  21020973.82848
  20679747.680 6    103397.699 6     78673.27348  20679744.81648
  23990530.766 5    787771.941 5    604362.46146  23990528.08646
  24006756.219 6   -992794.121 6   -657542.77047  24006751.62147
  20954261.766 7    727440.242 7    553071.39849  20954263.67249
  22306187.406 6  -1040959.996 6   -793644.08647  22306187.16047
  24229692.078 4   1387882.977 4   1050533.66846  24229690.54746
  21831542.672 6    510136.102 6    387636.13348  21831540.79348
  23273541.273 6   1590564.566 6   1223175.93048  23273543.19948
 18  5 30  0 39 55.0000000  0 10G03G14G16G22G23G26G27G29G31G32       0.000341896
  23983175.672 6    553659.930 6    392448.23047  23983178.00047
  21023270.484 6    986419.332 6    752537.59048  21023268.03548
  20679996.969 6    104707.770 6     79694.10548  20679994.34048
  23992341.430 5    797287.289 5    611777.00046  23992339.27746
  24004154.742 6  -1006463.957 6   -668194.58647  24004150.13347
  20955920.492 7    736156.512 7    559863.28149  20955922.76249
  22303475.125 6  -1055217.293 6   -804753.67647  22303474.47347
  24232935.805 3   1404927.996 3   1063815.51246  24232934.28546
  21832673.914 6    516079.266 6    392267.16448  21832671.59048
  23277237.672 6   1609989.617 6   1238312.30948  23277239.12148
 18  5 30  0 40  0.0000000  0 10G03G14G16G22G23G26G27G29G31G32       0.000343607
  23984454.719 6    560379.859 6    397684.52747  23984457.20347
  21025565.992 6    998483.441 6    761938.19548  21025563.91848
  20680247.016 6    106021.059 6     80717.44948  20680243.97748
  23994151.922 5    806800.215 5    619189.65646  23994149.14846
  24001552.570 6  -1020136.836 6   -678848.77347  24001548.47347
  20957579.141 7    744871.125 7    566653.88349  20957581.01249
  22300761.680 6  -1069475.746 6   -815864.15247  22300761.15647
  24236179.180 2   1421974.145 2   1077098.17646  24236178.64146
  21833804.094 6    522018.047 6    396894.78148  21833801.82048
  23280933.883 6   1629413.121 6   1253447.48848  23280935.63748
 18  5 30  0 40  5.0000000  0 10G03G14G16G22G23G26G27G29G31G32       0.000345312
  23985733.977 6    567102.633 6    402923.04347  23985736.67647
  21027863.227 6   1010553.582 6    771343.49648  21027860.89148
  20680497.938 6    107338.090 6     81743.70748  20680494.98048
  23995960.797 5    816311.336 5    626600.89146  23995959.21546
  23998951.000 6  -1033812.227 6   -689504.93447  23998946.10947
  20959237.180 7    753584.520 7    573443.53148  20959238.84848
  22298048.148 6  -1083734.809 6   -826975.11347  22298047.46547
  24239423.461 2   1439022.047 2   1090382.28945  24239423.17245
  21834933.352 6    527953.008 6    401519.41848  21834931.12948
  23284629.914 6   1648835.613 6   1268581.86748  23284631.63348
 18  5 30  0 40 10.0000000  0 10G03G14G16G22G23G26G27G29G31G32       0.000347013
  23987013.242 6    573828.035 6    408163.61347  23987016.67247
  21030160.867 6   1022629.563 6    780753.34848  21030158.72348
  20680748.984 6    108658.621 6     82772.69148  20680746.10548
  23997770.852 5    825820.285 5    634010.46146  23997768.23446
  23996348.117 6  -1047490.375 6   -700163.21947  23996343.69147
  20960895.156 7    762296.504 7    580232.09049  20960897.13349
  22295334.648 6  -1097994.711 6   -838086.71947  22295334.34447
  24242668.336 1   1456071.410 1   1103667.48845  24242667.96945
  21836062.109 6    533883.910 6    406140.89148  21836059.31348
  23288325.984 6   1668256.852 6   1283715.28548  23288326.88348
 18  5 30  0 40 15.0000000  0 10G03G14G16G22G23G26G27G29G31G32       0.000348711
  23988293.438 6    580555.816 6    413406.03947  23988296.98047
  21032459.859 6   1034711.121 6    790167.53548  21032457.78948
  20681000.758 6    109982.508 6     83804.27748  20680997.72348
  23999580.266 5    835326.887 5    641418.19546  23999577.48846
  23993744.180 6  -1061171.457 6   -710823.80147  23993740.19947
  20962552.633 7    771006.852 7    587019.37549  20962554.34849
  22292620.766 6  -1112255.641 6   -849199.12147  22292620.52047
  24245912.094 1   1473122.031 1   1116953.70345  24245912.16045
  21837189.789 6    539810.508 6    410759.01648  21837187.39548
  23292021.438 6   1687676.598 6   1298847.53948  23292022.60548
 18  5 30  0 40 20.0000000  0 10G03G14G16G22G23G26G27G29G31G32       0.000350401
  23989573.891 6    587286.180 6    418650.48846  23989577.52046
  21034760.227 6   1046798.406 6    799586.19148  21034757.95748
  20681253.828 6    111309.766 6     84838.50848  20681250.34448
  24001388.672 5    844831.273 5    648824.20746  24001385.93446
  23991140.633 6  -1074855.309 6   -721486.56646  23991136.63746
  20964209.844 7    779715.715 7    593805.50448  20964211.30548
  22289906.297 6  -1126517.438 6   -860312.21147  22289905.96947
  24249157.156 1   1490174.047 1   1130240.93045  24249157.46145
  21838317.031 6    545732.980 6    415373.93048  21838314.97348
  23295716.594 6   1707094.996 6   1313978.74248  23295717.55548
 18  5 30  0 40 25.0000000  0 10G03G14G16G22G23G26G27G29G31G32       0.000352089
  23990856.047 6    594019.309 6    423897.08647  23990858.14847
  21037061.242 6   1058891.723 6    809009.55948  21037059.39148
  20681506.555 6    112640.715 6     85875.60548  20681503.52048
  24003197.141 5    854333.711 5    656228.69146  24003194.10246
  23988536.133 6  -1088541.691 6   -732151.26647  23988532.02747
  20965866.641 7    788423.340 7    600590.66049  20965868.27349
  22287192.617 6  -1140779.793 6   -871425.73447  22287191.95747
  24252401.023 1   1507227.762 1   1143529.50845  24252402.88745
  21839443.531 6    551651.629 6    419985.84448  21839441.23448
  23299411.320 6   1726512.328 6   1329109.12148  23299412.78148
 18  5 30  0 40 30.0000000  0 10G03G14G16G22G23G26G27G29G31G32       0.000353769
  23992137.305 6    600754.609 6    429145.37947  23992138.88347
  21039363.773 6   1070990.352 6    818437.05148  21039361.80548
  20681760.641 6    113974.656 6     86915.04348  20681757.48848
  24005004.602 5    863833.523 5    663631.14146  24005001.80946
  23985930.117 6  -1102231.184 6   -742818.41447  23985927.32847
  20967523.547 7    797129.055 7    607374.33248  20967525.25448
  22284478.039 6  -1155043.359 6   -882540.20347  22284478.28147
  24255647.570 1   1524282.387 1   1156818.85545  24255647.94145
  21840568.570 7    557565.746 7    424594.24648  21840566.67648
