     2.11           OBSERVATION DATA    G (GPS)             RINEX VERSION / TYPE
DAT2RINW 3.10 001   TBYT                30MAY18 21:28:12    PGM / RUN BY / DATE 
TBYT                TBYT                                    OBSERVER / AGENCY   
10555               TRIMBLE 4000SSI     Nav 7.32 Sig 3.08   REC # / TYPE / VERS 
00000000            TRM14532.00                             ANT # / TYPE        
----------------------------------------------------------- COMMENT             
Offset from BOTTOM OF ANTENNA to PHASE CENTER is  69.2 mm   COMMENT             
----------------------------------------------------------- COMMENT             
I256                                                        MARKER NAME         
I256                                                        MARKER NUMBER       
 -2967170.1596  5004741.2850  2604970.0855                  APPROX POSITION XYZ 
        1.6732        0.0000        0.0000                  ANTENNA: DELTA H/E/N
*** Above antenna height is from mark to PHASE CENTER.      COMMENT             
----------------------------------------------------------- COMMENT             
Note: The above height is to the antenna phase center.      COMMENT             
      The RINEX specification calls for this to be the      COMMENT             
      height from the bottom surface of the antenna mount   COMMENT             
      to the survey mark.                                   COMMENT             
Note: The above offsets are CORRECTED.                      COMMENT             
Raw Offsets: H=      1.6800 E=      0.0000 N=      0.0000   COMMENT             
----------------------------------------------------------- COMMENT             
     1     1     0                                          WAVELENGTH FACT L1/2
     4    L1    C1    L2    P2                              # / TYPES OF OBSERV 
     5.000                                                  INTERVAL            
  2018     5    30     0    21   35.0000000                 TIME OF FIRST OBS   
  2018     5    30     1    36   10.0000000                 TIME OF LAST OBS    
     0                                                      RCV CLOCK OFFS APPL 
    12                                                      # OF SATELLITES     
     3   628   628   597   597                              PRN / # OF OBS      
     8   340   340   324   324                              PRN / # OF OBS      
    14   894   896   888   888                              PRN / # OF OBS      
    16   896   896   893   893                              PRN / # OF OBS      
    21   293   293   278   278                              PRN / # OF OBS      
    22   552   552   552   552                              PRN / # OF OBS      
    23   802   803   765   765                              PRN / # OF OBS      
    26   893   895   887   887                              PRN / # OF OBS      
    27   896   896   896   896                              PRN / # OF OBS      
    29    92    92    92    92                              PRN / # OF OBS      
    31   896   896   894   894                              PRN / # OF OBS      
    32   601   601   593   593                              PRN / # OF OBS      
                                                            END OF HEADER       
 18  5 30  0 21 35.0000000  0  9  3 14 16 22 26 27 29 31 32
     80314.64616  24051998.46906     52505.49956  24052005.79746
    139955.60317  20881627.97707    102075.00157  20881632.33647
      7539.84418  20978028.07008         0.00000         0.00000
    105573.09516  23923644.17206     20410.30656  23923645.88346
    105566.17516  20921713.83606     28634.42358  20921720.85948
   -137835.32916  23227493.39106    -33269.04656  23227501.37546
    212749.67516  23863416.36706    152539.61856  23863420.99646
     41182.35018  21897405.77308         0.00000         0.00000
     87244.47616  22797234.51606         0.00000         0.00000
 18  5 30  0 21 40.0000000  0  9  3 14 16 22 26 27 29 31 32
     86583.91606  24053191.65606     57390.64146  24053199.27746
    150973.65907  20883724.53107    110660.49747  20883729.13747
      8283.44008  20978169.66408         0.00000         0.00000
    115615.68706  23925554.97706     28235.68546  23925556.80546
    114708.07006  20923453.45306     35757.97748  20923460.52348
   -151225.87606  23224944.89106    -43703.24046  23224952.92246
    229527.29406  23866608.94506    165613.07146  23866613.63346
     48457.59108  21898790.23408         0.00000         0.00000
    107025.75507  22800998.68007         0.00000         0.00000
 18  5 30  0 21 45.0000000  0  9  3 14 16 22 26 27 29 31 32
     92838.83406  24054381.75806     62264.61446  24054389.19146
    161979.57207  20885818.89107    119236.52947  20885823.76647
      9012.83808  20978308.57808         0.00000         0.00000
    125639.83306  23927462.03906     36046.68946  23927463.98446
    123831.67306  20925189.64806     42867.27848  20925196.68448
   -164639.23406  23222392.00006    -54155.21346  23222400.19546
    246290.05006  23869798.77306    178674.93646  23869803.61346
     55709.06708  21900170.09408      3386.77857  21900173.55147
    126789.25707  22804759.46107         0.00000         0.00000
 18  5 30  0 21 50.0000000  0  9  3 14 16 22 26 27 29 31 32
     99080.30606  24055569.25806     67128.09646  24055576.42246
    172974.24207  20887911.09407    127803.80247  20887916.08647
      9728.94708  20978444.81308       220.94757  20978447.70747
    135646.41706  23929366.48406     43844.02646  23929368.53546
    132937.91906  20926922.53106     49963.05448  20926929.52048
   -178074.43806  23219835.90606    -64624.20646  23219843.72746
    263038.83306  23872985.91406    191725.92446  23872990.67246
     62937.71808  21901545.68808      9019.49647  21901549.13347
    146535.90207  22808517.02307         0.00000         0.00000
 18  5 30  0 21 55.0000000  0  9  3 14 16 22 26 27 29 31 32
    105309.03606  24056754.82006     71981.64246  24056761.68046
    183958.42107  20890001.32007    136362.90247  20890006.52347
     10432.47908  20978578.75808       769.16147  20978581.53547
    145636.14606  23931266.97706     51628.22646  23931269.52046
    142027.52106  20928652.12506     57045.86248  20928659.10248
   -191530.80906  23217275.27306    -75109.69246  23217283.28146
    279774.35106  23876170.53906    204766.59346  23876175.39146
     70144.24108  21902917.10208     14634.96247  21902920.44147
    166266.38807  22812271.70307         0.00000         0.00000
 18  5 30  0 22  0.0000000  0  9  3 14 16 22 26 27 29 31 32
    111525.77206  24057937.49206     76825.85146  24057943.91446
    194932.85107  20892089.64107    144914.40547  20892094.94947
     11124.15908  20978710.32808      1308.14347  20978713.05947
    155609.70606  23933165.18806     59399.83746  23933167.75446
    151101.18806  20930378.75806     64116.25148  20930385.65248
   -205007.56706  23214710.71906    -85611.06846  23214718.73846
    296497.30706  23879352.86706    217797.47446  23879357.37946
     77329.36808  21904284.42208     20233.75447  21904287.78547
    185981.43707  22816023.53107         0.00000         0.00000
 18  5 30  0 22  5.0000000  0  9  3 14 16 22 26 27 29 31 32
    117730.47006  24059118.50006     81660.68046  24059125.15646
    205897.45507  20894176.12507    153458.25147  20894181.50447
     11803.95008  20978839.57808      1837.85547  20978842.37947
    165567.12706  23935059.68006     67158.86446  23935062.83246
    160158.90306  20932102.57806     71174.21147  20932109.34047
   -218504.72006  23212142.25806    -96128.33746  23212149.64546
    313207.69006  23882532.82006    230818.55046  23882536.91046
     84493.07708  21905647.73408     25815.85147  21905651.01647
    205681.00107  22819772.34407         0.00000         0.00000
 18  5 30  0 22 10.0000000  0  9  3 14 16 22 26 27 29 31 32
    123923.27106  24060296.94506     86486.23946  24060303.60246
    216852.38507  20896260.64107    161994.56247  20896265.98447
     12471.97708  20978966.69508      2358.39847  20978969.70747
    175508.50406  23936951.57806     74905.39146  23936954.67246
    169200.75606  20933823.08606     78219.81048  20933829.81348
   -232022.11806  23209569.65606   -106661.37146  23209576.66846
    329905.64206  23885710.34406    243829.93446  23885714.44546
     91635.50708  21907006.78908     31381.37547  21907009.97747
    225365.21607  22823518.02307         0.00000         0.00000
 18  5 30  0 22 15.0000000  0  9  3 14 16 22 26 27 29 31 32
    130104.24206  24061473.35906     91302.58346  24061479.52346
    227797.76807  20898343.71907    170523.43647  20898349.13347
     13128.35808  20979091.69508      2869.86547  20979094.88347
    185433.92606  23938840.33606     82639.48046  23938843.37146
    178226.88006  20935540.64806     85253.15247  20935547.38747
   -245559.62506  23206993.78106   -117210.07046  23207000.15646
    346591.24406  23888885.76606    256831.69246  23888889.68046
     98756.78908  21908361.84408     36930.42447  21908364.87947
    245034.19107  22827261.07807      9191.07856  22827267.05546
 18  5 30  0 22 20.0000000  0  9  3 14 16 22 26 27 29 31 32
    136274.13806  24062647.09406     96110.28846  24062653.72746
    238734.28307  20900424.71107    179045.40447  20900430.25447
     13773.81008  20979214.63308      3372.81647  20979217.87947
    195344.14506  23940726.31306     90361.71946  23940728.82046
    187237.98706  20937255.28106     92274.79147  20937261.91447
   -259116.50506  23204413.89806   -127773.85346  23204420.08646
    363265.20706  23892058.60206    269824.38246  23892062.45746
    105857.71008  21909713.18008     42463.61147  21909716.22747
    264688.63807  22831000.86707     24506.23246  22831006.98446
 18  5 30  0 22 25.0000000  0  9  3 14 16 22 26 27 29 31 32
    142433.14506  24063819.21906    100909.51046  24063825.75846
    249662.16907  20902504.03907    187560.64147  20902509.68847
     14408.54308  20979335.36708      3867.41247  20979338.70747
    205239.32206  23942609.00006     98072.25146  23942611.01646
    196234.27507  20938967.23407     99284.88447  20938973.98447
   -272692.55706  23201830.46106   -138352.58246  23201836.43846
    379927.68106  23895229.29706    282808.13346  23895233.38746
    112938.38507  21911060.69507     47981.01847  21911063.76647
    284328.75707  22834738.68007     39810.22246  22834744.80946
 18  5 30  0 22 30.0000000  0  9  3 14 16 22 26 27 29 31 32
    148582.14506  24064989.27306    105700.94446  24064995.97746
    260582.30107  20904582.25007    196069.83147  20904587.87547
     15033.44708  20979453.95308      4354.34947  20979457.36347
    215120.36206  23944489.75006    105771.76046  23944491.93046
    205216.63607  20940676.55507    106284.12747  20940683.31647
   -286286.74606  23199243.21106   -148945.46146  23199248.96546
    396579.56006  23898397.79706    295783.62446  23898401.78146
    119999.65308  21912404.30508     53483.30147  21912407.52747
    303955.41706  22838472.85906     55103.72546  22838479.16446
 18  5 30  0 22 35.0000000  0  9  3 14 16 22 26 27 29 31 32
    154721.17006  24066157.55506    110484.60146  24066164.22346
    271494.68107  20906658.78907    204572.98047  20906664.21547
     15648.55108  20979571.10908      4833.65147  20979574.53147
    224987.29006  23946367.63306    113460.27046  23946370.11746
    214185.07207  20942383.19507    113272.52247  20942389.85247
   -299898.82206  23196652.97706   -159552.13046  23196652.74246
    413220.90806  23901564.46106    308750.90246  23901567.83646
    127041.59008  21913744.41408     58970.52547  21913747.78947
    323568.65606  22842205.64106     70386.76346  22842212.37946
 18  5 30  0 22 40.0000000  0  9  3 14 16 22 26 27 29 31 32
    160850.27406  24067323.82006    115260.52246  24067330.76246
    282399.39007  20908734.09407    213070.15647  20908739.25047
     16253.91608  20979686.53108      5305.36247  20979689.98847
    234840.15006  23948242.69506    121137.81546  23948244.72346
    223139.65607  20944087.15607    120250.11947  20944093.93047
   -313529.45606  23194059.26606   -170173.20346  23194061.18846
    429851.76406  23904729.29706    321710.00446  23904733.08246
    134064.26108  21915080.71908     64442.73447  21915084.28147
    343168.50506  22845935.14106     85659.36546  22845942.07046
 18  5 30  0 22 45.0010000  0  9  3 14 16 22 26 27 29 31 32
    166971.20206  24068488.40306    120030.06746  24068495.22446
    293299.18707  20910808.24707    221563.50047  20910813.13447
     16850.19008  20979799.73908      5769.99047  20979803.37247
    244681.42606  23950115.55206    128806.32846  23950117.32146
    232082.69807  20945788.91107    127218.71947  20945795.74347
   -327180.40006  23191461.20806   -180810.21046  23191465.57946
    446475.94406  23907893.18506    334663.90646  23907897.49746
    141069.65108  21916413.90308     69901.47447  21916417.38447
    362759.42206  22849663.32506    100925.00446  22849670.50146
 18  5 30  0 22 50.0010000  0  9  3 14 16 22 26 27 29 31 32
    173081.45606  24069651.27106    124791.29946  24069657.52846
    304189.63607  20912880.68507    230049.56247  20912885.44247
     17437.03908  20979911.63008      6227.27547  20979915.35647
    254507.09806  23951985.27106    136462.68046  23951987.05246
    241010.53607  20947487.96607    134175.47447  20947494.88447
   -340846.29606  23188860.58306   -191458.95446  23188866.67746
    463086.75906  23911053.83306    347607.39846  23911058.50946
    148054.88808  21917742.88808     75344.51347  21917746.29847
    382333.50606  22853387.93506    116177.53046  22853395.28646
 18  5 30  0 22 55.0010000  0  9  3 14 16 22 26 27 29 31 32
    179183.00506  24070812.60606    129545.74946  24070818.74746
    315073.65907  20914951.70007    238530.61447  20914956.34147
     18015.38908  20980021.54408      6677.94047  20980025.27147
    264319.89506  23953852.48906    144109.01046  23953854.61046
    249925.73608  20949184.42708    141122.38447  20949191.45047
   -354529.03206  23186256.85606   -202120.82546  23186263.52446
    479688.31906  23914213.02806    360543.68146  23914217.39946
    155022.15808  21919068.92708     80773.55747  21919072.33747
    401895.42706  22857110.51306    131420.58246  22857117.81746
 18  5 30  0 23  0.0010000  0  9  3 14 16 22 26 27 29 31 32
    185276.07106  24071972.09106    134293.59146  24071978.23146
    325951.49307  20917021.72407    247006.84247  20917026.20047
     18585.45208  20980130.08308      7122.14647  20980133.66947
    274120.04606  23955716.81706    151745.49146  23955718.61046
    258828.50508  20950878.32508    148059.60747  20950885.39647
   -368228.41106  23183649.94206   -212795.67446  23183656.93146
    496280.79806  23917370.30206    373472.87446  23917375.15346
    161971.68708  21920391.27808     86188.76947  21920394.61847
    421445.40206  22860830.95006    146654.32446  22860838.26746
 18  5 30  0 23  5.0010000  0  9  3 14 16 22 26 27 29 31 32
    191360.53806  24073129.91906    139034.73346  24073135.80246
    336822.98707  20919090.77807    255478.13047  20919095.02147
     19147.08108  20980236.92708      7559.77647  20980240.50147
    283907.41806  23957579.52106    159372.00546  23957581.80646
    267718.70408  20952570.13808    154987.03747  20952577.19647
   -381944.49906  23181039.73106   -223483.54846  23181046.67346
    512864.08005  23920526.03605    386394.92146  23920531.05246
    168903.33708  21921710.44208     91590.05247  21921713.68847
    440983.27207  22864548.70807    161878.63546  22864556.17746
 18  5 30  0 23 10.0010000  0  9  3 14 16 22 26 27 29 31 32
    197436.96806  24074285.93506    143769.60146  24074292.01746
    347688.73507  20921158.51307    263944.94247  20921162.69647
     19700.86607  20980342.19207      7991.29247  20980345.82547
    293682.59406  23959439.51306    166989.01446  23959442.04446
    276596.93108  20954259.73908    161905.13347  20954266.78647
   -395676.70006  23178426.15306   -234183.96046  23178433.08346
    529438.74305  23923680.16905    399310.24646  23923685.22046
    175817.69108  21923026.09108     96977.85847  21923029.36047
    460509.66307  22868264.52807    177094.00146  22868271.97446
 18  5 30  0 23 15.0010000  0  9  3 14 16 22 26 27 29 31 32
    203505.11206  24075440.72406    148498.02846  24075446.48946
    358548.49307  20923224.91907    272407.09247  20923228.89247
     20246.56107  20980446.16907      8416.51247  20980449.66147
    303445.31206  23961297.54406    174596.31846  23961300.06346
    285462.91908  20955946.84108    168813.69647  20955953.89947
   -409425.25506  23175810.36406   -244897.11346  23175817.68146
    546004.53505  23926832.47405    412218.65946  23926837.41946
    182714.52708  21924338.66908    102352.02147  21924341.90347
    480024.27707  22871978.02807    192300.18346  22871985.43846
 18  5 30  0 23 20.0010000  0  9  3 14 16 22 26 27 29 31 32
    209565.37306  24076593.98906    153220.30546  24076600.38846
    369402.67907  20925290.43507    280864.89247  20925294.44247
     20784.56407  20980548.29407      8835.73747  20980551.70447
    313195.96406  23963152.38006    182194.22046  23963155.48546
    294317.07408  20957631.68508    175713.03847  20957638.79047
   -423189.73506  23173191.19206   -255622.68446  23173198.68546
    562561.84806  23929983.03606    425120.45946  23929988.06346
    189594.26108  21925647.73108    107712.85547  21925651.06047
    499527.53807  22875689.29407    207497.51646  22875696.78646
 18  5 30  0 23 25.0010000  0  9  3 14 16 22 26 27 29 31 32
    215618.12206  24077745.56006    157936.73246  24077752.08746
    380251.65707  20927354.94207    289318.63747  20927359.07947
     21315.26907  20980649.54407      9249.27247  20980653.04847
    322934.90306  23965005.78606    189783.00246  23965009.12646
    303159.76008  20959314.45808    182603.44247  20959321.57547
   -436969.76006  23170569.09906   -266360.35746  23170577.03646
    579111.03005  23933132.53605    438015.92946  23933136.69646
    196457.27008  21926954.51308    113060.65447  21926957.71247
    519019.80506  22879398.88806    222686.28746  22879406.31046
 18  5 30  0 23 30.0010000  0  9  3 14 16 22 26 27 29 31 32
    221663.06305  24078896.21605    162647.18146  24078903.07546
    391095.19106  20929418.79406    297768.24746  20929421.47846
     21838.37006  20980749.26306      9656.99847  20980751.52447
    332661.88405  23966857.16105    197362.59346  23966859.42346
    311990.70607  20960995.19207    189484.80947  20961001.74347
   -450765.56605  23167944.02105   -277110.21246  23167949.68146
    595651.79405  23936280.30205    450904.95045  23936283.85345
    203303.28707  21928257.07507    118395.32346  21928259.11446
    538500.79506  22883106.18506    237866.38446  22883112.25546
 18  5 30  0 23 35.0010000  0  9  3 14 16 22 26 27 29 31 32
    227701.34205  24080045.57505    167352.42746  24080051.92746
    401934.35406  20931481.16906    306214.43246  20931484.05246
     22355.04306  20980847.69206     10059.69047  20980850.23547
    342377.99905  23968705.86405    204933.68646  23968708.47846
    320811.00507  20962673.72407    196357.85747  20962680.36847
   -464576.06005  23165316.37205   -287871.56146  23165322.46646
    612185.29804  23939426.00504    463788.29545  23939429.34545
    210133.43607  21929556.67707    123717.60447  21929558.83347
    557971.63806  22886811.61406    253038.54746  22886818.00146
 18  5 30  0 23 40.0010000  0  9  3 14 16 22 26 27 29 31 32
    233732.68005  24081193.05205    172052.19346  24081199.56746
    412768.89606  20933543.26306    314656.95046  20933546.56746
     22864.98906  20980944.87206     10457.06947  20980947.69647
    352082.96405  23970552.86405    212496.01446  23970555.73546
    329620.40507  20964350.06707    203222.34347  20964356.96247
   -478401.42505  23162685.34905   -298644.52846  23162692.23146
    628711.28604  23942570.52104    476665.69445  23942574.07145
    216947.46607  21930853.26307    129027.25446  21930855.98146
    577432.04106  22890514.59906    268202.50046  22890521.14946
 18  5 30  0 23 45.0010000  0  9  3 14 16 22 26 27 29 31 32
    239756.57205  24082339.16905    176746.11746  24082345.93146
    423598.31506  20935603.71606    323095.43946  20935607.61846
     23367.69406  20981040.38006     10848.76847  20981043.35647
    361776.25405  23972397.73905    220049.21046  23972400.61046
    338418.38807  20966024.52807    210077.90047  20966031.48147
   -492242.19705  23160051.48105   -309429.55046  23160059.03246
    645229.22304  23945714.40304    489536.77345  23945718.78645
    223744.89207  21932147.06007    134323.93147  21932150.00147
    596881.50006  22894215.65306    283357.89346  22894222.14646
 18  5 30  0 23 50.0010000  0  9  3 14 16 22 26 27 29 31 32
    245773.47905  24083484.12205    181434.60046  24083491.01746
    434423.10106  20937663.43506    331530.30946  20937667.33746
     23863.64206  20981134.79406     11235.19547  20981137.65347
    371458.37505  23974240.11405    227593.69346  23974242.93846
    347205.44407  20967696.35607    216924.93247  20967703.23947
   -506097.86805  23157415.24705   -320226.19746  23157422.42346
    661739.54804  23948856.61404    502401.91645  23948861.20845
    230526.17207  21933437.61407    139608.01947  21933440.39247
    616320.48606  22897914.84106    298505.11646  22897921.40346
 18  5 30  0 23 55.0010000  0  9  3 14 16 22 26 27 29 31 32
    251783.72105  24084628.42705    186117.88946  24084634.72046
    445243.52906  20939722.69206    339961.79346  20939726.73546
     24353.11706  20981227.71606     11616.58547  20981230.48147
    381129.61705  23976081.01305    235129.70446  23976083.94246
    355981.85107  20969366.53607    223763.67747  20969373.36847
   -519968.11105  23154775.73905   -331034.20046  23154782.69246
    678242.61704  23951996.32504    515261.41945  23952000.79045
    237291.64007  21934724.81707    144879.79547  21934727.39647
    635749.30206  22901612.13806    313644.42646  22901618.79446
 18  5 30  0 24  0.0010000  0  9  3 14 16 22 26 27 29 31 32
    257787.44405  24085770.76305    190796.11746  24085777.12646
    456059.80306  20941780.74706    348390.04946  20941784.70846
     24836.29006  20981319.90306     11993.07947  20981322.57547
    390790.12705  23977919.28605    242657.36446  23977921.95846
    364747.76607  20971034.68507    230594.25647  20971041.32947
   -533852.74505  23152133.38005   -341853.39646  23152140.45046
    694738.54704  23955136.18504    528115.39445  23955140.40345
    244041.47507  21936009.39607    150139.40447  21936011.93847
    655168.10506  22905307.47406    328775.94246  22905313.75546
 18  5 30  0 24  5.0010000  0  9  3 14 16 22 26 27 29 31 32
    263784.66605  24086912.16105    195469.27846  24086918.72446
    466871.91806  20943838.37206    356815.07046  20943842.27446
     25313.19906  20981410.70006     12364.69947  20981413.34947
    400439.95305  23979755.88805    250176.70846  23979758.00946
    373503.23407  20972700.71607    237416.70147  20972707.36047
   -547751.72405  23149488.65305   -352683.76546  23149495.21646
    711227.37504  23958272.93504    540963.85945  23958277.35345
    250775.69307  21937290.98107    155386.84447  21937293.34947
    674576.92606  22909000.99706    343899.69346  22909007.24346
 18  5 30  0 24 10.0010000  0  9  3 14 16 22 26 27 29 31 32
    269776.55405  24088051.92705    200138.28246  24088059.03246
    477680.97406  20945895.13806    365237.71247  20945899.18147
     25784.96906  20981500.41106     12732.31847  20981503.00147
    410080.18105  23981590.28605    257688.56646  23981592.26746
    382249.35807  20974365.13807    244231.86547  20974371.72447
   -561663.90505  23146840.98105   -363524.41946  23146847.62646
    727710.20404  23961410.88004    553807.61645  23961415.86045
    257495.42907  21938569.59907    160623.00047  21938571.95447
    693976.84906  22912692.49706    359016.50946  22912698.86046
 18  5 30  0 24 15.0010000  0  9  3 14 16 22 26 27 29 31 32
    275762.95605  24089191.22405    204803.00646  24089198.17746
    488486.94006  20947951.73906    373657.94947  20947955.88847
     26251.52806  20981589.27806     13095.87147  20981591.89247
    419710.68806  23983423.29406    265192.84846  23983425.13446
    390986.05407  20976027.75507    251039.68347  20976034.36447
   -575589.34205  23144191.42705   -374375.39946  23144197.79046
    744186.93105  23964546.54405    566646.63345  23964550.58745
    264200.60307  21939845.57507    165847.80947  21939847.76747
    713367.81906  22916382.44206    374126.35346  22916389.05246
 18  5 30  0 24 20.0010000  0  9  3 14 16 22 26 27 29 31 32
    281744.30305  24090329.68505    209463.80846  24090335.86046
    499290.18106  20950007.36406    382076.06147  20950011.60647
     26713.25106  20981677.03606     13455.65847  20981679.77847
    429331.92005  23985253.98905    272689.90246  23985255.68846
    399713.71007  20977688.54407    257840.45647  20977695.10647
   -589527.64105  23141538.73905   -385236.40046  23141544.52846
    760658.03305  23967680.55205    579481.25945  23967685.49745
    270891.61107  21941118.68507    171061.58447  21941120.66547
    732750.23506  22920070.97406    389229.52946  22920077.72446
 18  5 30  0 24 25.0010000  0  9  3 14 16 22 26 27 29 31 32
    287719.96905  24091466.98105    214120.17546  24091473.08746
    510090.09006  20952062.41906    390491.57347  20952066.86047
     27169.51806  20981763.85606     13811.19247  20981766.62247
    438943.24105  23987082.52105    280179.23346  23987084.23146
    408431.69807  20979347.41907    264633.69147  20979353.94647
   -603479.40605  23138884.04405   -396107.91046  23138890.44246
    777122.80005  23970813.11405    592310.94645  23970818.31745
    277567.81307  21942389.17707    176263.82147  21942391.18147
    752123.41806  22923757.04406    404325.50546  22923763.99746
 18  5 30  0 24 30.0010000  0  9  3 14 16 22 26 27 29 31 32
    293690.41805  24092602.75505    218772.45946  24092608.73146
    520887.16706  20954117.00506    398904.87947  20954121.48147
     27620.84206  20981849.78606     14162.87547  20981852.55247
    448545.14705  23988909.78605    287661.23646  23988911.62646
    417140.50907  20981004.65307    271419.77847  20981011.16947
   -617444.10005  23136226.56705   -406989.46946  23136233.01346
    793581.70405  23973945.13005    605136.05845  23973949.71245
    284229.75807  21943656.85607    181454.94647  21943658.84947
    771487.88905  22927441.90305    419414.69746  22927449.02146
 18  5 30  0 24 35.0010000  0  9  3 14 16 22 26 27 29 31 32
    299655.56805  24093738.14605    223420.60346  24093743.74746
    531681.30906  20956171.60606    407315.89647  20956176.10647
     28067.11806  20981934.74706     14510.62447  20981937.54847
    458137.52705  23990735.12205    295135.81546  23990737.16146
    425840.03507  20982660.02807    278198.63047  20982666.55647
   -631421.83805  23133567.02105   -417881.20246  23133573.80646
    810034.61605  23977076.34105    617956.50045  23977081.67345
    290877.31507  21944921.82507    186634.85947  21944923.94647
    790843.54805  22931125.26305    434497.01646  22931132.38046
 18  5 30  0 24 40.0010000  0  9  3 14 16 22 26 27 29 31 32
    305615.41906  24094872.15306    228064.63446  24094877.47446
    542472.52606  20958224.66106    415724.63547  20958228.99747
     28508.33106  20982018.73906     14854.42947  20982021.49347
    467720.41605  23992557.95005    302602.98746  23992560.22446
    434530.28707  20984313.86407    284970.25547  20984320.47447
   -645412.57805  23130904.28605   -428783.07146  23130910.80246
    826481.60305  23980206.06005    630772.33645  23980210.99345
    297510.53607  21946184.11407    191803.59947  21946186.31747
    810190.38805  22934807.12205    449572.46046  22934813.95446
 18  5 30  0 24 45.0010000  0  9  3 14 16 22 26 27 29 31 32
    311570.61405  24096005.70005    232705.04346  24096011.33746
    553261.46406  20960277.80206    424131.59947  20960282.07947
     28945.13406  20982101.92706     15194.79647  20982104.65747
    477294.38805  23994379.85605    310063.22346  23994382.71646
    443211.88407  20985965.90307    291735.13447  20985972.58347
   -659415.63505  23128239.38805   -439694.53646  23128245.85646
    842923.23305  23983335.20805    643583.99045  23983340.30645
    304130.07707  21947443.81707    196961.67747  21947446.04447
    829529.05405  22938487.36405    464641.53746  22938493.90346
 18  5 30  0 24 50.0010000  0  9  3 14 16 22 26 27 29 31 32
    317521.42106  24097137.87206    237342.04246  24097143.87246
    564048.39806  20962330.62206    432537.00047  20962334.88847
     29377.83006  20982184.24706     15531.96247  20982187.01347
    486859.71205  23996200.20005    317516.71646  23996202.93146
    451885.12807  20987616.51307    298493.50447  20987623.15747
   -673430.77705  23125572.56705   -450615.42546  23125578.63846
    859359.81705  23986462.90305    656391.71845  23986467.04045
    310736.19307  21948700.87207    202109.29547  21948703.19247
    848859.77606  22942165.52806    479704.42546  22942171.93846
 18  5 30  0 24 55.0010000  0  9  3 14 16 22 26 27 29 31 32
    323467.28306  24098269.53606    241975.17146  24098275.03246
    574832.75406  20964383.00506    440940.39247  20964387.13047
     29805.80206  20982265.53606     15865.44647  20982268.34947
    496415.86505  23998018.72405    324963.07046  23998021.51346
    460549.43707  20989265.36407    305244.90947  20989271.97447
   -687458.50505  23122903.16905   -461546.11546  23122909.52146
    875790.81905  23989589.23105    669195.08745  23989593.08745
    317328.37907  21949955.32507    207246.06247  21949957.70447
    868182.03206  22945842.89606    494760.71746  22945849.04846
 18  5 30  0 25  0.0010000  0  9  3 14 16 22 26 27 29 31 32
    329409.00306  24099399.84906    246605.07046  24099405.35646
    585615.35406  20966434.67706    449342.41847  20966438.79047
     30229.89106  20982346.29406     16195.90947  20982349.24747
    505963.63505  23999835.44205    332402.88846  23999837.92746
    469205.60407  20990912.23907    311989.97147  20990918.79047
   -701497.99205  23120231.76305   -472485.97246  23120238.41946
    892217.00205  23992715.07505    681994.70146  23992719.00146
    323907.41407  21951207.06707    212372.58747  21951209.39947
    887496.62806  22949518.34906    509811.04146  22949524.52446
 18  5 30  0 25  5.0010000  0  9  3 14 16 22 26 27 29 31 32
    335346.85706  24100529.81706    251231.96246  24100535.61846
    596396.48606  20968486.11406    457743.29747  20968490.29847
     30650.36706  20982426.38806     16523.54947  20982429.54047
    515503.23505  24001651.02105    339836.35046  24001653.69246
    477853.89606  20992558.06006    318728.90147  20992564.61047
   -715548.95405  23117557.88805   -483434.78346  23117564.68546
    908638.55605  23995840.18505    694790.73945  23995844.86045
    330473.55107  21952456.66907    217489.06547  21952459.01347
    906803.80206  22953192.59906    524855.56646  22953198.28246
 18  5 30  0 25 10.0010000  0  9  3 14 16 22 26 27 29 31 32
    341280.48705  24101658.79405    255855.56246  24101665.59146
    607175.80706  20970537.59106    466142.75847  20970541.69247
     31066.91706  20982505.73106     16848.12847  20982508.95447
    525034.39105  24003464.81005    347263.25146  24003467.04846
    486494.00806  20994201.97406    325461.45947  20994208.53647
   -729611.71105  23114881.72405   -494392.79446  23114888.42746
    925055.31005  23998963.83305    707583.02545  23998968.55645
    337026.53307  21953703.53607    222595.29447  21953705.64647
    926103.23806  22956864.66106    539894.06946  22956870.20446
 18  5 30  0 25 15.0010000  0  9  3 14 16 22 26 27 29 31 32
    347210.24505  24102787.37205    260476.16546  24102794.19246
    617953.70106  20972588.39606    474541.11147  20972592.50947
     31479.89106  20982584.09906     17169.92547  20982587.28647
    534557.47405  24005277.34105    354683.84846  24005279.25146
    495126.29607  20995844.72407    332187.91847  20995851.21647
   -743685.84605  23112203.47405   -505359.67346  23112210.04846
    941467.58505  24002087.09905    720371.80645  24002091.43545
    343566.72307  21954948.33307    227691.55147  21954950.44247
    945395.27106  22960535.98906    554926.80646  22960541.39246
 18  5 30  0 25 20.0010000  0  9  3 14 16 22 26 27 29 31 32
    353136.81405  24103914.71605    265094.27846  24103921.24346
    628730.76706  20974639.19206    482938.82347  20974643.23547
     31889.91906  20982662.16106     17489.42747  20982665.25547
    544073.03305  24007088.03605    362098.55146  24007089.88846
    503751.34507  20997485.98907    338908.73147  20997492.43547
   -757770.76105  23109523.26305   -516334.92846  23109529.88446
    957875.94805  24005209.41905    733157.53745  24005214.31745
    350094.67207  21956190.56007    232778.26347  21956192.68147
    964680.55406  22964206.09106    569954.30446  22964211.47046
 18  5 30  0 25 25.0010000  0  9  3 14 16 22 26 27 29 31 32
    359060.35805  24105042.02805    269710.02246  24105048.82546
    639507.25606  20976690.15306    491336.08347  20976693.98547
     32297.21906  20982739.58306     17806.80747  20982742.79447
    553581.29905  24008897.57505    369507.55146  24008899.39246
    512369.40107  20999126.01307    345624.09747  20999132.58747
   -771866.16705  23106840.70805   -527318.35446  23106847.51746
    974280.61505  24008331.42705    745940.39245  24008335.49345
    356610.70207  21957430.43507    237855.68647  21957432.64947
    983959.27906  22967874.61406    584976.67946  22967879.98146
 18  5 30  0 25 30.0010000  0  9  3 14 16 22 26 27 29 31 32
    364980.82505  24106168.95005    274323.36646  24106174.88046
    650283.05806  20978740.67706    499732.80447  20978744.54447
     32701.69606  20982816.69206     18121.98447  20982819.81047
    563082.17106  24010705.80206    376910.79546  24010707.10346
    520980.36007  21000764.63007    352333.93647  21000771.25147
   -785972.16205  23104156.81705   -538310.04146  23104163.67746
    990681.50805  24011452.60605    758720.30045  24011456.95445
    363114.74507  21958668.20807    242923.76447  21958670.34147
   1003231.37206  22971541.73106    599993.88146  22971547.04046
 18  5 30  0 25 35.0010000  0  9  3 14 16 22 26 27 29 31 32
    370898.17805  24107294.89605    278934.29846  24107300.94246
    661058.19406  20980791.12206    508129.00947  20980794.88447
     33103.33606  20982892.96606     18434.94947  20982896.10647
    572575.67806  24012512.19206    384308.31746  24012513.20046
    529584.22507  21002401.91907    359038.24447  21002408.80247
   -800088.73405  23101470.23905   -549309.96046  23101477.14646
   1007078.58205  24014572.36405    771497.24045  24014576.14945
    369606.73907  21959903.72407    247982.45247  21959905.86847
   1022496.79806  22975207.71606    615005.89646  22975212.87246
 18  5 30  0 25 40.0010000  0  9  3 14 16 22 26 27 29 31 32
    376812.89605  24108420.57505    283543.17246  24108426.13046
    671833.13406  20982841.49706    516525.05846  20982845.14246
     33502.60106  20982968.96606     18746.06347  20982972.11847
    582062.26605  24014317.39605    391700.45546  24014318.22846
    538181.46507  21004037.90307    365737.38647  21004044.93847
   -814215.36505  23098782.48105   -560317.71646  23098788.79846
   1023472.36505  24017692.23105    784271.61245  24017696.80245
    376087.17507  21961136.77807    253032.13647  21961138.91147
   1041756.05206  22978872.73106    630013.09046  22978878.38046
 18  5 30  0 25 45.0010000  0  9  3 14 16 22 26 27 29 31 32
    382725.17705  24109545.84105    288150.13846  24109551.44246
    682608.04506  20984891.73906    524921.08746  20984895.14946
     33899.73306  20983044.73906     19055.51247  20983047.84547
    591542.12705  24016121.38005    399087.35846  24016122.11846
    546772.26007  21005672.70007    372431.50647  21005679.71247
   -828351.87105  23096092.00505   -571333.16546  23096098.49746
   1039863.04605  24020811.30205    797043.55845  24020816.15345
    382556.26507  21962367.73907    258072.98247  21962369.80247
   1061009.30306  22982536.48106    645015.61546  22982542.18846
 18  5 30  0 25 50.0010000  0  9  3 14 16 22 26 27 29 31 32
    388635.81105  24110670.17705    292755.81646  24110675.97846
    693383.74706  20986942.22406    533317.73346  20986945.52846
     34295.53406  20983119.73906     19363.92747  20983122.92747
    601016.02805  24017924.07505    406469.60546  24017925.15346
    555357.39407  21007306.25507    379121.22047  21007313.36047
   -842497.41605  23093400.45005   -582355.66546  23093407.14246
   1056251.35405  24023929.98105    809813.65845  24023934.90345
    389014.80707  21963596.84107    263105.61747  21963598.90347
   1080257.34106  22986199.38006    660014.06246  22986205.34546
 18  5 30  0 25 55.0010000  0  9  3 14 16 22 26 27 29 31 32
    394544.18105  24111794.83305    297359.73246  24111800.55246
    704159.62306  20988992.73906    541714.51846  20988996.17346
     34689.38206  20983194.87206     19670.82147  20983198.02447
    610483.42805  24019725.74705    413846.79046  24019727.15346
    563936.28307  21008938.69207    385806.07047  21008945.84547
   -856652.60105  23090706.51305   -593385.67246  23090712.95846
   1072636.71505  24027047.56705    822581.46745  24027052.73545
    395462.19707  21964823.70807    268129.55947  21964825.97047
   1099499.54506  22989860.77806    675007.97846  22989866.68546
 18  5 30  0 26  0.0010000  0  9  3 14 16 22 26 27 29 31 32
    400450.25505  24112918.41905    301961.86546  24112924.32546
    714935.67106  20991043.35606    550111.43446  20991046.81346
     35081.21106  20983269.40306     19976.14147  20983272.56747
    619944.26905  24021525.66905    421218.85946  24021527.68546
    572508.86307  21010570.11407    392486.00347  21010577.32547
   -870817.43805  23088011.20005   -604423.19946  23088017.51746
   1089019.07505  24030165.22405    835346.93745  24030170.01745
    401898.43207  21966048.23107    273144.81047  21966050.54047
   1118735.91105  22993521.27805    689997.34746  22993527.34946
 18  5 30  0 26  5.0010000  0  9  3 14 16 22 26 27 29 31 32
    406354.58205  24114042.66905    306562.63946  24114048.28246
    725712.42906  20993094.06006    558508.90546  20993097.73946
     35471.60106  20983343.62206     20280.34247  20983346.82147
    629399.04905  24023324.79405    428586.22146  24023326.98546
    581075.69407  21012200.18507    399161.45647  21012207.37247
   -884991.35305  23085313.51305   -615467.79346  23085319.75946
   1105398.99405  24033282.29405    848110.50645  24033286.94645
    408324.05107  21967271.25507    278151.78847  21967273.77447
   1137966.95705  22997181.03605    704982.57646  22997187.02446
 18  5 30  0 26 10.0010000  0  9  3 14 16 22 26 27 29 31 32
    412256.51605  24115165.54405    311161.54446  24115170.72446
    736489.25706  20995144.81006    566906.42946  20995148.68846
     35859.89406  20983417.49706     20582.90847  20983420.77847
    638847.13305  24025122.60605    435948.37246  24025124.56346
    589636.12707  21013829.36407    405831.91947  21013836.58747
   -899174.86405  23082614.39605   -626519.88146  23082620.32546
   1121775.79804  24036398.87204    860871.65845  24036402.99745
    414738.41407  21968491.94207    283149.99547  21968494.74347
   1157192.03806  23000839.54406    719963.16146  23000845.47446
 18  5 30  0 26 15.0010000  0  9  3 14 16 22 26 27 29 31 32
    418156.87405  24116288.35605    315759.21646  24116294.04046
    747266.96606  20997195.80206    575304.64546  20997199.75146
     36246.94506  20983491.31706     20884.50547  20983494.41147
    648289.33305  24026919.21605    443305.92646  24026921.06746
    598190.96807  21015457.33307    412498.03047  21015464.42747
   -913367.36505  23079914.19205   -637578.98046  23079920.18146
   1138150.33005  24039514.66105    873631.03245  24039518.76345
    421142.35807  21969710.38807    288140.08547  21969713.18847
   1176411.96806  23004496.97406    734939.73046  23004503.11446
 18  5 30  0 26 20.0010000  0  9  3 14 16 22 26 27 29 31 32
    424056.40105  24117410.93505    320356.25046  24117416.60646
    758046.36506  20999247.03606    583704.17246  20999251.13846
     36633.49906  20983564.85606     21185.71747  20983567.95047
    657726.42305  24028715.13805    450659.49146  24028717.04846
         0.00000  21017084.42706         0.00000         0.00000
   -927567.95505  23077211.95005   -648644.38346  23077217.96246
   1154523.30205  24042630.66105    886389.16445  24042634.62245
    427536.67707  21970927.09107    293122.67047  21970929.93847
   1195627.49005  23008153.63005    749912.85946  23008159.72446
 18  5 30  0 26 25.0010000  0  8  3 14 16 22 27 29 31 32
    429954.11605  24118533.32505    324951.86846  24118538.91546
         0.00000  21001299.91106         0.00000         0.00000
     37018.53206  20983637.98106     21485.73947  20983641.01747
    667157.37705  24030509.90305    458008.28746  24030512.28246
   -941777.60005  23074508.20005   -659716.84146  23074514.17746
   1170893.76505  24045745.85605    899145.37045  24045750.01745
    433920.36007  21972142.06707    298096.96247  21972144.86847
   1214837.64206  23011809.35606    764881.79746  23011815.15746
 18  5 30  0 26 30.0010000  0  9  3 14 16 22 26 27 29 31 32
    435849.64705  24119655.27105    329545.79746  24119661.03646
         0.00000  21003350.14606         0.00000         0.00000
     37401.71306  20983711.03606     21784.32047  20983713.98947
    676581.82905  24032303.45005    465352.01946  24032306.23946
         0.00000  21020334.91107         0.00000         0.00000
   -955996.66205  23071801.98105   -670796.62346  23071807.93546
   1187261.29205  24048860.71605    911899.27245  24048866.42345
    440293.07907  21973354.51307    303062.70947  21973357.12647
   1234042.01806  23015463.79406    779846.23646  23015469.82946
 18  5 30  0 26 35.0010000  0  9  3 14 16 22 26 27 29 31 32
    441742.96305  24120776.42705    334137.98546  24120782.61446
      8622.32106  21005401.23906         0.00000         0.00000
     37782.96206  20983783.31706     22081.39647  20983786.30647
    685999.74705  24034095.34905    472690.65946  24034098.18546
      6822.90007  21021958.48107         0.00000         0.00000
   -970225.16205  23069094.66105   -681883.76846  23069100.49746
   1203625.86405  24051974.29405    924650.88045  24051978.51345
    446654.82307  21974565.35607    308019.91347  21974567.72447
   1253240.59406  23019117.12206    794806.14946  23019122.94646
 18  5 30  0 26 40.0010000  0  9  3 14 16 22 26 27 29 31 32
    447635.15605  24121897.60605    338729.31346  24121903.78246
     19404.25706  21007453.31706         0.00000         0.00000
     38163.42706  20983855.96606     22377.86547  20983858.86047
    695412.22005  24035886.91105    480025.04346  24035889.41946
     15349.51507  21023581.00507         0.00000         0.00000
   -984461.94205  23066385.50505   -692977.35746  23066391.52846
   1219988.64805  24055087.51305    937401.06345  24055092.20045
    453006.68207  21975773.90307    312969.41347  21975776.30647
   1272434.47906  23022769.64606    809762.40546  23022775.77446
 18  5 30  0 26 45.0010000  0  9  3 14 16 22 26 27 29 31 32
    453525.86005  24123018.61405    343319.48046  24123024.74346
     30187.17106  21009505.06006         0.00000         0.00000
     38542.72406  20983928.23106     22673.42147  20983931.17347
    704818.90505  24037677.14605    487354.91946  24037679.54846
     23870.64707  21025202.77107         0.00000         0.00000
   -998707.35705  23063674.56005   -704077.68146  23063680.26746
   1236349.24504  24058200.72404    950149.57845  24058206.68845
    459348.28707  21976980.70807    317910.92547  21976983.00547
   1291623.30306  23026421.06006    824714.72746  23026427.27146
 18  5 30  0 26 50.0010000  0  9  3 14 16 22 26 27 29 31 32
    459415.64605  24124139.96605    347908.92346  24124146.63446
     40971.61406  21011557.43506         0.00000         0.00000
     38921.41306  20984000.17706     22968.50347  20984003.22447
    714220.31405  24039465.86405    494680.68946  24039468.20846
     32386.81407  21026823.41907         0.00000         0.00000
  -1012960.86205  23060962.29405   -715184.30146  23060968.30646
   1252708.13204  24061314.37204    962896.77045  24061319.51745
    465680.18407  21978185.63807    322844.87047  21978188.06347
   1310807.59206  23030071.81706    839663.52046  23030078.21646
 18  5 30  0 26 55.0010000  0  9  3 14 16 22 26 27 29 31 32
    465304.32705  24125260.38005    352497.49546  24125267.33346
     51757.47206  21013609.65306         0.00000         0.00000
     39299.33006  20984072.25506     23262.98447  20984075.20847
    723616.27005  24041253.86405    502002.19946  24041256.06746
     40897.86707  21028442.96607         0.00000         0.00000
  -1027222.57605  23058248.16905   -726297.32046  23058254.00546
   1269065.22105  24064427.27805    975642.55145  24064432.62245
    472002.25307  21979388.63807    327771.15547  21979391.15747
   1329987.18806  23033721.51306    854608.65246  23033727.66546
 18  5 30  0 27  0.0010000  0  9  3 14 16 22 26 27 29 31 32
    471192.19505  24126380.68505    357085.43646  24126387.15346
     62545.04306  21015662.59106         0.00000         0.00000
     39676.79306  20984144.09106     23557.11047  20984146.95047
    733007.12605  24043041.16105    509319.74146  24043043.31746
     49404.10507  21030061.42707         0.00000         0.00000
  -1041492.18405  23055533.34905   -737416.48346  23055538.56346
   1285420.76004  24067539.63004    988387.12145  24067543.82545
    478314.80607  21980589.98107    332690.02247  21980592.61847
   1349162.39606  23037370.41106    869550.35146  23037375.87246
 18  5 30  0 27  5.0010000  0  9  3 14 16 22 26 27 29 31 32
    477079.08505  24127500.90305    361672.61646  24127507.79846
     73334.15206  21017715.61406      6723.68257  21017720.02147
     40053.59206  20984215.75506     23850.72147  20984218.79047
    742392.63505  24044827.43505    516633.11446  24044829.73146
     57905.33107  21031679.20007      1322.74657  21031685.96247
  -1055769.87005  23052816.15305   -748541.95446  23052821.88446
   1301774.57205  24070651.59905   1001130.33245  24070654.90345
    484617.65807  21981789.25507    337601.32847  21981791.84547
   1368333.02506  23041018.69206    884488.47046  23041024.54046
 18  5 30  0 27 10.0010000  0  9  3 14 16 22 26 27 29 31 32
    482965.14705  24128620.93505    366259.16146  24128627.41546
     84124.95306  21019769.21606     15132.10247  21019773.36447
     40429.90706  20984287.23906     24143.95347  20984290.28647
    751772.95105  24046612.52105    523942.45746  24046614.71246
     66401.69407  21033296.09107      7943.29247  21033302.86447
  -1070055.46605  23050097.61405   -759673.58946  23050103.19246
   1318126.82905  24073763.09105   1013872.35645  24073766.77145
    490910.96207  21982986.94207    342505.20247  21982989.59147
   1387499.21505  23044665.74705    899423.14446  23044671.70046
 18  5 30  0 27 15.0010000  0  9  3 14 16 22 26 27 29 31 32
    488849.91505  24129740.83305    370844.69246  24129747.43146
     94916.95706  21021822.79406     23541.46647  21021827.08347
     40805.29906  20984358.68506     24436.46747  20984361.81347
    761147.65905  24048396.34905    531247.41546  24048398.41146
     74892.73507  21034911.92707     14559.69647  21034918.74747
  -1084349.32905  23047377.56005   -770811.66146  23047382.91546
   1334477.04504  24076874.31704   1026612.76945  24076878.32545
    497194.26907  21984182.77107    347401.28147  21984185.57147
   1406660.50206  23048311.91106    914354.01146  23048318.01746
 18  5 30  0 27 20.0010000  0  9  3 14 16 22 26 27 29 31 32
    494734.40705  24130860.56005    375430.00246  24130866.72446
    105711.19306  21023876.77106     31952.56647  21023881.06047
     41180.75906  20984429.96606     24729.03047  20984432.97847
    770517.72605  24050179.19205    538548.75546  24050180.85646
     83379.49607  21036526.74707     21172.76747  21036533.68847
  -1098650.51605  23044656.46605   -781955.44546  23044661.50546
   1350826.23705  24079986.70805   1039352.38745  24079990.59945
    503468.60207  21985376.59107    352290.36647  21985379.23947
   1425817.90405  23051957.30205    929281.86746  23051963.81746
 18  5 30  0 27 25.0010000  0  9  3 14 16 22 26 27 29 31 32
    500618.60005  24131980.37205    380015.08346  24131985.97446
    116507.67206  21025931.41906     40365.40147  21025935.73147
     41556.29706  20984501.70006     25021.65847  20984504.61847
    779883.17305  24051961.14605    545846.49346  24051962.69246
     91861.93107  21038140.97407     27782.45947  21038147.95047
  -1112958.96205  23041933.43505   -793104.87746  23041938.53246
   1367174.36205  24083097.12205   1052091.19045  24083101.34145
    509734.01107  21986569.01307    357172.49547  21986571.49747
   1444971.44205  23055602.41105    944206.69446  23055608.99746
 18  5 30  0 27 30.0010000  0  9  3 14 16 22 26 27 29 31 32
    506501.93805  24133099.80205    384599.50446  24133106.14246
    127305.83306  21027985.98906     48779.54647  21027990.02147
     41931.33806  20984572.95806     25313.89347  20984575.82947
    789243.40305  24053742.48105    553140.17146  24053744.54446
    100339.49007  21039754.28607     34388.34847  21039761.27447
  -1127275.22105  23039208.80205   -804260.38746  23039213.82946
   1383520.88805  24086207.68505   1064828.73845  24086212.45445
    515989.92107  21987759.49707    362047.22447  21987761.80647
   1464120.49905  23059245.94205    959128.02346  23059252.83746
 18  5 30  0 27 35.0010000  0  9  3 14 16 22 26 27 29 31 32
    512384.99805  24134219.06005    389183.70046  24134224.47446
    138106.25606  21030041.38006     57195.45647  21030045.36447
     42306.45006  20984644.31706     25606.18947  20984647.22447
    798598.97505  24055522.59105    560430.23546  24055525.00546
    108812.75407  21041366.62207     40990.88747  21041373.56347
  -1141598.69805  23036483.07505   -815421.52946  23036488.14946
   1399866.36205  24089318.15305   1077565.46745  24089322.03245
    522236.89407  21988948.18507    366914.99747  21988950.38847
   1483265.66305  23062889.19205    974046.31046  23062896.42746
 18  5 30  0 27 40.0010000  0  9  3 14 16 22 26 27 29 31 32
    518267.80505  24135338.89605    393767.69846  24135344.01746
    148908.98306  21032096.84106     65613.16547  21032100.87247
     42681.68206  20984715.54406     25898.58347  20984718.43847
    807949.93905  24057301.54405    567716.69546  24057304.14646
    117281.73707  21042978.22407     47590.08947  21042985.27147
  -1155929.33805  23033755.98905   -826588.26246  23033761.54446
   1416210.80005  24092427.78605   1090301.40045  24092431.46645
    528474.97407  21990135.30207    371775.83847  21990137.42347
   1502406.98005  23066531.75505    988961.61346  23066538.84946
 18  5 30  0 27 45.0010000  0  9  3 14 16 22 26 27 29 31 32
    524150.46205  24136458.00505    398351.57946  24136462.88046
    159714.09406  21034152.95006     74032.72646  21034157.14646
     43057.12606  20984787.06006     26191.14547  20984789.87247
    817296.38705  24059080.09105    574999.64346  24059083.75946
    125746.52507  21044588.97407     54186.02047  21044595.92747
  -1170267.03405  23031027.88805   -837760.48446  23031033.48946
   1432554.38004  24095538.25504   1103036.64545  24095541.60645
    534704.26207  21991320.48107    376629.83347  21991322.56747
   1521544.51505  23070173.58305   1003873.96046  23070180.22846
 18  5 30  0 27 50.0010000  0  9  3 14 16 22 26 27 29 31 32
    530033.21905  24137577.43505    402935.52946  24137582.42746
    170521.87506  21036209.95806     82454.37446  21036214.03646
     43433.02606  20984858.58306     26484.05447  20984861.56047
    826638.59705  24060858.46605    582279.28146  24060862.08746
    134207.39207  21046198.91907     60778.90047  21046205.90747
  -1184611.48405  23028298.15305   -848937.97446  23028304.02446
   1448897.29204  24098647.56704   1115771.32345  24098652.85345
    540925.03207  21992504.42707    381477.18547  21992506.53647
   1540678.53705  23073814.64605   1018783.58546  23073821.65746
 18  5 30  0 27 55.0010000  0  9  3 14 16 22 26 27 29 31 32
    535916.05505  24138696.94205    407519.55446  24138701.48946
    181332.30606  21038266.94206     90878.07546  21038270.89246
     43809.39106  20984930.16106     26777.32647  20984933.18547
    835976.48005  24062635.25505    589555.55946  24062638.05646
    142664.30807  21047808.25507     67368.70347  21047815.31347
  -1198962.73205  23025567.13005   -860120.76246  23025573.31746
   1465239.50604  24101757.31704   1128505.51545  24101765.02145
    547137.29507  21993686.58307    386317.90447  21993688.81047
   1559809.01705  23077455.11405   1033690.44846  23077462.04446
 18  5 30  0 28  0.0010000  0  9  3 14 16 22 26 27 29 31 32
    541798.89405  24139815.69205    412103.58445  24139820.97845
    192145.25406  21040324.75506     99303.74146  21040328.65746
     44186.12006  20985001.81706     27070.87847  20985004.93547
    845310.04305  24064411.17705    596828.46746  24064414.13046
    151117.19207  21049416.93507     73955.37147  21049424.07547
  -1213320.78205  23022834.82505   -871308.83746  23022841.45846
   1481580.93504  24104867.04404   1141239.11945  24104873.16145
    553340.96507  21994866.98907    391151.92747  21994869.28647
   1578935.87205  23081094.63805   1048594.48846  23081101.88446
 18  5 30  0 28  5.0010000  0  9  3 14 16 22 26 27 29 31 32
    547682.01605  24140936.27105    416687.84345  24140941.77845
    202961.08706  21042382.79406    107731.66046  21042386.63846
     44563.51906  20985073.76306     27364.95547  20985076.93847
    854639.50505  24066186.52105    604098.18046  24066188.64246
    159566.34407  21051024.68507     80539.12347  21051031.86047
  -1227685.35805  23020101.56705   -882502.01346  23020108.31746
   1497921.94605  24107977.35605   1153972.38845  24107983.14645
    559536.34206  21996045.95806    395979.49147  21996048.38447
   1598059.41005  23084733.88805   1063495.93646  23084740.89946
 18  5 30  0 28 10.0010000  0  9  3 14 16 22 26 27 29 31 32
    553565.18905  24142055.41905    421272.14245  24142061.64245
    213779.51506  21044441.64606    116161.60246  21044445.52446
     44941.32206  20985145.54406     27659.35147  20985148.72047
    863964.63905  24067961.56005    611364.50746  24067963.75146
    168011.50707  21052631.76307     87119.76747  21052638.84547
  -1242056.65605  23017366.55205   -893700.42946  23017372.98546
   1514262.18205  24111086.16105   1166705.04145  24111090.79045
    565723.21006  21997223.27806    400800.42747  21997225.84547
   1617179.36405  23088372.48905   1078394.59546  23088379.53646
 18  5 30  0 28 15.0010000  0  9  3 14 16 22 26 27 29 31 32
    559449.18205  24143175.62205    425857.09646  24143181.61046
    224601.32006  21046500.67706    124594.17546  21046504.84946
     45320.31406  20985217.70006     27954.66747  20985221.11047
    873286.21905  24069735.45005    618628.05446  24069737.10346
    176453.44407  21054238.36407     93697.89847  21054245.24747
  -1256433.91605  23014630.65305   -904903.49046  23014637.14646
   1530602.49105  24114195.37205   1179437.74245  24114201.47845
    571902.32606  21998399.15306    405615.32247  21998401.77847
   1636296.50805  23092010.16905   1093291.05246  23092016.96646
 18  5 30  0 28 20.0010000  0  9  3 14 16 22 26 27 29 31 32
    565333.92305  24144295.19205    430442.60246  24144300.87646
    235426.41206  21048560.54406    133029.30946  21048564.56346
     45700.42106  20985290.01306     28250.85547  20985293.48147
    882604.14405  24071508.64605    625888.75946  24071510.11046
    184892.08907  21055843.99707    100273.46647  21055850.80647
  -1270817.15905  23011893.56005   -916111.21246  23011900.16946
   1546942.79805  24117305.52105   1192170.44945  24117310.10345
    578073.65406  21999573.38806    410424.14647  21999576.01347
   1655410.77306  23095647.87206   1108185.26446  23095654.87246
 18  5 30  0 28 25.0010000  0  9  3 14 16 22 26 27 29 31 32
    571218.98405  24145414.77105    435028.35946  24145420.71246
    246254.41006  21050621.15306    141466.70746  21050625.11446
     46081.27406  20985362.61406     28547.62447  20985366.03647
    891917.98405  24073280.98105    633146.28746  24073282.29446
    193327.02807  21057449.15307    106846.14347  21057455.76347
  -1285206.81605  23009155.53605   -927323.92346  23009162.20446
   1563282.59105  24120414.57505   1204902.76145  24120418.20845
    584236.80306  22000746.31006    415226.59547  22000749.01747
   1674521.70106  23099284.25506   1123076.87346  23099291.17346
 18  5 30  0 28 30.0010000  0  9  3 14 16 22 26 27 29 31 32
    577104.74905  24146535.30205    439614.66046  24146541.13846
    257085.70806  21052682.26306    149906.67546  21052686.37646
     46463.24206  20985435.37206     28845.26647  20985438.73547
    901228.16505  24075053.05205    640400.96746  24075054.75146
    201758.61207  21059053.88807    113416.20947  21059060.29847
  -1299602.46905  23006416.11405   -938541.31446  23006422.17346
   1579622.27405  24123524.20005   1217634.98045  24123526.61445
    590392.10506  22001917.48906    420022.92747  22001920.32547
   1693629.69506  23102920.70806   1137966.20646  23102927.29446
 18  5 30  0 28 35.0010000  0  9  3 14 16 22 26 27 29 31 32
    582991.66705  24147655.20805    444201.86746  24147660.98546
    267920.77606  21054744.16906    158349.58046  21054748.27146
     46846.77006  20985508.34906     29144.11547  20985511.63047
    910535.08805  24076823.84905    647653.10946  24076825.67746
    210187.32807  21060657.56007    119984.03947  21060663.94647
  -1314003.62205  23003675.64605   -949762.99446  23003681.89246
   1595962.34405  24126633.84105   1230367.50845  24126637.21645
    596540.13406  22003087.66906    424813.58647  22003090.50547
   1712735.22106  23106556.42706   1152853.62546  23106563.16546
 18  5 30  0 28 40.0010000  0  9  3 14 16 22 26 27 29 31 32
    588879.30705  24148775.66905    448789.63546  24148781.36446
    278759.18206  21056806.87206    166795.08947  21056810.72847
     47231.45906  20985581.81006     29443.87147  20985585.06747
    919838.33805  24078593.88005    654902.39146  24078595.59146
    218612.72407  21062261.02107    126549.28047  21062267.33747
  -1328410.71205  23000934.00505   -960989.29046  23000939.78246
   1612302.30405  24129741.93505   1243099.94245  24129745.06345
    602680.36206  22004256.02806    429598.18247  22004258.88847
   1731837.83206  23110191.56006   1167738.77046  23110198.23946
 18  5 30  0 28 45.0010000  0  9  3 14 16 22 26 27 29 31 32
    594768.14405  24149896.23905    453378.33446  24149902.11046
    289601.37806  21058870.01306    175243.55047  21058873.84547
     47617.76006  20985655.17706     29744.87847  20985658.30647
    929138.43105  24080363.63805    662149.21246  24080365.93546
    227035.26507  21063863.56007    133112.29947  21063869.85347
  -1342823.25205  22998191.16905   -972219.84346  22998196.72446
   1628642.65105  24132852.20805   1255832.66345  24132856.59145
    608813.28706  22005423.05206    434377.08547  22005425.68847
   1750937.98806  23113825.98106   1182621.99546  23113832.31046
 18  5 30  0 28 50.0010000  0  9  3 14 16 22 26 27 29 31 32
    600658.42505  24151017.18505    457968.16146  24151023.32546
    300447.63206  21060934.13006    183695.17447  21060938.13847
     48005.87706  20985728.87206     30047.30347  20985732.09547
    938435.54005  24082132.48905    669393.71846  24082134.57546
    235455.21507  21065465.99707    139673.29847  21065472.31347
  -1357240.93105  22995447.45805   -983454.39846  22995453.34146
   1644983.64905  24135961.61405   1268565.87845  24135966.14945
    614939.20606  22006588.70006    439150.52947  22006591.37247
