     2.10           OBSERVATION DATA    GPS(GPS)            RINEX VERSION / TYPE
cnvtToRINEX 2.50.0  convertToRINEX OPR  30-May-18 13:33 UTC PGM / RUN BY / DATE 
----------------------------------------------------------- COMMENT             
GI257                                                       MARKER NAME         
GI257                                                       MARKER NUMBER       
GNSS Observer       Trimble                                 OBSERVER / AGENCY   
0220326315          5700                2.32                REC # / TYPE / VERS 
                    TRM55971.00                             ANT # / TYPE
 -2966559.0494  5005351.2154  2604501.4504                  APPROX POSITION XYZ 
        1.5590        1.5092        1.5942                  ANTENNA: DELTA H/E/N
     1     1     0                                          WAVELENGTH FACT L1/2
     4    C1    L1    L2    P2                              # / TYPES OF OBSERV 
  2018     5    30     0    25   15.0000000     GPS         TIME OF FIRST OBS   
  2018     5    30     1    35   50.0000000     GPS         TIME OF LAST OBS    
     0                                                      RCV CLOCK OFFS APPL 
    17                                                      LEAP SECONDS        
    12                                                      # OF SATELLITES     
   G03   835   832   828   828                              PRN / # OF OBS      
   G08   224   210   115   115                              PRN / # OF OBS      
   G14   848   848   848   848                              PRN / # OF OBS      
   G16   848   848   848   848                              PRN / # OF OBS      
   G21   509   502   209   209                              PRN / # OF OBS      
   G22   469   450   259   259                              PRN / # OF OBS      
   G23   750   747   674   674                              PRN / # OF OBS      
   G26   848   848   848   848                              PRN / # OF OBS      
   G27   848   848   848   848                              PRN / # OF OBS      
   G29   321   317   272   272                              PRN / # OF OBS      
   G31   848   848   848   848                              PRN / # OF OBS      
   G32   547   537   464   464                              PRN / # OF OBS      
CARRIER PHASE MEASUREMENTS: PHASE SHIFTS REMOVED            COMMENT             
                                                            END OF HEADER       
 18  5 30  0 25 15.0000000  0  8G03G14G16G26G27G29G31G32             0.000224104
  23844872.12515     44927.93015     23718.34456  23844872.53956
  20715396.20316     92352.13316     63187.66458  20715394.38758
  20724936.31317     -4356.07017     -2703.81358  20724933.18058
  20738738.46917     72428.73817     50452.35558  20738739.71958
  22854431.85915   -135058.66015    -84883.50857  22854432.27057
  23745772.46915    133349.22715                
  21698380.05517     48585.68417     31063.03158  21698377.48858
  22703321.51616    159092.50016     86184.82857  22703320.51257
 18  5 30  0 25 20.0000000  0  9G03G14G16G22G26G27G29G31G32          0.000225904
  23845805.234 5     49832.215 5     27539.87946  23845806.16046
  20717252.672 6    102107.691 6     70789.38748  20717250.54348
  20724820.898 6     -4963.004 6     -3176.75448  20724817.69148
  23748803.78114     66870.22714     31605.86356  23748797.78156
  20740186.219 7     80037.172 7     56381.00448  20740187.30148
  22851558.336 5   -150162.297 5    -96652.58247  22851558.27747
  23748701.383 5    148737.793 5                
  21699428.117 7     54094.750 7     35355.80548  21699425.28148
  22706796.813 6    177356.484 6    100416.47747  22706796.06347
 18  5 30  0 25 25.0000000  0  9G03G14G16G22G26G27G29G31G32          0.000227695
  23846739.727 5     54738.664 5     31363.09446  23846739.87946
  20719109.992 6    111867.801 6     78394.67248  20719108.32448
  20724705.258 6     -5567.516 6     -3647.79348  20724702.40648
  23750419.766 5     75362.324 5     38223.07846  23750413.99646
  20741633.828 7     87643.773 7     62308.22348  20741635.02348
  22848682.773 5   -165271.344 5   -108425.87947  22848682.78547
  23751629.766 5    164127.824 5                
  21700474.664 7     59597.016 7     39643.27748  21700472.00848
  22710272.938 6    195619.086 6    114647.05147  22710272.12147
 18  5 30  0 25 30.0000000  0  9G03G14G16G22G26G27G29G31G32          0.000229481
  23847673.336 5     59648.059 5     35188.59046  23847674.72746
  20720968.453 6    121633.281 6     86004.12948  20720966.41448
  20724591.266 7     -6168.801 7     -4116.34048  20724587.74248
  23752035.023 5     83853.074 5     44839.24246  23752029.93846
  20743080.789 7     95249.340 7     68234.63348  20743081.73848
  22845807.266 5   -180384.875 5   -120202.68047  22845806.69947
  23754559.680 5    179520.149 5                
  21701520.938 7     65093.371 7     43926.14848  21701517.94948
  22713747.508 6    213881.121 6    128877.17247  22713747.58647
 18  5 30  0 25 35.0000000  0  9G03G14G16G22G26G27G29G31G32          0.000231262
  23848608.984 5     64560.996 5     39016.84846  23848609.63746
  20722827.305 6    131404.762 6     93618.26248  20722825.81648
  20724477.539 6     -6766.289 6     -4581.90248  20724474.33248
  23753650.766 5     92343.102 5     51454.84847  23753645.37547
  20744528.133 7    102854.430 7     74160.67648  20744529.14848
  22842930.875 5   -195502.348 5   -131982.53947  22842930.01247
  23757488.875 6    194915.246 6     37512.97756  23757485.43056
  21702565.969 7     70584.309 7     48204.78548  21702563.09448
  22717222.992 6    232143.094 6    143107.27047  22717222.59847
 18  5 30  0 25 40.0000000  0  9G03G14G16G22G26G27G29G31G32          0.000233036
  23849544.891 5     69477.785 5     42848.09446  23849545.65646
  20724688.414 6    141182.516 6    101237.28548  20724686.58648
  20724364.664 7     -7359.617 7     -5044.24248  20724361.30148
  23755265.844 6    100832.734 6     58070.12147  23755260.80947
  20745975.648 7    110459.430 7     80086.64548  20745976.03948
  22840052.914 5   -210623.359 5   -143765.14546  22840052.43046
  23760419.172 5    210313.625 5     49511.74646  23760416.20346
  21703609.750 7     76070.211 7     52479.51648  21703606.74648
  22720698.320 6    250405.410 6    157337.63347  22720698.34047
 18  5 30  0 25 45.0000000  0  9G03G14G16G22G26G27G29G31G32          0.000234808
  23850481.492 5     74398.613 5     46682.50846  23850482.16446
  20726550.445 6    150966.695 6    108861.31648  20726548.87548
  20724252.594 7     -7948.645 7     -5503.24248  20724249.67648
  23756881.375 5    109322.070 5     64685.19546  23756876.53946
  20747422.977 7    118064.391 7     86012.59048  20747423.20348
  22837174.797 5   -225747.895 5   -155550.51647  22837174.50447
  23763350.648 6    225715.281 6     61512.95746  23763347.06646
  21704652.859 7     81551.188 7     56750.39848  21704649.87948
  22724173.000 6    268668.148 6    171568.32047  22724173.65647
 18  5 30  0 25 50.0000000  0  9G03G14G16G22G26G27G29G31G32          0.000236572
  23851418.563 5     79323.313 5     50519.89846  23851419.42646
  20728413.125 6    160757.219 6    116490.29348  20728411.60248
  20724141.203 7     -8533.453 7     -5958.93448  20724137.78548
  23758496.977 5    117810.984 5     71299.91446  23758492.07846
  20748870.242 7    125669.250 7     91938.45348  20748870.37948
  22834296.844 5   -240875.789 5   -167338.48847  22834296.03547
  23766281.383 5    241120.152 5     73516.74246  23766278.18846
  21705694.578 7     87027.164 7     61017.38348  21705692.24248
  22727649.203 6    286931.250 6    185799.28547  22727649.64847
 18  5 30  0 25 55.0000000  0  9G03G14G16G22G26G27G29G31G32          0.000238333
  23852356.031 5     84252.145 5     54360.54746  23852357.56346
  20730277.531 6    170554.254 6    124124.34448  20730275.98448
  20724030.750 7     -9113.859 7     -6411.20748  20724027.70748
  23760112.047 6    126299.809 6     77914.56646  23760107.28146
  20750317.117 7    133274.242 7     97864.41448  20750317.18048
  22831416.891 6   -256007.059 6   -179129.08247  22831416.21147
  23769213.828 5    256528.410 5     85523.17246  23769210.83646
  21706736.164 6     92498.367 6     65280.64148  21706733.25848
  22731123.781 6    305194.883 6    200030.68447  22731124.84847
 18  5 30  0 26  0.0000000  0  9G03G14G16G22G26G27G29G31G32          0.000240088
  23853295.711 5     89185.000 5     58204.31646  23853295.75446
  20732143.125 6    180357.848 6    131763.50048  20732141.48048
  20723921.289 7     -9689.918 7     -6860.08248  20723917.85948
  23761728.250 6    134788.410 6     84529.03547  23761722.82847
  20751764.234 7    140879.266 7    103790.40648  20751764.41048
  22828537.258 6   -271141.602 6   -190922.23847  22828536.30147
  23772146.070 5    271940.012 5     97532.22346  23772143.46146
  21707776.359 7     97964.754 7     69540.16048  21707773.56648
  22734599.320 6    323459.004 6    214262.45747  22734600.66047
 18  5 30  0 26  5.0000000  0  9G03G14G16G22G26G27G29G31G32          0.000241838
  23854234.703 5     94122.289 5     62051.54746  23854235.55546
  20734010.531 6    190168.293 6    139407.99648  20734008.14548
  20723812.320 6    -10261.270 6     -7305.30148  20723809.16848
  23763343.805 5    143277.109 5     91143.60947  23763337.89847
  20753211.266 7    148484.695 7    109716.71548  20753211.49648
  22825656.797 5   -286279.027 5   -202717.60947  22825655.84847
  23775079.961 5    287355.332 5    109544.15246  23775077.15646
  21708815.430 7    103426.660 7     73796.18448  21708813.43448
  22738075.492 6    341723.965 6    228494.89547  22738076.80147
 18  5 30  0 26 10.0000000  0  9G03G14G16G22G26G27G29G31G32          0.000243586
  23855175.508 5     99064.113 5     65902.29746  23855176.58646
  20735878.367 6    199985.734 6    147057.94548  20735876.30948
  20723704.383 7    -10827.773 7     -7746.73848  20723701.28548
  23764958.844 5    151766.047 5     97758.35247  23764953.71947
  20754658.938 7    156090.648 7    115643.42248  20754659.41048
  22822775.500 6   -301419.176 6   -214515.12947  22822774.66447
  23778014.141 5    302774.520 5    121559.10946  23778011.37546
  21709853.836 7    108884.262 7     78048.85948  21709852.00448
  22741550.805 6    359989.918 6    242728.11347  22741552.13347
 18  5 30  0 26 15.0000000  0  9G03G14G16G22G26G27G29G31G32          0.000245327
  23856115.969 5    104010.496 5     69756.64546  23856117.60246
  20737747.867 7    209810.230 7    154713.39548  20737745.87948
  20723597.859 6    -11389.355 6     -8184.34048  20723594.12948
  23766574.711 5    160255.258 5    104373.33247  23766568.66047
  20756106.438 7    163697.199 7    121570.60548  20756106.56348
  22819893.695 6   -316562.121 6   -226314.84047  22819893.22747
  23780948.344 5    318197.516 5    133577.01646  23780946.55146
  21710892.047 7    114337.598 7     82298.21148  21710889.60248
  22745027.516 6    378256.840 6    256962.07847  22745028.15247
 18  5 30  0 26 20.0000000  0  9G03G14G16G22G26G27G29G31G32          0.000247065
  23857058.586 5    108961.523 5     73614.59446  23857059.38346
  20739618.891 6    219641.867 6    162374.40248  20739616.89548
  20723491.797 7    -11945.992 7     -8618.09448  20723488.75848
  23768189.883 5    168744.797 5    110988.55147  23768184.38347
  20757554.273 7    171304.367 7    127498.26248  20757554.48848
  22817011.680 6   -331707.707 6   -238116.59047  22817011.78547
  23783884.039 5    333624.453 5    145598.03146  23783882.21946
  21711928.992 7    119786.758 7     86544.29748  21711927.03948
  22748503.734 6    396524.867 6    271196.88347  22748504.65647
 18  5 30  0 26 25.0000000  0  9G03G14G16G22G26G27G29G31G32          0.000248796
  23858001.055 5    113917.449 5     77476.34046  23858002.81346
  20741491.133 7    229480.855 7    170041.13748  20741489.36748
  20723386.680 7    -12497.426 7     -9047.78148  20723383.72348
  23769804.930 5    177234.906 5    117604.23047  23769800.19947
  20759001.539 7    178912.422 7    133426.62548  20759001.91448
  22814128.383 6   -346855.625 6   -249920.15247  22814128.97347
  23786820.430 5    349055.586 5    157622.25446  23786818.64846
  21712965.727 7    125232.031 7     90787.36348  21712963.26648
  22751980.234 6    414794.211 6    285432.72347  22751980.96147
 18  5 30  0 26 30.0000000  0  9G03G14G16G22G26G27G29G31G32          0.000250525
  23858944.492 5    118878.336 5     81341.98446  23858946.28546
  20743365.234 6    239327.273 6    177713.66448  20743363.14548
  20723283.336 6    -13043.570 6     -9473.35948  20723279.43848
  23771421.031 5    185725.703 5    124220.44146  23771416.04746
  20760449.773 7    186521.391 7    139355.68448  20760450.34448
  22811245.273 6   -362005.848 6   -261725.50847  22811245.97747
  23789757.836 5    364490.934 5    169649.78546  23789755.76646
  21714000.523 7    130673.410 7     95027.39148  21713998.37948
  22755456.594 6    433064.898 6    299669.62147  22755457.21147
 18  5 30  0 26 35.0000000  0  9G03G14G16G22G26G27G29G31G32          0.000252249
  23859889.484 5    123844.148 5     85211.44546  23859891.85546
  20745240.445 6    249181.113 6    185391.97348  20745237.90248
  20723179.813 6    -13584.453 6     -9894.82448  20723176.62948
  23773037.031 5    194217.098 5    130837.09847  23773032.00847
  20761897.750 7    194131.332 7    145285.51248  20761898.22348
  22808362.055 6   -377158.305 6   -273532.61747  22808362.76647
  23792696.102 5    379930.508 5    181680.59446  23792694.42246
  21715035.656 7    136111.012 7     99264.47748  21715033.33248
  22758933.969 6    451336.988 6    313907.60547  22758934.17247
 18  5 30  0 26 40.0000000  0  9G03G14G16G22G26G27G29G31G32          0.000253969
  23860835.500 6    128814.875 6     89084.73846  23860837.55546
  20747116.469 6    259042.281 6    193076.00048  20747114.62548
  20723078.242 6    -14120.180 6    -10312.28948  20723074.85548
  23774652.547 5    202709.043 5    137454.18846  23774648.10946
  20763345.734 7    201742.082 7    151215.96548  20763347.18448
  22805478.305 5   -392313.105 5   -285341.54347  22805478.44547
  23795634.414 5    395374.211 5    193714.67246  23795632.95746
  21716069.164 7    141544.688 7    103498.51248  21716066.95348
  22762411.219 6    469610.355 6    328146.54747  22762411.91047
 18  5 30  0 26 45.0000000  0  9G03G14G16G22G26G27G29G31G32          0.000255684
  23861782.570 6    133790.266 6     92961.64546  23861784.56346
  20748994.328 7    268910.625 7    200765.60948  20748992.69148
  20722976.898 6    -14650.844 6    -10725.78548  20722973.66448
  23776269.344 6    211201.391 6    144071.58647  23776264.45347
  20764794.141 7    209353.566 7    157146.99248  20764795.09448
  22802593.594 5   -407470.324 5   -297152.37146  22802594.64546
  23798574.539 5    410821.938 5    205751.82846  23798572.50446
  21717102.719 7    146974.313 7    107729.37948  21717100.54748
  22765888.492 6    487884.863 6    342386.42247  22765888.74247
 18  5 30  0 26 50.0000000  0  9G03G14G16G22G26G27G29G31G32          0.000257397
  23862729.945 5    138770.648 5     96842.46146  23862731.63346
  20750873.891 6    278786.391 6    208461.01248  20750871.93048
  20722877.242 6    -15176.246 6    -11135.18848  20722873.98048
  23777885.273 6    219694.324 6    150689.45347  23777880.24647
  20766243.148 7    216965.965 7    163078.71948  20766244.29348
  22799708.195 5   -422629.746 5   -308964.88346  22799709.60546
  23801515.055 6    426273.855 6    217792.27046  23801513.30946
  21718134.852 7    152400.109 7    111957.27348  21718132.28148
  22769366.680 6    506160.719 6    356627.32847  22769366.57447
 18  5 30  0 26 55.0000000  0  9G03G14G16G22G26G27G29G31G32          0.000259102
  23863678.875 5    143756.125 5    100727.25446  23863680.59446
  20752754.320 6    288669.762 6    216162.33248  20752752.56348
  20722778.172 6    -15696.230 6    -11540.37548  20722775.21548
  23779501.703 5    228188.031 5    157307.90647  23779496.61347
  20767691.617 7    224579.441 7    169011.29748  20767693.01248
  22796824.070 5   -437791.176 5   -320778.99247  22796824.44147
  23804455.805 5    441730.145 5    229836.12946  23804454.18446
  21719166.953 7    157822.301 7    116182.34848  21719164.51648
  22772845.000 6    524438.078 6    370869.40247  22772844.15247
 18  5 30  0 27  0.0000000  0  9G03G14G16G22G26G27G29G31G32          0.000260805
  23864628.648 5    148746.746 5    104616.04746  23864629.98046
  20754636.617 6    298560.789 6    223869.61348  20754634.70748
  20722680.508 6    -16210.707 6    -11941.27048  20722676.68448
  23781117.578 5    236682.602 5    163927.03546  23781112.99646
  20769140.734 7    232194.063 7    174944.76248  20769142.12548
  22793938.430 5   -452954.543 5   -332594.60247  22793939.09447
  23807398.055 6    457190.883 6    241883.44946  23807396.73846
  21720198.109 7    163240.910 7    120404.63348  21720195.40248
  22776323.211 6    542717.000 6    385112.70347  22776322.79347
 18  5 30  0 27  5.0000000  0  9G03G14G16G22G26G27G29G31G32          0.000262505
  23865579.656 6    153742.559 6    108508.89147  23865580.45747
  20756520.156 6    308459.547 6    231582.93448  20756518.39848
  20722583.781 7    -16719.660 7    -12337.84848  20722579.84848
  23782734.039 5    245178.004 5    170546.83247  23782729.79747
  20770590.211 7    239809.863 7    180879.15648  20770591.16848
  22791051.805 5   -468119.785 5   -344411.67247  22791052.84047
  23810340.531 5    472656.074 5    253934.25046  23810339.11346
  21721228.672 7    168656.000 7    124624.17648  21721226.13748
  22779802.063 6    560997.563 6    399357.28147  22779801.66047
 18  5 30  0 27 10.0000000  0  9G03G14G16G22G26G27G29G31G32          0.000264198
  23866531.820 6    158743.758 6    112405.88746  23866532.14546
  20758405.734 6    318366.223 6    239302.41048  20758403.50448
  20722487.961 7    -17222.859 7    -12729.96548  20722484.66848
  23784350.586 5    253674.430 5    177167.41846  23784346.03546
  20772039.398 7    247427.008 7    186814.58648  20772040.15648
  22788166.805 5   -483286.723 5   -356230.06347  22788167.06347
  23813285.055 6    488125.926 6    265988.66846  23813283.69946
  21722258.531 7    174067.766 7    128841.12948  21722256.09448
  22783280.969 6    579279.867 6    413603.21947  22783281.03947
 18  5 30  0 27 15.0000000  0  9G03G14G16G22G26G27G29G31G32          0.000265890
  23867484.727 6    163750.402 6    116307.16847  23867485.04347
  20760291.922 6    328280.848 6    247028.09848  20760290.32848
  20722393.211 7    -17720.262 7    -13117.54348  20722389.89148
  23785967.898 5    262171.984 5    183788.88746  23785963.10246
  20773489.234 7    255045.574 7    192751.12548  20773490.34848
  22785279.953 5   -498455.172 5   -368049.63747  22785280.41847
  23816230.289 6    503600.488 6    278046.75046  23816228.18846
  21723287.609 7    179476.254 7    133055.52348  21723285.28548
  22786760.477 6    597564.035 6    427850.60247  22786760.42247
 18  5 30  0 27 20.0000000  0  9G03G14G16G22G26G27G29G31G32          0.000267576
  23868438.508 5    168762.473 5    120212.68047  23868438.84047
  20762180.500 6    338203.375 6    254759.92248  20762178.52748
  20722299.578 6    -18211.898 6    -13500.63748  20722295.91848
  23787584.820 5    270670.570 5    190411.16047  23787580.54747
  20774939.547 7    262665.566 7    198688.77748  20774940.05148
  22782393.563 5   -513625.254 5   -379870.48047  22782394.09047
  23819175.570 5    519079.727 5    290108.49246  23819174.14846
  21724316.336 7    184881.453 7    137267.35948  21724314.05548
  22790239.969 6    615849.996 6    442099.39147  22790240.77047
 18  5 30  0 27 25.0000000  0  9G03G14G16G22G26G27G29G31G32          0.000269258
  23869393.055 6    173780.211 6    124122.60547  23869393.73447
  20764070.211 6    348134.102 6    262498.14148  20764068.23048
  20722207.305 6    -18697.504 6    -13879.03148  20722203.60948
  23789202.180 5    279170.512 5    197034.49247  23789197.63347
  20776389.648 7    270287.164 7    204627.68048  20776390.47348
  22779507.008 5   -528796.648 5   -391692.34847  22779507.05947
  23822121.953 5    534563.816 5    302173.98046  23822120.66046
  21725344.117 7    190283.703 7    141476.90248  21725341.71548
  22793719.805 6    634138.039 6    456349.79347  22793720.84447
 18  5 30  0 27 30.0000000  0  9G03G14G16G22G26G27G29G31G32          0.000270939
  23870349.070 5    178803.547 5    128036.86347  23870349.44147
  20765961.156 6    358072.953 6    270242.69548  20765959.66448
  20722115.891 6    -19177.176 6    -14252.80548  20722112.12148
  23790819.852 5    287671.695 5    203658.77747  23790815.43047
  20777840.273 7    277910.309 7    210567.78948  20777840.62948
  22776619.391 5   -543969.449 5   -403515.31347  22776619.79347
  23825069.172 6    550052.727 6    314243.27046  23825068.32446
  21726371.672 7    195682.828 7    145684.00848  21726369.32448
  22797200.250 6    652428.027 6    470601.74647  22797201.80147
 18  5 30  0 27 35.0000000  0  9G03G14G16G22G26G27G29G31G32          0.000272614
  23871306.805 5    183832.762 5    131955.72347  23871306.87947
  20767854.805 6    368020.258 6    277993.84048  20767852.65248
  20722025.914 6    -19650.551 6    -14621.67648  20722022.23048
  23792438.117 6    296174.422 6    210284.27347  23792433.57447
  20779291.703 7    285535.387 7    216509.40248  20779292.05148
  22773731.594 5   -559143.246 5   -415339.04747  22773732.10947
  23828017.609 5    565546.844 5    326316.59046  23828016.87946
  21727398.563 7    201079.270 7    149889.02048  21727396.30948
  22800681.219 6    670720.352 6    484855.48447  22800683.23047
 18  5 30  0 27 40.0000000  0  9G03G14G16G22G26G27G29G31G32          0.000274286
  23872264.711 6    188868.348 6    135879.55146  23872264.78946
  20769749.359 6    377976.480 6    285751.93848  20769747.09448
  20721937.047 7    -20117.211 7    -14985.30948  20721933.40648
  23794056.883 6    304679.145 6    216911.32047  23794052.16047
  20780743.102 7    293162.766 7    222452.80548  20780743.94148
  22770844.352 5   -574317.590 5   -427163.21547  22770844.86747
  23830967.234 5    581046.477 5    338394.21546  23830966.11346
  21728425.023 7    206473.398 7    154092.23848  21728422.78148
  22804162.766 6    689015.414 6    499111.39147  22804165.29747
 18  5 30  0 27 45.0000000  0  9G03G14G16G22G26G27G29G31G32          0.000275955
  23873224.211 5    193910.734 5    139808.67647  23873225.13747
  20771645.367 6    387942.004 6    293517.26648  20771643.32448
  20721849.781 6    -20576.750 6    -15343.39148  20721846.41848
  23795676.055 6    313186.254 6    223540.21947  23795671.32847
  20782194.727 7    300792.883 7    228398.35548  20782195.33248
  22767956.711 5   -589492.078 5   -438987.47347  22767956.62547
  23833917.547 5    596552.152 5    350476.55146  23833916.60546
  21729451.227 6    211865.680 6    158294.00848  21729449.21548
  22807644.398 6    707313.625 6    513369.72347  22807647.42647
 18  5 30  0 27 50.0000000  0  9G03G14G16G22G26G27G29G31G32          0.000277622
  23874184.992 5    198960.395 5    143743.48047  23874186.12147
  20773543.719 6    397917.410 6    301290.30948  20773541.71548
  20721763.531 6    -21028.598 6    -15695.47748  20721760.37948
  23797295.227 6    321696.375 6    230171.48447  23797290.64547
  20783647.492 7    308426.313 7    234346.47348  20783648.16448
  22765068.922 6   -604666.117 6   -450811.40247  22765069.57847
  23836869.633 5    612064.426 5    362564.01646  23836869.32446
  21730477.156 6    217256.645 6    162494.76648  21730474.85548
  22811127.586 6    725615.551 6    527630.96547  22811130.58247
 18  5 30  0 27 55.0000000  0  9G03G14G16G22G26G27G29G31G32          0.000279285
  23875146.367 5    204017.980 5    147684.44547  23875148.61747
  20775443.648 6    407903.324 6    309071.53948  20775442.30548
  20721679.250 7    -21472.109 7    -16041.07048  20721675.74248
  23798915.000 5    330210.020 5    236805.46947  23798910.56647
  20785100.367 7    316063.621 7    240297.62548  20785101.72348
  22762181.922 6   -619839.094 6   -462634.50047  22762182.42647
  23839822.734 6    627583.848 6    374657.04346  23839822.28946
  21731502.555 6    222646.953 6    166695.00848  21731500.39148
  22814610.602 5    743921.824 5    541895.59047  22814613.53147
 18  5 30  0 28  0.0000000  0  9G03G14G16G22G26G27G29G31G32          0.000280949
  23876111.188 4    209084.508 4    151632.46546  23876113.07846
  20777346.008 6    417900.676 6    316861.68448  20777344.43048
  20721596.375 7    -21906.379 7    -16379.46148  20721593.59448
  23800535.563 5    338728.262 5    243443.05947  23800531.72747
  20786554.492 7    323705.836 7    246252.55948  20786555.79748
  22759295.102 6   -635009.953 6   -474455.94547  22759295.60547
  23842778.273 6    643111.422 6    386756.47347  23842777.37147
  21732528.563 7    228037.566 7    170895.48048  21732525.92648
  22818095.578 6    762233.348 6    556164.34446  22818098.31646
 18  5 30  0 28  5.0000000  0  9G03G14G16G22G26G27G29G31G32          0.000282610
  23877076.984 5    214160.902 5    155588.03147  23877078.78547
  20779251.109 6    427910.449 6    324661.49648  20779249.62548
  20721515.789 7    -22330.430 7    -16709.89548  20721512.62948
  23802158.258 6    347251.945 6    250084.89147  23802153.59447
  20788010.086 7    331353.832 7    252212.07048  20788011.34448
  22756408.305 5   -650177.789 5   -486275.02347  22756409.41447
  23845735.406 5    658648.082 5    398862.93846  23845734.00046
  21733554.328 7    233429.438 7    175096.93848  21733552.10548
  22821581.000 6    780551.074 6    570437.85547  22821584.68847
 18  5 30  0 28 10.0000000  0  9G03G14G16G22G26G27G29G31G32          0.000284271
  23878044.992 5    219248.438 5    159552.30546  23878047.21946
  20781158.469 6    437933.957 6    332472.00848  20781156.98848
  20721437.172 6    -22742.934 6    -17031.32848  20721434.24648
  23803781.352 5    355782.426 5    256732.01647  23803776.84847
  20789466.633 7    339008.996 7    258177.12548  20789467.84448
  22753522.742 6   -665341.207 6   -498090.64847  22753523.98847
  23848693.383 5    674195.141 5    410977.51646  23848692.70746
  21734580.898 7    238823.965 7    179300.47748  21734578.82848
  22825068.547 6    798876.418 6    584717.33247  22825071.73847
 18  5 30  0 28 15.0000000  0  9G03G14G16G22G26G27G29G31G32          0.000285933
  23879015.352 5    224348.688 5    163526.55546  23879017.39146
  20783068.969 6    447972.746 6    340294.44548  20783067.12148
  20721361.359 6    -23142.328 6    -17342.55548  20721358.22748
  23805406.680 5    364321.242 5    263385.63747  23805401.93447
  20790925.383 7    346672.832 7    264148.94148  20790926.43448
  22750638.094 5   -680498.703 5   -509901.69147  22750639.98047
  23851653.422 5    689754.133 5    423101.42646  23851653.45346
  21735608.359 7    244222.613 7    183507.21548  21735606.21548
  22828557.820 6    817210.797 6    599003.85247  22828559.99647
 18  5 30  0 28 20.0000000  0  9G03G14G16G22G26G27G29G31G32          0.000287596
  23879987.859 5    229463.301 5    167511.96546  23879989.68446
  20784982.102 6    458028.438 6    348130.03948  20784980.69548
  20721287.906 7    -23527.004 7    -17642.30548  20721285.12948
  23807032.281 5    372870.059 5    270047.06347  23807028.52047
  20792385.602 7    354346.988 7    270128.79348  20792386.77348
  22747755.781 5   -695648.590 5   -521706.79347  22747757.09447
  23854617.047 5    705326.691 5    435235.86746  23854616.91046
  21736636.500 7    249627.094 7    187718.49648  21736634.66848
  22832048.773 6    835555.949 6    613298.75847  22832050.08247
 18  5 30  0 28 25.0000000  0  9G03G14G16G22G26G27G29G31G32          0.000289263
  23880964.563 5    234594.383 5    171510.19146  23880966.92246
  20786899.617 6    468103.109 6    355980.42648  20786898.12948
  20721218.016 7    -23894.863 7    -17928.93848  20721214.91848
  23808661.492 5    381430.855 5    276717.79346  23808657.32446
  20793848.445 7    362033.496 7    276118.28548  20793848.56648
  22744873.977 5   -710788.746 5   -533504.31647  22744876.16047
  23857583.219 5    720914.852 5    447382.48846  23857583.43046
  21737666.688 7    255039.449 7    191935.90648  21737664.63748
  22835542.398 6    853913.828 6    627603.57847  22835543.19947
 18  5 30  0 28 30.0000000  0  9G03G14G16G22G26G27G29G31G32          0.000290934
  23881944.023 4    239743.938 4    175522.82046  23881946.35246
  20788820.563 6    478198.926 6    363847.28548  20788818.71948
  20721151.070 7    -24243.770 7    -18200.80948  20721148.56348
  23810293.609 5    390005.844 5    283399.60247  23810289.42247
  20795313.594 7    369734.508 7    282119.07048  20795314.36748
  22741995.445 5   -725917.102 5   -545292.63347  22741997.19547
  23860552.727 5    736520.793 5    459542.96946  23860553.01646
  21738698.547 7    260461.832 7    196161.14148  21738696.68048
  22839038.328 6    872286.621 6    641920.02747  22839038.80147
 18  5 30  0 28 35.0000000  0  9G03G14G16G22G26G27G29G31G32          0.000292610
  23882928.055 5    244914.527 5    179551.86746  23882930.52046
  20790746.719 6    488318.324 6    371732.52348  20790744.59048
  20721088.820 7    -24571.246 7    -18455.99248  20721086.34048
  23811929.539 5    398597.363 5    290094.28546  23811924.36746
  20796782.469 7    377452.496 7    288133.07448  20796783.25848
  22739119.555 5   -741031.094 5   -557069.78947  22739120.47347
  23863526.406 5    752146.906 5    471719.16046  23863526.49646
  21739732.914 7    265896.719 7    200396.10948  21739730.96148
  22842538.164 6    890676.781 6    656249.99247  22842537.70347
 18  5 30  0 28 40.0000000  0  9G03G14G16G22G26G27G29G31G32          0.000294294
  23883916.797 4    250109.004 4    183599.54746  23883918.85946
  20792677.344 6    498464.297 6    379638.47348  20792675.12948
  20721031.188 7    -24874.391 7    -18692.21548  20721028.43048
  23813567.477 5    407208.457 5    296804.21146  23813562.73046
  20798255.156 7    385190.344 7    294162.57448  20798255.91448
  22736246.547 5   -756127.859 5   -568833.49647  22736248.24247
  23866503.219 5    767796.121 5    483913.35246  23866504.68846
  21740770.109 7    271347.043 7    204643.11748  21740768.12548
  22846041.461 6    909087.223 6    670595.77047  22846040.94547
 18  5 30  0 28 45.0000000  0  9G03G14G16G22G26G27G29G31G32          0.000295990
  23884910.539 4    255330.799 4    187668.42646  23884911.93046
  20794613.680 6    508640.117 6    387567.67648  20794611.52348
  20720978.750 6    -25149.824 6    -18906.84448  20720976.07448
  23815210.242 5    415842.480 5    303532.00047  23815205.66847
  20799731.836 7    392951.426 7    300210.16448  20799732.93848
  22733377.367 5   -771203.957 5   -580581.10547  22733378.69947
  23869486.484 5    783471.805 5    496128.14847  23869487.85947
  21741810.992 6    276816.105 6    208904.69548  21741809.30548
  22849549.430 6    927521.277 6    684959.93047  22849548.69947
 18  5 30  0 28 50.0000000  0  9G03G14G16G22G26G27G29G31G32          0.000297697
  23885911.602 5    260583.582 5    191761.50446  23885910.96946
  20796556.445 6    518849.563 6    395523.09448  20796554.78948
  20720932.445 6    -25393.887 6    -19097.02048  20720929.74248
  23816859.102 5    424503.078 5    310280.52746  23816853.35946
  20801213.828 7    400739.461 7    306278.76648  20801214.94148
  22730513.672 6   -786255.656 6   -592309.69547  22730514.75847
  23872475.242 5    799177.734 5    508366.51647  23872476.87147
  21742855.664 7    282307.789 7    213183.95348  21742854.20348
  22853062.781 6    945982.723 6    699345.46547  22853061.50447
 18  5 30  0 28 55.0000000  0  9G03G14G16G22G26G27G29G31G32          0.000299417
  23886917.414 5    265871.441 5    195881.91846  23886917.32446
  20798506.563 6    529096.707 6    403507.87148  20798504.61748
  20720892.484 6    -25602.438 6    -19259.52348  20720890.09048
  23818512.023 5    433194.355 5    317052.92247  23818507.25047
  20802701.859 7    408558.582 7    312371.57848  20802703.14148
  22727653.945 5   -801278.816 5   -604016.05547  22727655.74647
  23875471.75015    814916.90215    519650.51957  23875471.66057
  21743905.930 7    287826.063 7    217483.90648  21743904.00048
  22856581.781 6    964475.617 6    713755.48447  22856580.59447
 18  5 30  0 29  0.0000000  0  9G03G14G16G22G26G27G29G31G32          0.000301159
  23887931.250 5    271198.719 5    200033.03146  23887931.02346
  20800463.906 6    539385.855 6    411525.38748  20800462.39148
  20720860.469 7    -25771.184 7    -19391.02048  20720858.07048
  23820172.242 5    441920.645 5    323852.63347  23820168.12547
  20804196.461 7    416413.023 7    318491.92248  20804197.35248
  22724801.789 6   -816269.223 6   -615696.87947  22724803.43847
  23878473.938 5    830695.652 5    531945.67256  23878474.75056
  21744961.898 7    293375.277 7    221807.95748  21744959.89848
  22860107.453 6    983004.199 6    728193.31347  22860106.80547
 18  5 30  0 29  5.0000000  0  9G03G14G16G22G26G27G29G31G32          0.000302921
  23888952.359 5    276569.762 5    204218.23046  23888952.26246
  20802430.703 6    549721.371 6    419579.03548  20802429.28548
  20720836.688 6    -25895.723 6    -19488.06648  20720833.90248
  23821841.125 5    450686.230 5    330682.93846  23821836.40246
  20805698.805 7    424307.184 7    324643.21548  20805699.92248
  22721956.047 6   -831222.359 6   -627348.66447  22721958.03547
  23881484.555 5    846517.406 5    544274.32446  23881485.10946
  21746024.305 7    298959.793 7    226159.53148  21746022.53148
  22863640.773 6   1001572.938 6    742662.44547  22863640.64847
 18  5 30  0 29 10.0000000  0  9G03G14G16G22G26G27G29G31G32          0.000304703
  23889984.141 5    281988.918 5    208440.92646  23889983.62546
  20804407.281 6    560107.586 6    427672.18048  20804405.85248
  20720822.414 6    -25971.758 6    -19547.32848  20720819.95748
  23823516.813 5    459495.551 5    337547.34846  23823512.33246
  20807209.555 7    432245.414 7    330828.84848  20807210.12148
  22719118.133 6   -846133.883 6   -638968.02747  22719120.21547
  23884504.133 5    862386.445 5    556639.80947  23884505.27047
  21747094.836 7    304584.031 7    230542.05948  21747092.83648
  22867182.563 6   1020186.129 6    757166.23047  22867182.94147
 18  5 30  0 29 15.0000000  0  9G03G14G16G22G26G27G29G31G32          0.000306513
  23891025.203 5    287460.105 5    212704.21546  23891024.84846
  20806394.336 6    570548.523 6    435807.98048  20806392.37948
  20720818.336 7    -25995.266 7    -19565.64848  20720815.28148
  23825202.727 5    468352.551 5    344448.93046  23825198.03146
  20808728.750 7    440231.672 7    337051.89848  20808730.13348
  22716288.852 5   -860999.852 5   -650551.88747  22716291.24247
  23887533.508 5    878306.711 5    569045.21547  23887534.77047
  21748173.203 7    310251.895 7    234958.57448  21748171.09048
  22870733.930 6   1038847.715 6    771707.70747  22870734.40247
 18  5 30  0 29 20.0000000  0  9G03G14G16G22G26G27G29G31G32          0.000308350
  23892077.078 5    292987.332 5    217011.12946  23892076.34846
  20808392.336 6    581048.094 6    443989.45748  20808390.12548
  20720824.266 6    -25962.391 6    -19540.02748  20720821.57848
  23826898.195 5    477261.066 5    351390.61746  23826893.20346
  20810258.438 7    448269.867 7    343315.42648  20810259.59848
  22713470.055 5   -875816.320 5   -662097.17247  22713471.42647
  23890573.234 5    894282.211 5    581493.64546  23890574.75046
  21749260.680 6    315967.371 6    239412.18448  21749259.12948
  22874294.984 6   1057561.629 6    786289.96147  22874296.27047
 18  5 30  0 29 25.0000000  0  9G03G14G16G22G26G27G29G31G32          0.000310219
  23893140.453 5    298573.961 5    221364.34446  23893139.81346
  20810401.828 6    591609.730 6    452219.29348  20810400.08648
  20720841.859 6    -25869.625 6    -19467.75848  20720839.13748
  23828603.477 5    486224.656 5    358375.19547  23828598.94147
  20811798.359 7    456363.449 7    349622.10948  20811800.09848
  22710660.055 5   -890579.809 5   -673601.17647  22710662.44547
  23893624.828 5    910316.281 5    593987.71946  23893626.15646
  21750358.391 7    321733.887 7    243905.57048  21750356.49648
  22877866.641 6   1076331.340 6    800915.70747  22877868.11347
 18  5 30  0 29 30.0000000  0  9G03G14G16G22G26G27G29G31G32          0.000312119
  23894215.313 5    304222.793 5    225766.01646  23894214.98846
  20812424.227 6    602236.195 6    460499.66048  20812421.85948
  20720871.531 6    -25714.230 6    -19346.67248  20720868.65248
  23830320.531 5    495245.941 5    365404.76646  23830316.00046
  20813349.461 7    464515.184 7    355974.10548  20813351.04348
  22707861.844 5   -905287.488 5   -685061.70747  22707863.45347
  23896687.719 5    926411.770 5    606529.65646  23896688.86746
  21751466.086 7    327554.238 7    248440.90248  21751464.71548
  22881449.836 6   1095159.543 6    815587.02347  22881451.41047
 18  5 30  0 29 35.0000000  0  9G03G14G16G22G26G27G29G31G32          0.000314053
  23895302.648 5    309935.797 5    230217.71146  23895302.14546
  20814459.719 6    612929.465 6    468832.06648  20814456.96948
  20720913.336 6    -25494.234 6    -19175.25048  20720910.27348
  23832048.742 6    504327.008 6    372480.91447  23832044.20747
  20814912.438 7    472727.035 7    362372.94948  20814913.64848
  22705074.406 5   -919937.426 5   -696477.24647  22705075.59847
  23899762.508 5    942570.629 5    619120.96547  23899763.68047
  21752584.078 7    333430.367 7    253019.69148  21752582.47748
  22885043.898 6   1114048.297 6    830305.53947  22885046.18447
 18  5 30  0 29 40.0000000  0  9G03G14G16G22G26G27G29G31G32          0.000316021
  23896402.250 5    315714.762 5    234720.77746  23896401.73846
  20816507.398 6    623691.336 6    477217.93448  20816504.55148
  20720968.148 7    -25207.805 7    -18952.06348  20720964.92648
  23833788.797 6    513469.582 6    379604.99246  23833784.57446
  20816486.852 7    481000.809 7    368820.04748  20816488.66448
  22702297.930 5   -934527.730 5   -707846.31647  22702298.84847
  23902850.250 5    958794.629 5    631763.02746  23902851.34446
  21753713.703 7    339364.109 7    257643.38748  21753711.32448
  22888650.313 6   1132999.355 6    845072.58247  22888652.42647
 18  5 30  0 29 45.0000000  0  9G03G14G16G22G26G27G29G31G32          0.000318024
  23897514.102 6    321558.473 6    239274.34046  23897514.19546
  20818567.977 6    634520.629 6    485656.34048  20818565.59448
  20721035.328 6    -24856.246 6    -18678.12948  20721032.10548
  23835539.781 6    522672.438 6    386776.03946  23835535.60946
  20818072.727 7    489335.242 7    375314.40648  20818074.25448
  22699532.633 5   -949059.703 5   -719169.93047  22699533.66847
  23905949.141 5    975082.520 5    644454.89546  23905950.98046
  21754853.164 7    345354.273 7    262311.03948  21754851.29748
  22892268.406 6   1152011.449 6    859887.19147  22892270.14147
 18  5 30  0 29 50.0000000  0  9G03G14G16G22G26G27G29G31G32          0.000320059
  23898638.281 6    327464.535 6    243876.42246  23898637.88746
  20820641.242 6    645414.867 6    494145.34848  20820638.70748
  20721114.219 6    -24441.887 6    -18355.25048  20721110.70348
  23837302.500 6    531933.199 6    393992.19947  23837297.44947
  20819669.547 7    497727.945 7    381854.17248  20819671.02748
  22696778.797 5   -963535.656 5   -730449.91847  22696778.87147
  23909060.664 5    991431.871 5    657194.64846  23909061.19146
  21756003.391 7    351398.480 7    267020.81348  21756001.46548
  22895897.109 6   1171082.180 6    874747.49647  22895899.44547
 18  5 30  0 29 55.0000000  0  9G03G14G16G22G26G27G29G31G32          0.000322126
  23899773.742 5    333432.875 5    248527.09046  23899774.19946
  20822726.430 6    656374.129 6    502685.03548  20822723.99648
  20721204.781 6    -23964.777 6    -17983.47748  20721201.43448
  23839075.094 6    541251.867 6    401253.50046  23839071.35946
  20821277.891 7    506178.938 7    388439.35548  20821279.22348
  22694034.797 5   -977955.648 5   -741686.27347  22694034.90247
  23912183.133 5   1007842.688 5    669982.28546  23912184.18846
  21757164.094 7    357496.711 7    271772.67248  21757162.14848
  22899537.500 6   1190211.512 6    889653.45747  22899539.66847
 18  5 30  0 30  0.0000000  0  9G03G14G16G22G26G27G29G31G32          0.000324224
  23900920.438 5    339462.063 5    253225.14546  23900921.75846
  20824824.359 6    667396.898 6    511274.19148  20824822.01248
  20721307.188 6    -23426.348 6    -17563.92248  20721303.62548
  23840859.766 6    550626.934 6    408558.74647  23840855.43047
  20822896.953 7    514686.754 7    395068.82848  20822897.93848
  22691300.797 5   -992321.016 5   -752880.07447  22691301.01647
  23915317.414 5   1024313.605 5    682816.77047  23915318.13747
  21758334.375 7    363647.500 7    276565.50048  21758332.65648
  22903188.992 6   1209398.129 6    904604.03947  22903190.76247
 18  5 30  0 30  5.0000000  0  9G03G14G16G22G26G27G29G31G32          0.000326351
  23902078.617 5    345545.969 5    257965.83646  23902079.13746
  20826932.539 7    678477.012 7    519908.04748  20826930.13748
  20721420.195 7    -22832.770 7    -17101.39148  20721416.79748
  23842653.539 6    560052.273 6    415903.14847  23842649.29347
  20824525.336 6    523245.180 6    401737.71948  20824526.77348
  22688576.836 5  -1006638.004 5   -764036.16047  22688576.44947
  23918462.352 5   1040838.305 5    695693.16046  23918462.77746
  21759513.727 7    369844.680 7    281394.47348  21759511.47748
  22906849.164 6   1228635.730 6    919594.37147  22906851.02747
 18  5 30  0 30 10.0000000  0  9G03G14G16G22G26G27G29G31G32          0.000328503
  23903246.242 5    351682.652 5    262747.68446  23903247.16846
  20829051.539 6    689612.578 6    528585.10248  20829049.33648
  20721543.422 7    -22185.949 7    -16597.37548  20721540.25048
  23844456.273 6    569525.926 6    423285.22347  23844452.25047
  20826163.539 6    531852.336 6    408444.58648  20826165.00048
  22685861.383 6  -1020908.453 6   -775155.99247  22685860.96547
  23921616.719 5   1057414.949 5    708610.01647  23921617.34447
  21760701.242 7    376086.387 7    286258.14848  21760699.04348
  22910519.852 6   1247922.426 6    934622.94147  22910521.24247
 18  5 30  0 30 15.0000000  0  9G03G14G16G22G26G27G29G31G32          0.000330681
  23904423.461 5    357869.488 5    267568.58646  23904424.14146
  20831180.930 6    700800.965 6    537303.32848  20831178.61748
  20721675.633 6    -21488.504 6    -16053.91448  20721672.35248
  23846267.391 5    579045.305 5    430702.92647  23846263.72747
  20827810.180 6    540505.578 6    415187.36748  20827811.40248
  22683154.289 6  -1035134.996 6   -786241.58647  22683153.87947
  23924780.36715   1074040.84815    720528.24257  23924778.13757
  21761897.242 7    382369.984 7    291154.45348  21761894.86748
  22914198.563 6   1267255.602 6    949687.73847  22914199.44947
 18  5 30  0 30 20.0000000  0  9G03G14G16G22G26G27G29G31G32          0.000332878
  23905610.047 5    364102.770 5    272425.68846  23905610.02746
  20833319.063 6    712038.469 6    546059.81348  20833317.41048
  20721817.617 6    -20744.164 6    -15473.91048  20721814.03948
  23848086.047 5    588606.609 5    438153.28947  23848083.21547
  20829464.805 6    549201.219 6    421963.18448  20829466.32448
  22680454.672 6  -1049321.297 6   -797295.84447  22680454.54347
  23927953.172 5   1090712.378 5    733519.05657  23927952.38357
  21763100.203 7    388691.758 7    296080.51248  21763097.63748
  22917885.750 6   1286631.496 6    964785.82447  22917887.13347
 18  5 30  0 30 25.0000000  0  9G03G14G16G22G26G27G29G31G32          0.000335098
  23906803.891 6    370378.211 6    277315.66446  23906804.57446
  20835465.859 6    723320.840 6    554851.27748  20835464.28948
  20721967.141 6    -19957.141 6    -14860.64548  20721963.53948
  23849914.109 5    598205.664 5    445633.09447  23849909.90647
  20831126.508 6    557934.973 6    428768.71148  20831128.35548
  22677761.047 6  -1063471.602 6   -808322.04347  22677761.87947
  23931132.898 5   1107425.188 5    746542.02346  23931132.70346
  21764309.523 7    395047.457 7    301033.00848  21764307.78548
  22921580.281 6   1306045.949 6    979913.94947  22921580.98047
 18  5 30  0 30 30.0000000  0  9G03G14G16G22G26G27G29G31G32          0.000337332
  23908005.352 5    376691.676 5    282235.22746  23908005.87946
  20837620.445 6    734643.938 6    563674.46148  20837619.29748
  20722123.797 6    -19131.625 6    -14217.37948  20722120.80948
  23851746.219 5    607838.277 5    453139.01247  23851742.69147
  20832795.070 7    566702.691 7    435600.69548  20832796.82848
  22675075.000 6  -1077590.035 6   -819323.40647  22675075.02747
  23934321.031 5   1124175.188 5    759593.97746  23934320.35246
  21765524.609 7    401432.980 7    306008.73448  21765522.43448
  22925280.828 6   1325494.691 6    995068.79747  22925281.52347
 18  5 30  0 30 35.0000000  0  9G03G14G16G22G26G27G29G31G32          0.000339582
  23909213.398 6    383039.035 6    287181.23446  23909213.78546
  20839782.063 6    746003.602 6    572526.14548  20839780.71948
  20722287.797 6    -18271.777 6    -13547.37148  20722284.34048
  23853584.367 5    617500.348 5    460667.89847  23853581.31347
  20834469.102 7    575500.207 7    442455.89848  20834470.66048
  22672392.625 6  -1091680.734 6   -830303.16447  22672393.73847
  23937514.445 5   1140958.207 5    772671.65246  23937514.46146
  21766744.430 7    407844.105 7    311004.40248  21766741.92248
  22928987.766 6   1344973.609 6   1010247.17247  22928987.84447
 18  5 30  0 30 40.0000000  0  9G03G14G16G22G26G27G29G31G32          0.000341845
  23910427.242 6    389416.617 6    292150.77346  23910427.75446
  20841950.250 6    757396.219 6    581403.50848  20841948.82448
  20722457.453 6    -17381.219 6    -12853.43048  20722453.94148
  23855427.156 5    627188.137 5    468216.83646  23855424.64546
  20836148.359 6    584323.902 6    449331.50448  20836150.29748
  22669715.883 6  -1105747.367 6   -841264.15247  22669716.62547
  23940713.484 5   1157770.582 5    785772.20746  23940713.74646
  21767968.563 7    414277.238 7    316017.23848  21767966.80148
  22932699.648 6   1364479.055 6   1025446.19547  22932699.75047
 18  5 30  0 30 45.0000000  0  9G03G14G16G22G26G27G29G31G32          0.000344116
  23911646.109 6    395821.082 6    297141.25446  23911646.00446
  20844124.117 6    768818.426 6    590303.92648  20844122.40248
  20722632.000 6    -16463.297 6    -12138.17648  20722628.58648
  23857275.328 5    636898.402 5    475783.26246  23857272.12146
  20837831.977 7    593170.426 7    456224.88348  20837833.44148
  22667043.188 5  -1119793.125 5   -852208.89147  22667044.13747
  23943917.859 5   1174608.969 5    798893.03546  23943917.75846
  21769196.273 7    420729.102 7    321044.65648  21769194.30148
  22936416.023 6   1384007.703 6   1040663.29747  22936415.57847
 18  5 30  0 30 50.0000000  0  9G03G14G16G22G26G27G29G31G32          0.000346395
  23912869.273 6    402249.480 6    302150.39147  23912869.46147
  20846302.430 6    780267.281 6    599225.10548  20846300.48048
  20722811.352 6    -15520.941 6    -11403.87148  20722807.46548
  23859127.375 5    646628.098 5    483364.83246  23859123.02746
  20839519.328 7    602036.844 7    463133.78148  20839520.73848
  22664373.688 5  -1133821.027 5   -863139.73047  22664374.75447
  23947127.219 5   1191470.461 5    812031.86746  23947126.26246
  21770426.977 7    427196.715 7    326084.35548  21770425.15248
  22940135.922 6   1403556.605 6   1055896.20347  22940135.91447
 18  5 30  0 30 55.0000000  0  9G03G14G16G22G26G27G29G31G32          0.000348682
  23914096.797 6    408699.098 6    307176.07046  23914096.84046
  20848485.594 6    791740.063 6    608164.93048  20848483.90248
  20722994.766 6    -14556.898 6    -10652.67248  20722991.09848
  23860981.523 5    656374.488 5    490959.39846  23860977.60546
  20841209.789 7    610920.387 7    470056.02048  20841211.34848
  22661706.766 5  -1147833.781 5   -874058.75047  22661707.84047
  23950339.344 5   1208352.234 5    825186.49646  23950338.99246
  21771660.547 7    433677.383 7    331134.22748  21771658.64148
  22943859.539 6   1423122.988 6   1071142.71547  22943859.64547
 18  5 30  0 31  0.0000000  0  9G03G14G16G22G26G27G29G31G32          0.000350973
  23915327.391 5    415167.707 5    312216.53146  23915327.59446
  20850672.672 6    803234.531 6    617121.65248  20850671.11748
  20723181.953 6    -13573.387 6     -9886.29748  20723178.41848
  23862839.531 5    666135.367 5    498565.27746  23862834.31346
  20842902.977 7    619818.844 7    476989.87948  20842904.99648
  22659043.211 5  -1161833.559 5   -884967.68047  22659044.10947
  23953555.461 5   1225252.137 5    838355.24246  23953554.69546
  21772895.836 7    440168.863 7    336192.51648  21772893.65648
  22947585.641 6   1442704.641 6   1086401.13347  22947585.64547
 18  5 30  0 31  5.0000000  0  9G03G14G16G22G26G27G29G31G32          0.000353268
  23916561.406 5    421653.383 5    317270.32846  23916561.74646
  20852864.055 6    814748.824 6    626093.82448  20852862.27348
  20723372.344 6    -12572.254 6     -9106.20748  20723369.00048
  23864699.117 6    675908.902 6    506180.99247  23864694.40247
  20844599.047 7    628730.344 7    483933.89848  20844600.15248
  22656381.547 5  -1175822.262 5   -895867.97347  22656382.46547
  23956774.891 5   1242168.238 5    851536.61346  23956773.89146
  21774132.547 7    446669.316 7    341257.80548  21774130.44548
  22951313.836 6   1462299.727 6   1101670.02047  22951314.79347
 18  5 30  0 31 10.0000000  0  9G03G14G16G22G26G27G29G31G32          0.000355566
  23917798.375 5    428154.305 5    322335.96146  23917798.70346
  20855058.641 6    826281.055 6    635079.96948  20855056.85948
  20723565.414 6    -11555.414 6     -8313.87148  20723562.61748
  23866561.523 6    685693.164 6    513805.10247  23866556.53147
  20846297.016 7    637653.000 7    490886.61748  20846298.61348
  22653721.938 5  -1189801.695 5   -906761.05147  22653722.33647
  23959996.344 6   1259098.699 6    864729.16047  23959995.61747
  21775371.273 7    453176.859 7    346328.60248  21775368.43848
  22955045.195 6   1481906.293 6   1116947.85247  22955045.81647
 18  5 30  0 31 15.0000000  0  9G03G14G16G22G26G27G29G31G32          0.000357864
  23919038.391 6    434668.938 6    327412.29746  23919038.22346
  20857256.180 6    837829.785 6    644078.98048  20857254.72748
  20723762.164 6    -10524.301 6     -7510.40648  20723759.02348
  23868425.930 6    695486.688 6    521436.39547  23868420.03947
  20847997.055 7    646585.336 7    497846.87548  20847998.32448
  22651062.984 5  -1203773.316 5   -917648.02747  22651063.19547
  23963220.578 6   1276042.023 6    877931.74246  23963220.49646
  21776610.703 7    459690.023 7    351403.79348  21776607.98448
  22958778.031 6   1501522.926 6   1132233.51247  22958779.12147
 18  5 30  0 31 20.0000000  0  9G03G14G16G22G26G27G29G31G32          0.000360165
  23920279.867 5    441196.520 5    332498.71546  23920280.80146
  20859457.180 6    849394.156 6    653090.16448  20859455.45748
  20723961.070 6     -9479.770 6     -6696.49248  20723957.56648
  23870291.039 6    705288.633 6    529074.26647  23870285.85947
  20849698.055 7    655526.535 7    504814.03548  20849699.61748
  22648406.344 5  -1217738.016 5   -928529.62547  22648406.06347
  23966446.883 6   1292997.395 6    891143.72746  23966446.80546
  21777851.156 7    466208.055 7    356482.78148  21777848.25448
  22962512.883 6   1521148.750 6   1147526.35947  22962514.19147
 18  5 30  0 31 25.0000000  0  9G03G14G16G22G26G27G29G31G32          0.000362463
  23921524.547 5    447735.785 5    337594.26246  23921524.93846
  20861660.008 6    860972.906 6    662112.56348  20861658.07448
  20724162.414 6     -8423.090 6     -5873.11348  20724158.78148
  23872157.188 6    715097.699 6    536717.67647  23872152.19147
  20851401.633 7    664475.293 7    511787.09448  20851402.24648
  22645749.484 6  -1231696.941 6   -939406.72747  22645749.18047
  23969675.484 6   1309963.465 6    904363.97346  23969675.18446
  21779091.906 7    472729.582 7    361564.48048  21779089.29748
  22966249.547 5   1540782.488 5   1162825.37146  22966250.26246
 18  5 30  0 31 30.0000000  0  9G03G14G16G22G26G27G29G31G32          0.000364763
  23922771.320 5    454286.011 5    342698.34846  23922771.47346
  20863866.234 6    872565.398 6    671145.66848  20863864.14548
  20724365.445 6     -7354.926 6     -5040.77748  20724362.19548
  23874025.156 5    724913.293 5    544366.18447  23874019.65647
  20853105.023 7    673431.000 7    518765.56348  20853106.52748
  22643094.203 6  -1245650.770 6   -950279.84047  22643094.34447
  23972905.531 6   1326939.680 6    917592.23446  23972905.17246
  21780333.898 7    479254.043 7    366648.47748  21780331.03548
  22969987.664 6   1560423.527 6   1178130.09046  22969987.69546
 18  5 30  0 31 35.0000000  0  9G03G14G16G22G26G27G29G31G32          0.000367064
  23924019.750 5    460846.508 5    347810.40646  23924020.41846
  20866074.367 6    884170.984 6    680188.98048  20866072.88348
  20724570.383 6     -6275.867 6     -4199.94948  20724567.78548
  23875894.047 6    734734.742 6    552019.24647  23875888.70747
  20854810.594 6    682392.980 6    525748.90648  20854811.79748
  22640440.547 5  -1259600.109 5   -961149.43447  22640439.85547
  23976138.227 6   1343925.371 6    930827.82046  23976137.64546
  21781575.789 7    485780.793 7    371734.22748  21781572.87148
  22973725.383 6   1580071.211 6   1193439.90247  22973727.03947
 18  5 30  0 31 40.0000000  0  9G03G14G16G22G26G27G29G31G32          0.000369362
  23925270.469 6    467416.965 6    352930.22746  23925270.43446
  20868285.008 6    895789.215 6    689242.14548  20868283.87548
  20724777.828 6     -5186.379 6     -3350.99648  20724774.85248
  23877763.633 5    744561.602 5    559676.53547  23877759.39547
  20856517.523 7    691360.805 7    532736.81648  20856518.61348
  22637785.867 5  -1273545.406 5   -972015.89147  22637786.23847
  23979372.023 6   1360920.066 6    944070.45346  23979371.79346
  21782817.797 7    492309.406 7    376821.46948  21782815.37548
  22977465.461 6   1599725.066 6   1208754.59447  22977467.66447
 18  5 30  0 31 45.0000000  0  9G03G14G16G22G26G27G29G31G32          0.000371658
  23926521.961 5    473996.422 5    358057.09446  23926522.92246
  20870498.313 6    907419.234 6    698304.49248  20870496.82448
  20724986.789 6     -4087.375 6     -2494.62548  20724984.43048
  23879634.656 5    754392.938 5    567337.30947  23879630.10547
  20858224.656 7    700333.559 7    539728.57448  20858226.10548
  22635132.625 6  -1287487.535 6   -982879.87547  22635133.18847
  23982607.875 5   1377922.906 5    957319.42246  23982607.74646
  21784059.922 6    498838.953 6    381909.41848  21784057.96948
  22981206.602 6   1619384.215 6   1224073.40647  22981208.85247
 18  5 30  0 31 50.0000000  0  9G03G14G16G22G26G27G29G31G32          0.000373955
  23927776.555 5    480584.531 5    363190.67246  23927776.32446
  20872713.641 6    919060.637 6    707375.70748  20872712.34048
  20725197.719 6     -2979.215 6     -1631.14148  20725194.81648
  23881506.164 5    764228.371 5    575001.32446  23881501.83646
  20859933.273 7    709310.895 7    546723.89548  20859934.04748
  22632479.594 6  -1301426.805 6   -993741.62947  22632480.63347
  23985844.953 5   1394933.473 5    970574.39846  23985844.39846
  21785302.922 6    505369.133 6    386997.87148  21785300.78948
  22984948.633 6   1639048.254 6   1239396.00847  22984951.56647
 18  5 30  0 31 55.0000000  0  9G03G14G16G22G26G27G29G31G32          0.000376247
  23929031.820 6    487180.969 6    368330.73847  23929031.81347
  20874930.695 6    930713.094 6    716455.54748  20874929.74248
  20725410.180 6     -1862.223 6      -760.75448  20725408.22748
  23883379.070 5    774067.652 5    582668.26647  23883373.77047
  20861641.969 7    718292.461 7    553722.52048  20861643.18848
  22629827.172 6  -1315363.547 6  -1004601.41447  22629827.85947
  23989082.828 5   1411951.422 5    983835.12946  23989082.99646
  21786545.641 6    511899.625 6    392086.55147  21786543.41847
  22988691.117 6   1658716.898 6   1254722.23447  22988694.29347
 18  5 30  0 32  0.0000000  0  9G03G14G16G22G26G27G29G31G32          0.000378540
  23930288.266 5    493785.180 5    373476.86346  23930288.53146
  20877150.531 6    942376.156 6    725543.64148  20877148.88348
  20725624.703 6      -736.914 6       116.10948  20725622.12148
  23885252.063 5    783910.172 5    590337.75446  23885247.10246
  20863352.180 7    727277.777 7    560724.06348  20863353.31648
  22627175.430 5  -1329298.199 5  -1015459.58247  22627176.61347
  23992322.344 5   1428976.188 5    997101.17646  23992323.26246
  21787787.930 7    518429.840 7    397175.03948  21787786.36748
  22992435.031 6   1678389.617 6   1270051.60247  22992438.18047
 18  5 30  0 32  5.0000000  0  9G03G14G16G22G26G27G29G31G32          0.000380829
  23931546.680 6    500397.184 6    378629.07046  23931547.60946
  20879372.117 6    954049.836 6    734640.00048  20879370.73848
  20725840.320 6       396.781 6       999.52048  20725837.92248
  23887125.695 6    793756.090 6    598009.83647  23887120.39147
  20865062.758 7    736266.859 7    567728.53948  20865064.03948
  22624524.844 5  -1343230.746 5  -1026316.12147  22624525.13347
  23995563.984 6   1446007.965 6   1010372.65246  23995563.02046
  21789030.789 7    524959.953 7    402263.44948  21789028.94548
  22996178.977 6   1698066.465 6   1285384.19547  22996182.34847
 18  5 30  0 32 10.0000000  0  9G03G14G16G22G26G27G29G31G32          0.000383116
  23932806.078 6    507016.617 6    383787.06346  23932807.63346
  20881595.633 6    965733.641 6    743744.25048  20881593.91448
  20726057.758 6      1538.402 6      1889.09448  20726054.39148
  23888999.109 5    803604.855 5    605684.21147  23888994.23447
  20866773.773 7    745259.254 7    574735.59448  20866775.14148
  22621874.367 5  -1357161.594 5  -1037171.33647  22621874.85247
  23998806.352 6   1463046.203 6   1023649.21146  23998804.98446
  21790273.484 7    531489.453 7    407351.35948  21790271.43448
  22999923.797 6   1717746.926 6   1300719.60947  22999927.13347
 18  5 30  0 32 15.0000000  0  8G03G14G16G22G26G27G31G32             0.000385399
  23934067.328 5    513643.645 5    388950.97746  23934068.26646
  20883820.547 6    977427.809 6    752856.59448  20883819.56348
  20726276.297 6      2688.137 6      2784.98848  20726274.05148
  23890874.586 5    813456.652 5    613360.91447  23890868.64147
  20868485.813 6    754255.113 6    581745.35948  20868486.82448
  22619224.172 6  -1371090.664 6  -1048025.14147  22619223.62547
  21791515.719 6    538018.574 6    412438.98448  21791513.73848
  23003669.859 6   1737431.234 6   1316057.97747  23003672.77047
 18  5 30  0 32 20.0000000  0  9G03G14G16G22G26G27G29G31G32          0.000387684
  23935329.461 6    520278.168 6    394120.71146  23935331.41846
  20886048.117 6    989132.250 6    761976.93048  20886046.56348
  20726496.773 6      3845.926 6      3687.15248  20726493.98448
  23892749.063 5    823311.363 5    621039.97346  23892744.46946
  20870198.453 7    763254.418 7    588757.77748  20870199.73448
  22616572.570 5  -1385017.848 5  -1058877.48447  22616573.93447
  24005294.18815   1497146.57815                
  21792758.344 7    544547.195 7    417526.21148  21792756.42648
  23007416.289 6   1757119.223 6   1331399.31347  23007418.76247
 18  5 30  0 32 25.0000000  0  9G03G14G16G22G26G27G29G31G32          0.000389963
  23936593.563 5    526920.246 5    399296.36346  23936594.91846
  20888277.445 6   1000847.102 6    771105.37148  20888275.95748
  20726718.664 6      5011.836 6      4595.64548  20726715.83248
  23894625.125 5    833169.195 5    628721.37947  23894620.55547
  20871911.703 7    772257.246 7    595772.96148  20871912.69948
