     2.10           OBSERVATION DATA    GPS(GPS)            RINEX VERSION / TYPE
cnvtToRINEX 2.50.0  convertToRINEX OPR  30-May-18 13:31 UTC PGM / RUN BY / DATE 
----------------------------------------------------------- COMMENT             
GI255                                                       MARKER NAME         
GI255                                                       MARKER NUMBER       
GNSS Observer       Trimble                                 OBSERVER / AGENCY   
0220247377          5700                2.32                REC # / TYPE / VERS 
                    TRM55971.00                             ANT # / TYPE
 -2966058.5559  5005602.4077  2604600.1936                  APPROX POSITION XYZ 
        1.4960        1.4458        1.5308                  ANTENNA: DELTA H/E/N
     1     1     0                                          WAVELENGTH FACT L1/2
     4    C1    L1    L2    P2                              # / TYPES OF OBSERV 
  2018     5    30     0    23   15.0000000     GPS         TIME OF FIRST OBS   
  2018     5    30     1    35   45.0000000     GPS         TIME OF LAST OBS    
     0                                                      RCV CLOCK OFFS APPL 
    17                                                      LEAP SECONDS        
    12                                                      # OF SATELLITES     
   G03   860   859   845   845                              PRN / # OF OBS      
   G08   438   435   436   436                              PRN / # OF OBS      
   G14   871   871   871   871                              PRN / # OF OBS      
   G16   871   871   871   871                              PRN / # OF OBS      
   G21   458   448   365   365                              PRN / # OF OBS      
   G22   682   675   658   658                              PRN / # OF OBS      
   G23   865   865   865   865                              PRN / # OF OBS      
   G26   871   871   871   871                              PRN / # OF OBS      
   G27   871   871   871   871                              PRN / # OF OBS      
   G29   354   354   354   354                              PRN / # OF OBS      
   G31   871   871   871   871                              PRN / # OF OBS      
   G32   673   672   672   672                              PRN / # OF OBS      
CARRIER PHASE MEASUREMENTS: PHASE SHIFTS REMOVED            COMMENT             
                                                            END OF HEADER       
 18  5 30  0 23 15.0000000  0  8G03G14G16G22G26G27G29G31            -0.000359697
  23660526.28115   -138808.98015    -79781.14856  23660523.11756
  20509738.87517   -100577.56617    -68569.84058  20509734.09458
  20566008.75816   -188911.21516   -123789.51258  20566002.68858
  23546257.13315   -113219.77715    -72454.72356  23546250.51256
  20542230.42217   -115857.28917    -77800.56359  20542228.43459
  22761584.13316   -303265.52716   -171879.04358  22761582.85958
  23514346.99216    -49994.15616    -29897.00457  23514344.39857
  21511506.93016   -137015.00016    -88130.78158  21511502.96158
 18  5 30  0 23 20.0000000  0  8G03G14G16G22G26G27G29G31            -0.000371637
  23657287.039 6   -155831.609 6    -93045.52346  23657283.62546
  20507412.156 6   -112804.754 6    -78097.52348  20507407.09848
  20561719.375 6   -211450.480 6   -141352.57848  20561713.85248
  23543720.383 5   -126550.469 5    -82842.28546  23543713.81646
  20539523.664 7   -130079.246 7    -88882.60949  20539521.89549
  22754573.148 6   -340109.250 6   -200588.44147  22754572.14147
  23513105.266 6    -56517.875 6    -34980.44947  23513102.74647
  21508424.758 6   -153212.910 6   -100752.53148  21508420.02048
 18  5 30  0 23 25.0000000  0  8G03G14G16G22G26G27G29G31            -0.000383591
  23654045.336 6   -172866.137 6   -106319.18446  23654041.95746
  20505083.695 6   -125041.543 6    -87632.68848  20505078.66048
  20557428.422 6   -234001.434 6   -158924.75448  20557422.02348
  23541181.266 5   -139897.219 5    -93242.35246  23541174.24246
  20536814.594 7   -144317.039 7    -99977.00049  20536812.72349
  22747557.734 6   -376972.910 6   -229313.36348  22747556.81648
  23511860.789 6    -63054.141 6    -40073.65647  23511858.67647
  21505337.883 6   -169431.891 6   -113390.69548  21505334.18448
 18  5 30  0 23 30.0000000  0  8G03G14G16G22G26G27G29G31            -0.000395559
  23650801.656 6   -189910.730 6   -119600.68046  23650798.24646
  20502753.625 7   -137286.047 7    -97173.86748  20502748.33248
  20553134.961 6   -256562.254 6   -176504.62148  20553128.91048
  23538638.531 5   -153258.215 5   -103653.52746  23538631.45346
  20534102.375 7   -158568.855 7   -111082.30949  20534100.90649
  22740539.906 6   -413854.629 6   -258052.36348  22740539.02348
  23510615.016 6    -69601.086 6    -45175.17246  23510612.75846
  21502247.789 6   -185670.148 6   -126043.88348  21502243.52048
 18  5 30  0 23 35.0000000  0  8G03G14G16G22G26G27G29G31            -0.000407541
  23647556.563 5   -206964.305 5   -132889.16846  23647552.75446
  20500421.836 7   -149537.227 7   -106720.24248  20500416.96148
  20548839.852 6   -279131.824 6   -194091.30148  20548833.68048
  23536093.656 5   -166632.383 5   -114074.97746  23536086.78946
  20531387.883 7   -172833.613 7   -122197.70349  20531386.25449
  22733518.242 6   -450753.387 6   -286804.62947  22733517.41447
  23509367.609 6    -76157.633 6    -50284.18847  23509365.13347
  21499154.203 6   -201926.598 6   -138711.26248  21499150.14548
 18  5 30  0 23 40.0000000  0  8G03G14G16G22G26G27G29G31            -0.000419537
  23644309.930 6   -224025.492 6   -146183.59846  23644306.60546
  20498089.633 7   -161793.762 7   -116270.80148  20498084.62548
  20544543.867 6   -301708.813 6   -211683.76248  20544537.50048
  23533546.008 5   -180018.445 5   -124505.69146  23533539.73446
  20528671.406 7   -187109.992 7   -133322.16049  20528669.44949
  22726493.688 6   -487667.652 6   -315568.98447  22726492.48847
  23508117.828 5    -82722.391 5    -55399.55546  23508115.62146
  21496057.320 6   -218199.902 6   -151391.75848  21496053.40248
 18  5 30  0 23 45.0000000  0 10G03G14G16G22G23G26G27G29G31G32      -0.000431543
  23641061.625 5   -241093.516 5   -159483.35946  23641058.89546
  20495756.430 7   -174054.727 7   -125824.80948  20495751.39848
  20540246.719 6   -324292.398 6   -229281.36348  20540240.30148
  23530996.781 5   -193415.496 5   -134944.95346  23530990.12146
  24390246.86714   -247713.18414   -145786.60956  24390241.34456
  20525952.484 7   -201397.117 7   -144454.97349  20525951.09849
  22719466.813 5   -524596.695 5   -344344.85247  22719465.50847
  23506868.055 6    -89294.543 6    -60520.72747  23506864.67647
  21492957.742 6   -234489.125 6   -164084.65648  21492953.78548
  22454493.68016    -24476.05516    -17777.10557  22454491.40257
 18  5 30  0 23 50.0000000  0 10G03G14G16G22G23G26G27G29G31G32      -0.000443560
  23637812.359 5   -258167.707 5   -172787.93846  23637809.61746
  20493422.484 7   -186319.594 7   -135381.85248  20493417.56348
  20535947.906 6   -346881.973 6   -246883.62148  20535941.62948
  23528445.109 5   -206822.914 5   -145392.31346  23528438.53146
  24383390.953 4   -283744.309 4   -173862.78145  24383384.73445
  20523231.914 7   -215694.395 7   -155595.71549  20523230.14549
  22712436.578 5   -561539.859 5   -373131.71147  22712435.51647
  23505615.656 6    -95873.508 6    -65647.21547  23505612.90247
  21489855.547 6   -250793.699 6   -176789.53948  21489850.95748
  22453799.008 6    -28126.941 6    -20621.95347  22453796.91847
 18  5 30  0 23 55.0000000  0 10G03G14G16G22G23G26G27G29G31G32      -0.000455589
  23634561.789 5   -275247.832 5   -186097.11346  23634560.13346
  20491087.953 7   -198588.035 7   -144941.68048  20491082.66448
  20531648.383 6   -369477.230 6   -264490.34848  20531641.62548
  23525891.992 5   -220240.492 5   -155847.57046  23525885.43446
  24376530.961 4   -319790.680 4   -201950.90246  24376525.39146
  20520509.406 7   -230001.563 7   -166744.17649  20520507.28949
  22705403.328 6   -598496.867 6   -401929.39547  22705402.87947
  23504362.148 5   -102459.000 5    -70778.80146  23504359.07846
  21486749.633 6   -267113.363 6   -189506.14548  21486745.22748
  22453102.211 6    -31787.242 6    -23474.16847  22453100.36747
 18  5 30  0 24  0.0000000  0 10G03G14G16G22G23G26G27G29G31G32      -0.000467628
  23631310.789 5   -292333.195 5   -199410.40646  23631308.72746
  20488752.852 6   -210859.344 6   -154503.74648  20488747.52748
  20527347.281 6   -392077.488 6   -282100.93448  20527340.88348
  23523337.180 5   -233667.512 5   -166310.13346  23523331.03546
  24369669.023 4   -355851.613 4   -230050.29746  24369663.04746
  20517785.195 7   -244317.938 7   -177899.79749  20517783.21149
  22698368.836 6   -635466.910 6   -430737.22748  22698367.25448
  23503108.273 6   -109050.309 6    -75914.87147  23503104.96947
  21483641.695 7   -283447.406 7   -202234.01648  21483636.66048
  22452404.406 6    -35456.348 6    -26333.23847  22452402.57047
 18  5 30  0 24  5.0000000  0 10G03G14G16G22G23G26G27G29G31G32      -0.000479679
  23628058.773 5   -309423.336 5   -212727.36346  23628056.79746
  20486417.063 7   -223133.090 7   -164067.70748  20486412.38748
  20523045.891 6   -414682.313 6   -299715.09848  20523039.68448
  23520780.125 5   -247103.496 5   -176779.80546  23520773.88346
  24362804.539 4   -391926.570 4   -258160.64146  24362798.12946
  20515059.445 7   -258643.043 7   -189062.21549  20515057.36749
  22691331.141 6   -672449.656 6   -459554.94148  22691329.43448
  23501853.227 6   -115647.063 6    -81055.19147  23501849.79747
  21480530.984 7   -299795.324 7   -214972.64148  21480525.94548
  22451704.422 6    -39133.691 6    -29198.70747  22451702.68847
 18  5 30  0 24 10.0000000  0 10G03G14G16G22G23G26G27G29G31G32      -0.000491741
  23624806.219 5   -326517.699 5   -226047.66846  23624804.07046
  20484081.453 6   -235408.801 6   -173633.21148  20484076.72348
  20518743.445 6   -437291.176 6   -317332.38348  20518737.26248
  23518222.266 5   -260547.938 5   -187256.02346  23518215.52746
  24355937.555 4   -428015.020 4   -286281.54346  24355930.27046
  20512331.578 7   -272976.398 7   -200231.06649  20512329.88349
  22684291.008 6   -709444.457 6   -488382.06348  22684289.62948
  23500596.883 6   -122248.695 6    -86199.32447  23500593.34047
  21477417.625 7   -316156.613 7   -227721.70348  21477412.81348
  22451003.625 6    -42818.777 6    -32070.20347  22451001.46947
 18  5 30  0 24 14.9990000  0 10G03G14G16G22G23G26G27G29G31G32       0.000496191
  23621553.003 5   -343612.477 5   -239368.26646  23621551.30446
  20481745.355 6   -247683.520 6   -183197.93048  20481740.79248
  20514441.495 6   -459899.105 6   -334948.96148  20514435.45648
  23515662.308 5   -273997.801 5   -197736.42246  23515655.91746
  24349068.784 4   -464109.285 4   -314406.90646  24349062.27646
  20509603.026 7   -287314.680 7   -211403.75049  20509601.30049
  22677250.261 6   -746443.488 6   -517212.47348  22677248.51948
  23499339.980 6   -128853.492 6    -91345.92247  23499336.79647
  21474302.112 7   -332527.555 7   -240478.29748  21474297.56948
  22450300.683 6    -46510.453 6    -34946.85947  22450298.85147
 18  5 30  0 24 19.9990000  0 10G03G14G16G22G23G26G27G29G31G32       0.000484110
  23618298.253 5   -360714.484 5   -252694.57846  23618296.75346
  20479408.964 6   -259962.188 6   -192765.73448  20479404.35148
  20510137.605 6   -482515.137 6   -352571.83648  20510131.79648
  23513100.815 6   -287458.434 6   -208225.24246  23513094.47246
  24342196.339 4   -500223.789 4   -342548.14546  24342189.79246
  20506872.589 7   -301663.633 7   -222584.76249  20506871.18749
  22670205.847 6   -783461.590 6   -546057.73047  22670204.23047
  23498082.175 6   -135463.992 6    -96496.97747  23498078.72247
  21471183.792 6   -348914.695 6   -253247.48048  21471179.57348
  22449596.933 6    -50210.195 6    -37829.78948  22449595.16748
 18  5 30  0 24 24.9990000  0 10G03G14G16G22G23G26G27G29G31G32       0.000472019
  23615043.792 5   -377819.805 5   -266023.37146  23615041.54646
  20477072.331 7   -272241.797 7   -202334.27048  20477067.39048
  20505833.081 6   -505134.246 6   -370197.12148  20505827.60148
  23510537.948 6   -300926.520 6   -218719.87146  23510531.39446
  24335321.690 4   -536350.828 4   -370699.08646  24335315.24546
  20504140.925 7   -316019.832 7   -233771.41449  20504138.73749
  22663159.651 6   -820490.727 6   -574911.60247  22663157.90947
  23496823.159 6   -142078.418 6   -101651.09046  23496819.98746
  21468062.940 6   -365314.262 6   -266026.36748  21468058.66348
  22448891.159 6    -53916.773 6    -40718.03948  22448889.81948
 18  5 30  0 24 29.9990000  0 10G03G14G16G22G23G26G27G29G31G32       0.000459919
  23611787.972 5   -394928.102 5   -279354.47746  23611786.09746
  20474735.386 7   -284521.988 7   -211903.24648  20474730.65148
  20501528.581 6   -527756.027 6   -387824.48848  20501522.86248
  23507973.847 6   -314401.793 6   -229220.08246  23507967.66346
  24328444.519 4   -572489.992 4   -398859.48446  24328438.03446
  20501407.409 7   -330382.980 7   -244963.48049  20501405.85549
  22656111.081 6   -857530.563 6   -603773.79747  22656109.55047
  23495564.058 6   -148696.496 6   -106808.03547  23495560.60147
  21464940.073 7   -381725.848 7   -278814.61748  21464935.29648
  22448184.605 6    -57629.828 6    -43611.34048  22448182.84748
 18  5 30  0 24 34.9990000  0 10G03G14G16G22G23G26G27G29G31G32       0.000447811
  23608531.917 5   -412038.121 5   -292686.97746  23608530.49946
  20472398.620 7   -296801.551 7   -221471.75048  20472394.36248
  20497223.511 6   -550379.293 6   -405453.00848  20497217.63648
  23505407.800 5   -327883.055 5   -239724.96547  23505402.16747
  24321564.956 4   -608640.086 4   -427028.35946  24321558.81546
  20498673.183 7   -344751.863 7   -256160.01249  20498671.86649
  22649060.636 6   -894579.879 6   -632643.38747  22649059.66347
  23494303.815 6   -155316.973 6   -111966.85247  23494300.50747
  21461815.112 7   -398148.289 7   -291611.33648  21461810.63648
  22447477.269 6    -61348.121 6    -46508.71548  22447475.54648
 18  5 30  0 24 39.9990000  0 10G03G14G16G22G23G26G27G29G31G32       0.000435694
  23605276.636 6   -429149.125 6   -306020.23446  23605274.00746
  20470062.026 6   -309079.750 6   -231039.18848  20470057.19848
  20492918.003 6   -573003.324 6   -423082.14148  20492912.46448
  23502841.230 6   -341369.477 6   -250233.86347  23502835.27247
  24314685.190 5   -644800.309 5   -455205.17246  24314677.64446
  20495937.886 7   -359125.695 7   -267360.40249  20495936.37849
  22642008.425 6   -931637.879 6   -661519.75047  22642007.58547
  23493044.519 6   -161939.094 6   -117126.96547  23493040.55847
  21458688.136 7   -414580.719 7   -304415.83248  21458683.55448
  22446768.862 6    -65070.965 6    -49409.64847  22446766.79247
 18  5 30  0 24 44.9990000  0 10G03G14G16G22G23G26G27G29G31G32       0.000423569
  23602019.167 6   -446263.117 6   -319355.79746  23602017.23746
  20467725.511 7   -321358.555 7   -240607.09048  20467721.01148
  20488612.683 6   -595630.074 6   -440713.37948  20488607.01148
  23500273.808 5   -354863.137 5   -260748.41046  23500267.54646
  24307801.112 4   -680972.648 4   -483391.39846  24307794.23046
  20493201.690 7   -373506.547 7   -278566.26249  20493200.42149
  22634954.612 6   -968706.551 6   -690404.41047  22634953.44047
  23491783.237 6   -168564.867 6   -122289.91047  23491779.69447
  21455558.847 7   -431025.215 7   -317229.73448  21455554.30448
  22446058.987 6    -68800.266 6    -52315.60548  22446057.58948
 18  5 30  0 24 49.9990000  0 10G03G14G16G22G23G26G27G29G31G32       0.000411432
  23598762.269 5   -463379.672 5   -332693.40246  23598760.15946
  20465388.933 7   -333637.516 7   -250175.12548  20465384.47248
  20484306.315 6   -618259.121 6   -458346.40248  20484300.96048
  23497704.776 5   -368363.586 5   -271268.26246  23497698.69446
  24300915.839 4   -717156.605 4   -511586.67646  24300908.49146
  20490463.792 7   -387893.875 7   -289777.17249  20490462.23749
  22627898.823 6  -1005785.434 6   -719297.05147  22627897.85147
  23490522.050 6   -175193.871 6   -127455.37947  23490518.30447
  21452427.573 7   -447481.270 7   -330052.64148  21452422.68748
  22445348.284 6    -72535.680 6    -55226.33648  22445347.06548
 18  5 30  0 24 54.9990000  0 10G03G14G16G22G23G26G27G29G31G32       0.000399288
  23595505.308 5   -480498.488 5   -346032.74246  23595502.30446
  20463052.401 6   -345916.379 6   -259743.07448  20463048.00748
  20480000.206 6   -640890.180 6   -475980.99648  20479994.46048
  23495135.175 5   -381870.539 5   -281793.16047  23495128.64447
  24294028.315 4   -753351.953 4   -539790.82446  24294020.61246
  20487724.667 7   -402287.480 7   -300992.97749  20487723.08149
  22620841.612 6  -1042874.242 6   -748197.41447  22620839.65547
  23489260.284 6   -181825.777 6   -132623.09847  23489256.92147
  21449293.870 7   -463948.602 7   -342884.34448  21449289.60148
  22444636.394 6    -76276.887 6    -58141.57448  22444634.87848
 18  5 30  0 24 59.9990000  0 10G03G14G16G22G23G26G27G29G31G32       0.000387135
  23592247.144 5   -497619.250 5   -359373.56345  23592244.05045
  20460716.120 7   -358194.813 7   -269310.68448  20460711.67548
  20475693.042 6   -663522.941 6   -493616.92248  20475687.96048
  23492563.339 5   -395383.680 5   -292322.90646  23492557.51946
  24287137.886 4   -789558.320 4   -568003.56346  24287131.17146
  20484984.472 7   -416687.016 7   -312213.39549  20484983.05449
  22613781.855 5  -1079972.625 5   -777105.23847  22613780.55447
  23487997.675 6   -188460.297 6   -137792.85547  23487993.76147
  21446158.456 7   -480426.855 7   -355724.54348  21446153.73748
  22443923.448 6    -80023.539 6    -61061.05548  22443921.68748
 18  5 30  0 25  4.9990000  0 10G03G14G16G22G23G26G27G29G31G32       0.000374973
  23588988.597 6   -514741.711 6   -372715.75045  23588985.04645
  20458379.355 7   -370472.512 7   -278877.73448  20458374.91348
  20471385.800 6   -686157.121 6   -511253.94148  20471380.78448
  23489990.706 5   -408902.766 5   -302857.27746  23489984.69446
  24280246.019 4   -825775.375 4   -596224.65646  24280238.94446
  20482243.058 7   -431092.254 7   -323438.26249  20482241.92949
  22606720.198 6  -1117080.281 6   -806020.29347  22606719.33947
  23486734.565 6   -195097.223 6   -142964.50447  23486731.19847
  21443020.698 7   -496915.816 7   -368573.09448  21443015.87848
  22443209.620 6    -83775.473 6    -63984.64848  22443207.73748
 18  5 30  0 25  9.9990000  0 10G03G14G16G22G23G26G27G29G31G32       0.000362804
  23585730.355 5   -531864.836 5   -386058.42245  23585726.71045
  20456043.542 7   -382748.516 7   -288443.46148  20456039.13648
  20467078.730 6   -708791.684 6   -528891.27048  20467073.98748
  23487417.167 5   -422426.766 5   -313395.47747  23487410.82347
  24273352.456 4   -862002.145 4   -624453.29746  24273345.05046
  20479501.230 7   -445502.094 7   -334666.71949  20479499.53449
  22599657.792 6  -1154196.164 6   -834941.75847  22599656.45247
  23485471.409 6   -201735.457 6   -148137.15647  23485468.08147
  21439880.823 7   -513414.418 7   -381429.14848  21439876.26548
  22442494.589 6    -87531.586 6    -66911.51647  22442493.35847
 18  5 30  0 25 14.9990000  0 10G03G14G16G22G23G26G27G29G31G32       0.000350626
  23582471.042 6   -548989.906 6   -399402.66846  23582467.47646
  20453707.167 7   -395024.059 7   -298008.82448  20453703.21848
  20462771.315 6   -731427.949 6   -546529.92248  20462765.97648
  23484842.730 5   -435957.020 5   -323938.53146  23484836.10846
  24266456.698 5   -898239.852 5   -652690.47746  24266450.04246
  20476757.722 7   -459917.926 7   -345899.83249  20476756.79249
  22592592.878 6  -1191321.586 6   -863870.66447  22592591.51147
  23484208.128 6   -208376.328 6   -153311.85247  23484204.42947
  21436739.034 7   -529923.984 7   -394293.74248  21436734.85148
  22441778.612 6    -91293.195 6    -69842.63347  22441777.58547
 18  5 30  0 25 19.9990000  0 10G03G14G16G22G23G26G27G29G31G32       0.000338436
  23579211.784 6   -566118.852 6   -412749.89545  23579208.34345
  20451371.355 7   -407301.082 7   -307575.34048  20451366.97648
  20458462.870 6   -754067.805 6   -564171.37148  20458457.66748
  23482266.433 5   -449495.402 5   -334487.91846  23482260.36246
  24259558.206 4   -934490.457 4   -680937.70346  24259551.27646
  20474013.097 7   -474341.641 7   -357139.09049  20474011.52249
  22585526.253 6  -1228458.430 6   -892808.46948  22585524.87848
  23482943.253 6   -215021.703 6   -158490.08247  23482939.72247
  21433594.925 7   -546446.410 7   -407168.36348  21433590.62448
  22441061.253 6    -95062.242 6    -72779.57047  22441060.51547
 18  5 30  0 25 24.9990000  0 10G03G14G16G22G23G26G27G29G31G32       0.000326241
  23575951.784 5   -583249.137 5   -426098.15246  23575949.05846
  20449035.620 7   -419576.965 7   -317140.96948  20449031.07748
  20454154.362 6   -776708.684 6   -581813.62148  20454149.60148
  23479689.448 5   -463039.414 5   -345041.70746  23479682.60546
  24252657.792 5   -970751.301 5   -709192.88746  24252651.00346
  20471267.464 7   -488770.613 7   -368382.44949  20471266.06549
  22578457.183 6  -1265604.090 6   -921753.15248  22578455.38648
  23481678.362 6   -221669.121 6   -163669.88347  23481674.53047
  21430448.862 7   -562979.063 7   -420050.95348  21430444.57348
  22440342.995 6    -98836.148 6    -75720.28147  22440341.89447
 18  5 30  0 25 29.9990000  0 10G03G14G16G22G23G26G27G29G31G32       0.000314035
  23572692.003 5   -600379.574 5   -439446.53546  23572688.64446
  20446699.925 7   -431850.629 7   -326704.86748  20446695.11648
  20449846.292 7   -799349.465 7   -599455.78548  20449840.98348
  23477111.245 5   -476587.820 5   -355598.92646  23477104.56546
  24245755.800 4  -1007021.360 4   -737455.27146  24245748.98346
  20468521.105 7   -503203.797 7   -379629.09449  20468519.19849
  22571387.081 6  -1302757.406 6   -950703.78547  22571385.56947
  23480412.894 6   -228317.375 6   -168850.36346  23480409.59346
  21427300.933 7   -579520.785 7   -432940.60948  21427296.62848
  22439624.214 6   -102613.758 6    -78663.89847  22439623.44447
 18  5 30  0 25 34.9990000  0 10G03G14G16G22G23G26G27G29G31G32       0.000301825
  23569432.597 5   -617509.559 5   -452794.58246  23569429.35146
  20444364.480 6   -444121.398 6   -336266.51248  20444360.39748
  20445537.901 7   -821989.531 7   -617097.40248  20445532.65148
  23474532.261 6   -490140.086 6   -366159.14547  23474525.44847
  24238852.581 4  -1043299.820 4   -765724.19146  24238846.10846
  20465773.589 7   -517640.508 7   -390878.47749  20465771.75349
  22564316.120 6  -1339917.738 6   -979659.89847  22564314.46447
  23479147.792 6   -234965.879 6   -174031.02047  23479144.51147
  21424151.792 7   -596070.992 7   -445836.87548  21424147.42948
  22438904.495 6   -106394.457 6    -81609.90247  22438903.59747
 18  5 30  0 25 39.9990000  0 10G03G14G16G22G23G26G27G29G31G32       0.000289606
  23566172.886 5   -634638.953 5   -466142.15246  23566169.62846
  20442030.050 6   -456389.176 6   -345825.82848  20442025.61248
  20441229.745 6   -844628.754 6   -634738.35248  20441224.44048
  23471952.378 5   -503696.066 5   -376722.24646  23471945.83946
  24231948.065 5  -1079586.617 5   -793999.57846  24231940.59746
  20463025.440 7   -532080.656 7   -402130.54749  20463023.67949
  22557243.245 6  -1377084.910 6  -1008621.33247  22557241.68747
  23477882.761 6   -241614.461 6   -179211.73047  23477879.70647
  21421000.276 7   -612629.547 7   -458739.65248  21420996.23048
  22438185.034 6   -110178.145 6    -84558.24247  22438183.84747
 18  5 30  0 25 44.9990000  0 10G03G14G16G22G23G26G27G29G31G32       0.000277380
  23562913.089 5   -651767.699 5   -479489.23446  23562910.25346
  20439696.355 6   -468653.871 6   -355382.74248  20439692.01948
  20436921.683 6   -867266.996 6   -652378.54748  20436916.49948
  23469371.839 5   -517255.711 5   -387288.21546  23469365.73746
  24225040.620 5  -1115881.727 5   -822281.49646  24225033.68746
  20460277.425 7   -546524.129 7   -413385.20749  20460275.53449
  22550169.183 6  -1414258.918 6  -1037588.09047  22550167.77247
  23476617.245 6   -248263.066 6   -184392.47746  23476614.04246
  21417848.230 7   -629196.387 7   -471648.87548  21417843.86248
  22437463.894 6   -113964.723 6    -87508.84847  22437463.55047
 18  5 30  0 25 49.9990000  0 10G03G14G16G22G23G26G27G29G31G32       0.000265146
  23559654.206 5   -668895.805 5   -492835.82846  23559651.11646
  20437362.698 6   -480915.492 6   -364937.25448  20437358.47648
  20432614.058 6   -889904.305 6   -670018.01648  20432608.71448
  23466791.097 5   -530818.938 5   -397856.98446  23466784.61246
  24218132.480 5  -1152185.055 5   -850569.78546  24218125.49946
  20457527.933 7   -560970.988 7   -424642.49649  20457526.14449
  22543094.042 6  -1451439.629 6  -1066560.06347  22543092.74947
  23475352.253 6   -254911.758 6   -189573.28146  23475349.25346
  21414694.167 7   -645771.465 7   -484564.52748  21414689.81248
  22436742.769 6   -117754.246 6    -90461.73847  22436741.61247
 18  5 30  0 25 54.9990000  0 10G03G14G16G22G23G26G27G29G31G32       0.000252907
  23556394.581 5   -686023.273 5   -506181.92646  23556392.03446
  20435030.058 6   -493174.031 6   -374489.36748  20435026.14048
  20428306.776 7   -912540.637 7   -687656.71948  20428301.55848
  23464209.730 5   -544385.828 5   -408428.58646  23464203.11246
  24211222.706 5  -1188496.590 5   -878864.50846  24211215.48746
  20454778.112 7   -575421.172 7   -435902.38749  20454775.92949
  22536017.183 6  -1488627.082 6  -1095537.28547  22536015.57347
  23474087.300 6   -261560.457 6   -194754.11746  23474083.81946
  21411538.136 7   -662354.809 7   -497486.60948  21411533.86248
  22436021.448 6   -121546.645 6    -93416.86747  22436019.45647
 18  5 30  0 25 59.9990000  0 10G03G14G16G22G23G26G27G29G31G32       0.000240660
  23553136.190 5   -703149.777 5   -519527.27046  23553132.90546
  20432698.065 6   -505429.172 6   -384038.83648  20432693.98348
  20423999.198 7   -935175.762 7   -705294.48848  20423994.25348
  23461627.636 6   -557956.023 6   -419002.77046  23461620.40546
  24204311.183 5  -1224816.023 5   -907165.35946  24204303.98346
  20452028.034 7   -589874.438 7   -447164.68049  20452025.76549
  22528939.003 6  -1525820.957 6  -1124519.52047  22528937.71847
  23472821.722 6   -268208.961 6   -199934.76646  23472818.63646
  21408380.847 6   -678946.066 6   -510414.86748  21408376.33548
  22435299.214 6   -125341.703 6    -96374.06647  22435297.81547
 18  5 30  0 26  4.9990000  0 10G03G14G16G22G23G26G27G29G31G32       0.000228407
  23549876.440 5   -720275.691 5   -532872.16046  23549873.94446
  20430366.683 6   -517681.254 6   -393585.92248  20430362.93348
  20419692.151 6   -957810.004 6   -722931.54748  20419686.83948
  23459044.206 6   -571529.891 6   -429579.80146  23459037.27246
  24197397.808 5  -1261143.699 5   -935472.65246  24197391.70246
  20449276.940 7   -604331.121 7   -458429.62949  20449275.02249
  22521860.401 6  -1563021.555 6  -1153506.99647  22521858.74147
  23471556.612 6   -274857.551 6   -205115.50046  23471553.19046
  21405222.050 7   -695545.594 7   -523349.57048  21405218.03448
  22434576.698 6   -129139.707 6    -99333.56647  22434575.06947
 18  5 30  0 26  9.9990000  0 10G03G14G16G22G23G26G27G29G31G32       0.000216145
  23546618.159 5   -737400.656 5   -546216.30546  23546614.88646
  20428035.948 6   -529929.941 6   -403130.35548  20428031.89448
  20415384.909 7   -980442.992 7   -740567.64548  20415379.84748
  23456459.995 5   -585107.172 5   -440159.53146  23456453.86646
  24190483.737 5  -1297479.215 5   -963786.02046  24190477.34746
  20446525.183 7   -618790.871 7   -469696.96149  20446523.26549
  22514780.269 6  -1600228.426 6  -1182499.35247  22514778.08547
  23470291.034 6   -281505.918 6   -210296.05146  23470287.85146
  21402061.987 6   -712153.047 6   -536290.44948  21402057.42548
  22433853.362 6   -132940.355 6   -102295.11747  22433851.38647
 18  5 30  0 26 14.9990000  0 10G03G14G16G22G23G26G27G29G31G32       0.000203878
  23543359.745 5   -754524.551 5   -559559.60546  23543356.58146
  20425705.542 6   -542175.078 6   -412672.02348  20425701.65948
  20411078.573 7  -1003074.531 7   -758202.61748  20411073.59748
  23453876.409 5   -598687.609 5   -450741.71146  23453869.64046
  24183567.855 5  -1333822.402 5   -992105.38346  24183561.65146
  20443773.323 7   -633253.531 7   -480966.57049  20443771.16749
  22507698.550 5  -1637441.633 5  -1211496.66047  22507696.76947
  23469025.761 5   -288153.875 5   -215476.25846  23469022.49546
  21398900.347 7   -728768.266 7   -549237.36348  21398896.01948
  22433129.495 6   -136743.512 6   -105258.64147  22433127.97247
 18  5 30  0 26 19.9990000  0 10G03G14G16G22G23G26G27G29G31G32       0.000191605
  23540100.737 5   -771647.063 5   -572901.83246  23540098.23746
  20423376.198 6   -554416.352 6   -422210.69548  20423371.87448
  20406772.167 7  -1025704.375 7   -775836.26248  20406766.87048
  23451290.355 5   -612271.004 5   -461326.15246  23451284.78046
  24176650.839 5  -1370173.008 5  -1020430.57046  24176643.94846
  20441020.097 7   -647718.836 7   -492238.23849  20441018.48049
  22500615.667 6  -1674660.688 6  -1240498.53147  22500613.88647
  23467761.159 5   -294801.234 5   -220656.04346  23467757.51946
  21395737.042 7   -745390.902 7   -562190.08248  21395733.05048
  22432405.534 6   -140548.848 6   -108223.82847  22432404.00747
 18  5 30  0 26 24.9990000  0 10G03G14G16G22G23G26G27G29G31G32       0.000179323
  23536842.526 5   -788768.500 5   -586243.20346  23536840.14746
  20421047.519 7   -566654.082 7   -431746.59048  20421043.89748
  20402466.245 7  -1048332.863 7   -793468.85948  20402460.70648
  23448705.183 5   -625857.629 5   -471913.16046  23448699.55446
  24169731.706 5  -1406531.316 5  -1048761.69546  24169725.43746
  20438266.722 7   -662187.082 7   -503512.19949  20438265.04649
  22493532.300 6  -1711885.980 6  -1269505.24247  22493530.12847
  23466496.261 5   -301448.207 5   -225835.51646  23466492.65946
  21392572.550 7   -762021.320 7   -575148.84448  21392568.29248
  22431680.714 6   -144356.703 6   -111191.00447  22431679.13647
 18  5 30  0 26 29.9990000  0 10G03G14G16G22G23G26G27G29G31G32       0.000167036
  23533584.261 4   -805888.449 4   -599583.44946  23533582.55846
  20418719.550 6   -578887.832 6   -441279.38348  20418715.24148
  20398160.667 7  -1070959.527 7   -811100.02348  20398155.75348
  23446119.620 5   -639447.086 5   -482502.34446  23446113.86246
  24162811.612 5  -1442896.816 5  -1077098.42246  24162805.65146
  20435513.628 7   -676657.801 7   -514788.08648  20435511.82748
  22486447.589 6  -1749116.965 6  -1298516.39547  22486445.49947
  23465232.636 5   -308094.410 5   -231014.39146  23465227.71046
  21389406.151 7   -778659.016 7   -588113.28148  21389402.16348
  22430955.714 6   -148166.625 6   -114159.78547  22430953.85547
 18  5 30  0 26 34.9990000  0 10G03G14G16G22G23G26G27G29G31G32       0.000154741
  23530327.589 5   -823006.535 5   -612922.21146  23530324.81546
  20416392.237 6   -591117.277 6   -450808.82448  20416387.87448
  20393855.261 6  -1093584.051 6   -828729.51648  20393849.90548
  23443533.370 5   -653039.012 5   -493093.45346  23443527.06546
  24155890.331 5  -1479269.172 5  -1105440.52746  24155884.17946
  20432759.050 7   -691130.727 7   -526065.69149  20432757.37449
  22479361.823 6  -1786353.328 6  -1327531.74247  22479359.95247
  23463967.800 5   -314739.500 5   -236192.37946  23463963.67546
  21386239.026 7   -795303.645 7   -601083.13748  21386234.75748
  22430230.315 6   -151978.297 6   -117129.92647  22430229.03047
 18  5 30  0 26 39.9990000  0 10G03G14G16G22G23G26G27G29G31G32       0.000142443
  23527070.706 5   -840122.754 5   -626259.50446  23527067.93746
  20414065.761 6   -603342.371 6   -460334.88348  20414061.40948
  20389550.230 6  -1116206.363 6   -846357.29748  20389545.46048
  23440946.862 5   -666633.402 5   -503686.49646  23440939.97646
  24148967.292 5  -1515648.352 5  -1133787.94946  24148960.96046
  20430004.714 7   -705605.805 7   -537344.97749  20430002.75749
  22472274.581 6  -1823594.988 6  -1356551.21947  22472273.17947
  23462702.855 6   -321383.477 6   -241369.50446  23462699.08546
  21383070.370 7   -811955.145 7   -614058.33248  21383065.72648
  22429504.972 6   -155791.680 6   -120101.42247  22429502.93347
 18  5 30  0 26 44.9990000  0 10G03G14G16G22G23G26G27G29G31G32       0.000130136
  23523814.136 5   -857237.227 5   -639595.48446  23523812.00346
  20411740.339 6   -615563.262 6   -469857.66448  20411735.87848
  20385245.823 6  -1138826.586 6   -863983.44148  20385240.70248
  23438359.409 6   -680230.285 6   -514281.46546  23438352.34346
  24142043.706 5  -1552034.434 5  -1162140.76246  24142037.51946
  20427249.792 7   -720083.098 7   -548625.99249  20427248.48749
  22465186.605 6  -1860842.027 6  -1385574.89147  22465184.98047
  23461439.292 5   -328026.352 5   -246545.79746  23461435.22246
  21379900.105 7   -828613.660 7   -627038.98848  21379895.71448
  22428778.558 6   -159606.840 6   -123074.27347  22428777.58147
 18  5 30  0 26 49.9990000  0 10G03G14G16G22G23G26G27G29G31G32       0.000117823
  23520556.425 4   -874349.918 4   -652930.06646  23520555.17946
  20409415.917 6   -627779.906 6   -479377.13748  20409411.08948
  20380941.534 7  -1161444.727 7   -881607.96948  20380936.83948
  23435770.878 5   -693829.773 5   -524878.47746  23435764.19446
  24135118.315 5  -1588427.418 5  -1190498.93046  24135112.32746
  20424494.136 7   -734562.676 7   -559908.77749  20424492.88249
  22458097.862 5  -1898094.496 5  -1414602.78147  22458096.05047
  23460175.558 5   -334668.211 5   -251721.27046  23460171.49546
  21376728.940 7   -845279.199 7   -640025.12948  21376724.65548
  22428052.339 6   -163423.875 6   -126048.60247  22428050.43347
 18  5 30  0 26 54.9990000  0 10G03G14G16G22G23G26G27G29G31G32       0.000105505
  23517300.550 3   -891460.660 3   -666263.10546  23517299.10146
  20407091.417 6   -639992.117 6   -488893.13748  20407087.46448
  20376637.870 6  -1184060.613 6   -899230.74648  20376632.94448
  23433182.831 5   -707431.688 5   -535477.37946  23433176.10846
  24128191.237 5  -1624827.063 5  -1218862.30546  24128185.96046
  20421738.761 7   -749044.348 7   -571193.20349  20421737.10149
  22451007.722 6  -1935352.105 6  -1443634.68447  22451006.10147
  23458911.831 6   -341308.891 6   -256895.83646  23458907.76146
  21373556.495 7   -861951.527 7   -653016.55948  21373552.05448
  22427325.972 6   -167242.566 6   -129024.21547  22427323.84347
 18  5 30  0 26 59.9990000  0 10G03G14G16G22G23G26G27G29G31G32       0.000093180
  23514045.230 4   -908569.191 4   -679594.43046  23514043.83146
  20404768.886 6   -652199.582 6   -498405.45348  20404764.42948
  20372335.151 7  -1206673.887 7   -916851.48048  20372330.21048
  23430594.464 6   -721035.664 6   -546077.87547  23430587.50747
  24121263.597 5  -1661233.137 5  -1247230.67646  24121257.96446
  20418982.331 7   -763527.766 7   -582478.97749  20418980.80849
  22443917.519 6  -1972614.570 6  -1472670.37547  22443915.09747
  23457647.987 5   -347948.031 5   -262069.19946  23457644.14746
  21370382.659 7   -878630.344 7   -666013.04348  21370378.42148
  22426598.980 6   -171062.594 6   -132000.87547  22426597.18347
 18  5 30  0 27  4.9990000  0 10G03G14G16G22G23G26G27G29G31G32       0.000080849
  23510790.800 4   -925675.465 4   -692924.00246  23510788.30446
  20402446.409 6   -664402.277 6   -507914.05548  20402442.14748
  20368032.253 7  -1229284.605 7   -934470.22748  20368027.52648
  23428004.855 5   -734641.781 5   -556680.03546  23427998.27246
  24114334.847 5  -1697645.539 5  -1275603.98446  24114328.58146
  20416225.894 7   -778012.984 7   -593766.16849  20416224.80849
  22436825.347 5  -2009881.887 5  -1501709.83647  22436822.87447
  23456384.417 5   -354585.652 5   -267241.38346  23456380.83946
  21367207.433 7   -895315.617 7   -679014.56348  21367202.87848
  22425872.050 6   -174883.961 6   -134978.57447  22425870.04247
 18  5 30  0 27  9.9990000  0 10G03G14G16G22G23G26G27G29G31G32       0.000068512
  23507535.933 4   -942779.152 4   -706251.54346  23507533.46846
  20400125.183 6   -676599.871 6   -517418.67648  20400121.28448
  20363730.120 7  -1251892.387 7   -952086.68448  20363725.54248
  23425415.378 5   -748249.617 5   -567283.53946  23425408.99146
  24107404.276 5  -1734063.953 5  -1303981.99246  24107399.15946
  20413468.980 7   -792499.633 7   -605054.46149  20413467.96049
  22429733.237 6  -2047153.684 6  -1530752.78547  22429730.68747
  23455121.808 5   -361221.469 5   -272412.16446  23455118.10146
  21364031.362 7   -912007.039 7   -692020.85948  21364026.92948
  22425144.448 6   -178706.371 6   -137957.07847  22425142.62847
 18  5 30  0 27 14.9990000  0 10G03G14G16G22G23G26G27G29G31G32       0.000056170
  23504281.409 4   -959880.336 4   -719577.16846  23504279.51546
  20397805.183 6   -688792.457 6   -526919.40648  20397800.80448
  20359428.386 6  -1274497.289 6   -969700.89148  20359423.87848
  23422825.300 5   -761859.309 5   -577888.50047  23422819.68747
  24100473.042 5  -1770488.410 5  -1332364.69546  24100467.50346
  20410712.073 7   -806987.813 7   -616343.95349  20410710.71449
  22422639.550 6  -2084429.965 6  -1559799.25447  22422637.30447
  23453859.894 5   -367855.480 5   -277581.51246  23453855.32346
  21360853.839 7   -928704.637 7   -705031.98448  21360849.60548
  22424416.855 6   -182529.871 6   -140936.44947  22424415.16747
 18  5 30  0 27 19.9990000  0 10G03G14G16G22G23G26G27G29G31G32       0.000043823
  23501029.073 5   -976978.613 5   -732900.48446  23501026.01146
  20395485.917 6   -700979.617 6   -536415.89148  20395481.79248
  20355127.800 6  -1297098.930 6   -987312.55948  20355122.73048
  23420235.394 5   -775470.418 5   -588494.56347  23420229.67547
  24093540.651 5  -1806918.453 5  -1360751.73046  24093535.46446
  20407955.222 7   -821477.066 7   -627634.28949  20407953.76149
  22415545.487 6  -2121710.379 6  -1588848.91847  22415543.21847
  23452598.230 5   -374487.359 5   -282749.24246  23452593.43746
  21357675.222 7   -945408.070 7   -718047.66448  21357670.62848
  22423689.448 6   -186354.063 6   -143916.35247  22423687.23747
 18  5 30  0 27 24.9990000  0 10G03G14G16G22G23G26G27G29G31G32       0.000031469
  23497774.870 5   -994073.750 5   -746221.38746  23497772.83546
  20393168.237 6   -713161.117 6   -545907.97748  20393163.51548
  20350827.667 7  -1319697.094 7  -1004921.52348  20350822.72248
  23417645.292 5   -789082.742 5   -599101.56346  23417638.65946
  24086606.659 5  -1843353.906 5  -1389143.00846  24086601.64746
  20405197.831 7   -835967.250 7   -638925.33649  20405195.92949
  22408450.362 6  -2158994.648 6  -1617901.59447  22408448.48747
  23451336.808 5   -381116.871 5   -287915.08646  23451331.89746
  21354495.698 7   -962117.012 7   -731067.61748  21354491.15148
  22422961.480 6   -190178.711 6   -146896.61747  22422959.76547
 18  5 30  0 27 29.9990000  0 10G03G14G16G22G23G26G27G29G31G32       0.000019112
  23494522.651 4  -1011166.133 4   -759540.12546  23494520.37046
  20390850.894 6   -725337.320 6   -555395.93448  20390846.26948
  20346527.917 7  -1342292.121 7  -1022528.03548  20346522.83548
  23415053.980 5   -802696.637 5   -609709.79747  23415048.11647
  24079672.081 5  -1879795.059 5  -1417538.68446  24079667.32746
  20402440.026 7   -850458.691 7   -650217.37149  20402438.24949
  22401354.565 6  -2196283.117 6  -1646957.53547  22401353.13647
  23450075.565 5   -387744.375 5   -293079.36347  23450071.16347
  21351314.808 7   -978831.840 7   -744092.15248  21351310.12448
  22422233.308 6   -194004.227 6   -149877.55148  22422231.56248
 18  5 30  0 27 34.9990000  0 10G03G14G16G22G23G26G27G29G31G32       0.000006746
  23491270.362 4  -1028255.641 4   -772856.65246  23491268.27246
  20388534.980 6   -737508.156 6   -564879.71148  20388530.40948
  20342228.589 7  -1364883.961 7  -1040132.07048  20342223.83548
  23412463.480 5   -816312.078 5   -620319.25047  23412457.46047
  24072737.198 5  -1916241.855 5  -1445938.80546  24072731.89746
  20399682.542 7   -864951.309 7   -661510.32849  20399680.20249
  22394258.276 6  -2233575.629 6  -1676016.64147  22394255.98347
  23448813.980 5   -394369.813 5   -298242.07846  23448810.08546
  21348133.105 7   -995552.465 7   -757121.21948  21348128.28048
  22421505.589 6   -197830.512 6   -152859.07848  22421503.76948
 18  5 30  0 27 39.9990000  0 10G03G14G16G22G23G26G27G29G31G32      -0.000005623
  23488018.487 4  -1045342.152 4   -786170.80146  23488016.44446
  20386219.964 6   -749673.414 6   -574359.13748  20386215.31248
  20337930.206 7  -1387472.395 7  -1057733.44948  20337925.49548
  23409872.440 5   -829928.848 5   -630929.73446  23409866.23346
  24065800.175 5  -1952694.109 5  -1474343.15646  24065795.26946
  20396924.183 7   -879444.922 7   -672804.05949  20396922.62849
  22387161.315 6  -2270872.074 6  -1705078.78547  22387159.10147
  23447553.800 6   -400993.000 6   -303403.00046  23447549.73046
  21344950.089 7  -1012278.711 7   -770154.66448  21344945.33148
  22420777.769 6   -201657.344 6   -155841.05948  22420776.24548
 18  5 30  0 27 44.9990000  0 10G03G14G16G22G23G26G27G29G31G32      -0.000017998
  23484767.644 3  -1062425.535 3   -799482.52746  23484765.77246
  20383906.222 6   -761832.988 6   -583834.13748  20383901.19048
  20333632.378 7  -1410057.309 7  -1075332.09448  20333627.61648
  23407280.784 5   -843546.867 5   -641541.18047  23407275.15947
  24058862.722 5  -1989151.637 5  -1502751.62546  24058857.65946
  20394166.284 7   -893939.434 7   -684098.48449  20394163.93749
  22380062.870 6  -2308172.285 6  -1734143.89147  22380061.13647
  23446293.573 5   -407613.793 5   -308562.03146  23446289.43346
  21341766.175 7  -1029010.492 7   -783192.43448  21341761.39748
  22420049.386 7   -205484.680 7   -158823.40648  22420047.92548
 18  5 30  0 27 49.9990000  0 10G03G14G16G22G23G26G27G29G31G32      -0.000030378
  23481517.542 3  -1079505.516 3   -812791.59846  23481515.44446
  20381592.933 6   -773986.621 6   -593304.50448  20381588.24548
  20329335.386 7  -1432638.508 7  -1092927.82448  20329330.55848
  23404688.730 5   -857165.809 5   -652153.30947  23404683.49547
  24051924.425 5  -2025614.184 5  -1531163.98046  24051918.89046
  20391407.714 7   -908434.590 7   -695393.40649  20391405.82749
  22372964.480 6  -2345475.938 6  -1763211.67247  22372962.02247
  23445034.073 6   -414231.926 6   -313719.05946  23445030.40946
  21338581.159 7  -1045747.500 7   -796234.26248  21338576.31548
  22419320.886 6   -209312.262 6   -161805.95748  22419319.19048
 18  5 30  0 27 54.9990000  0 10G03G14G16G22G23G26G27G29G31G32      -0.000042765
  23478268.245 3  -1096581.879 3   -826097.85946  23478266.44446
  20379281.394 6   -786134.051 6   -602770.03148  20379276.67948
  20325038.753 7  -1455215.684 7  -1110520.43448  20325033.83948
  23402097.565 5   -870785.535 5   -662766.12147  23402091.14747
  24044984.683 5  -2062081.527 5  -1559580.10546  24044979.70246
  20388649.550 7   -922930.176 7   -706688.68049  20388647.55049
  22365865.206 6  -2382782.898 6  -1792282.02347  22365863.16747
  23443775.737 6   -420847.242 6   -318873.82846  23443771.14446
  21335395.409 7  -1062489.465 7   -809279.93848  21335390.77648
  22418592.534 6   -213139.820 6   -164788.47748  22418590.68748
 18  5 30  0 27 59.9990000  0 10G03G14G16G22G23G26G27G29G31G32      -0.000055155
  23475018.698 4  -1113654.984 4   -839401.57846  23475017.17946
  20376970.933 6   -798275.668 6   -612231.03948  20376966.22648
  20320743.284 7  -1477789.215 7  -1128110.20348  20320738.69048
  23399505.089 5   -884406.285 5   -673379.68447  23399499.74947
  24038044.151 5  -2098553.922 5  -1588000.16046  24038038.94846
  20385890.933 7   -937426.488 7   -717984.51249  20385889.37049
  22358765.292 6  -2420093.359 6  -1821355.10947  22358762.81947
  23442517.355 6   -427460.020 6   -324026.66046  23442513.16746
  21332208.675 7  -1079236.730 7   -822329.74648  21332203.64048
  22417864.073 7   -216967.742 7   -167771.28548  22417862.48348
 18  5 30  0 28  4.9990000  0 10G03G14G16G22G23G26G27G29G31G32      -0.000067551
  23471770.901 4  -1130724.746 4   -852702.69146  23471769.11646
  20374661.597 6   -810411.418 6   -621687.47348  20374656.97648
  20316448.972 7  -1500359.059 7  -1145697.09848  20316443.76148
  23396913.425 5   -898028.148 5   -683994.14547  23396907.70247
  24031103.120 5  -2135031.371 5  -1616424.12546  24031097.51546
  20383132.315 7   -951923.508 7   -729280.89849  20383130.78849
  22351664.503 6  -2457407.320 6  -1850430.92247  22351662.45647
  23441259.815 6   -434070.242 6   -329177.50046  23441255.73046
  21329020.370 7  -1095989.301 7   -835383.69548  21329015.87448
  22417135.698 6   -220795.941 6   -170754.31648  22417134.43348
 18  5 30  0 28  9.9990000  0 10G03G14G16G22G23G26G27G29G31G32      -0.000079952
  23468523.706 4  -1147791.141 4   -866001.18446  23468521.14446
  20372353.722 6   -822541.211 6   -631139.25848  20372348.83548
  20312154.433 6  -1522925.156 6  -1163281.07048  20312149.81948
  23394320.933 5   -911650.984 5   -694609.35946  23394315.27646
  24024160.800 5  -2171513.742 5  -1644851.95346  24024154.43746
  20380373.409 7   -966421.199 7   -740577.79749  20380372.11649
  22344563.425 6  -2494724.684 6  -1879509.38747  22344560.69047
  23440002.050 6   -440677.879 6   -334326.31346  23439998.28846
  21325831.511 7  -1112747.039 7   -848441.68048  21325826.57748
  22416407.175 6   -224624.387 6   -173737.53148  22416405.87848
 18  5 30  0 28 14.9990000  0 10G03G14G16G22G23G26G27G29G31G32      -0.000092360
  23465276.065 4  -1164853.695 4   -879296.69146  23465274.53446
  20370046.722 6   -834664.695 6   -640586.13348  20370042.15948
  20307860.706 6  -1545487.102 6  -1180861.81348  20307856.42548
  23391728.417 5   -925274.422 5   -705225.01647  23391723.08147
  24017217.589 5  -2208000.684 5  -1673283.32046  24017211.11246
  20377614.659 7   -980919.137 7   -751874.89549  20377613.04649
  22337461.526 6  -2532045.027 6  -1908590.18447  22337458.37447
  23438746.034 6   -447282.465 6   -339472.75846  23438741.55046
  21322641.737 7  -1129509.539 7   -861503.37148  21322636.71048
  22415678.776 6   -228452.703 6   -176720.65248  22415677.66348
 18  5 30  0 28 19.9990000  0 10G03G14G16G22G23G26G27G29G31G32      -0.000104771
  23462029.800 4  -1181912.695 4   -892589.41846  23462027.70246
  20367740.769 6   -846781.949 6   -650028.14848  20367736.19448
  20303568.425 7  -1568044.988 7  -1198439.37948  20303563.73748
  23389135.487 5   -938898.535 5   -715841.21947  23389130.17547
  24010273.409 5  -2244492.242 5  -1701718.30546  24010267.40946
  20374855.714 7   -995417.453 7   -763172.28549  20374854.33549
  22330359.308 6  -2569368.414 6  -1937673.33647  22330356.06247
  23437489.425 6   -453884.156 6   -344616.93846  23437485.39746
  21319450.706 7  -1146276.941 7   -874568.89148  21319445.89448
  22414950.042 6   -232280.941 6   -179703.70748  22414949.43748
 18  5 30  0 28 24.9990000  0 10G03G14G16G22G23G26G27G29G31G32      -0.000117186
  23458784.151 4  -1198967.555 4   -905878.91046  23458782.66346
  20365436.355 6   -858892.586 6   -659465.00848  20365431.77648
  20299276.542 6  -1590598.441 6  -1216013.50048  20299272.27248
  23386543.480 5   -952523.066 5   -726457.74647  23386537.80047
  24003329.026 5  -2280988.074 5  -1730156.62946  24003322.35546
  20372096.573 7  -1009915.758 7   -774469.66849  20372095.30849
  22323256.558 6  -2606694.523 6  -1966758.61747  22323253.33547
  23436233.753 6   -460482.652 6   -349758.60246  23436229.60146
  21316259.495 7  -1163048.816 7   -887637.88748  21316254.36648
  22414221.690 6   -236108.820 6   -182686.49248  22414220.34348
 18  5 30  0 28 29.9990000  0 10G03G14G16G22G23G26G27G29G31G32      -0.000129606
  23455539.034 4  -1216018.828 4   -919165.62146  23455538.22246
  20363132.480 6   -870997.031 6   -668897.05148  20363128.29648
  20294985.347 6  -1613147.863 6  -1233584.48048  20294980.78848
  23383950.753 5   -966148.313 5   -737074.83247  23383945.01547
  23996381.964 5  -2317488.547 5  -1758598.55146  23996376.23346
  20369337.683 7  -1024414.527 7   -785767.41449  20369336.68749
  22316152.542 6  -2644023.734 6  -1995846.32447  22316150.03447
  23434979.433 6   -467078.391 6   -354898.15246  23434974.55846
  21313067.128 7  -1179825.594 7   -900710.70348  21313061.88648
  22413493.737 6   -239936.723 6   -185669.27748  22413491.92148
 18  5 30  0 28 34.9990000  0 10G03G14G16G22G23G26G27G29G31G32      -0.000142033
  23452294.839 3  -1233066.398 3   -932449.47346  23452294.24946
  20360831.112 6   -883095.148 6   -678324.15648  20360826.30048
  20290694.878 6  -1635693.172 6  -1251152.25848  20290690.33948
  23381357.472 5   -979774.320 5   -747692.50447  23381352.04247
  23989435.597 5  -2353993.551 5  -1787044.02046  23989430.21446
  20366578.644 7  -1038913.590 7   -797065.39549  20366577.32349
  22309049.089 6  -2681355.883 6  -2024936.30547  22309046.15947
  23433724.612 6   -473671.137 6   -360035.34846  23433720.09346
  21309873.417 7  -1196607.160 7   -913787.25448  21309868.28048
  22412764.847 6   -243764.547 6   -188652.02048  22412763.78848
 18  5 30  0 28 39.9990000  0 10G03G14G16G22G23G26G27G29G31G32      -0.000154463
  23449051.175 3  -1250110.102 3   -945730.30546  23449050.96846
  20358529.792 6   -895186.816 6   -687746.23448  20358525.00348
  20286405.276 6  -1658234.227 6  -1268716.71948  20286401.28448
  23378765.339 5   -993400.883 5   -758310.60547  23378759.13247
  23982489.128 5  -2390502.980 5  -1815492.90246  23982482.36246
  20363819.089 7  -1053412.883 7   -808363.55149  20363818.11649
  22301944.144 6  -2718690.871 6  -2054028.50047  22301941.69447
  23432470.933 6   -480260.887 6   -365170.21146  23432466.51146
  21306679.362 7  -1213393.414 7   -926867.45348  21306674.50748
  22412036.550 6   -247592.195 6   -191634.61348  22412035.03848
 18  5 30  0 28 44.9990000  0 10G03G14G16G22G23G26G27G29G31G32      -0.000166899
  23445809.269 3  -1267149.824 3   -959008.01646  23445808.65146
  20356229.956 6   -907271.883 6   -697163.18848  20356225.34748
  20282116.628 6  -1680770.824 6  -1286277.70748  20282112.19048
  23376171.894 5  -1007027.750 5   -768928.96547  23376165.82747
  23975540.487 5  -2427016.559 5  -1843945.04346  23975533.39046
  20361059.940 7  -1067912.207 7   -819661.73049  20361058.73349
  22294839.269 6  -2756028.477 6  -2083122.72347  22294836.45647
  23431217.198 6   -486847.461 6   -370302.63346  23431212.83946
  21303484.144 7  -1230184.137 7   -939951.13748  21303479.01948
  22411308.394 6   -251419.488 6   -194616.93448  22411306.76948
 18  5 30  0 28 49.9990000  0 10G03G14G16G22G23G26G27G29G31G32      -0.000179338
  23442567.370 4  -1284185.602 4   -972282.65246  23442566.81946
  20353931.690 6   -919350.363 6   -706574.98448  20353926.85148
  20277829.409 6  -1703303.082 6  -1303835.29748  20277824.80448
  23373579.300 6  -1020655.105 6   -779547.68047  23373572.93347
  23968591.269 5  -2463534.367 5  -1872400.47746  23968584.34746
  20358301.331 7  -1082411.590 7   -830959.95349  20358299.41349
  22287733.448 6  -2793368.715 6  -2112219.01247  22287731.08947
  23429964.433 6   -493430.813 6   -375432.49247  23429960.83947
  21300288.237 7  -1246979.332 7   -953038.30548  21300283.00348
  22410580.269 6   -255246.453 6   -197598.98848  22410578.72648
 18  5 30  0 28 54.9990000  0 10G03G14G16G22G23G26G27G29G31G32      -0.000191784
  23439327.167 4  -1301217.063 4   -985553.93446  23439325.61646
  20351634.644 6   -931421.984 6   -715981.45748  20351629.33148
  20273543.026 6  -1725830.641 6  -1321389.24648  20273538.28848
  23370985.362 5  -1034282.555 5   -790166.47747  23370979.19047
  23961641.534 5  -2500056.070 5  -1900858.94946  23961634.58546
  20355541.714 7  -1096910.758 7   -842258.00849  20355540.43749
  22280627.620 6  -2830711.242 6  -2141317.08247  22280624.76147
  23428712.487 6   -500010.719 6   -380559.69946  23428709.06546
  21297090.737 7  -1263778.730 7   -966128.77348  21297086.16748
  22409851.714 6   -259072.738 6   -200580.52348  22409850.69448
 18  5 30  0 28 59.9990000  0 10G03G14G16G22G23G26G27G29G31G32      -0.000204233
  23436086.636 3  -1318243.992 3   -998821.67246  23436086.10146
  20349338.847 6   -943486.375 6   -725382.27748  20349334.08548
  20269256.480 6  -1748353.234 6  -1338939.31648  20269251.90148
  23368392.308 5  -1047909.887 5   -800785.18447  23368386.32347
  23954691.065 5  -2536581.383 5  -1929320.22746  23954684.13246
  20352782.839 7  -1111409.387 7   -853555.64549  20352781.74149
  22273521.331 6  -2868055.777 6  -2170416.72347  22273518.30047
  23427460.667 6   -506586.855 6   -385683.96947  23427457.87047
  21293893.745 7  -1280581.980 7   -979222.19548  21293888.62048
  22409124.284 6   -262898.156 6   -203561.38348  22409122.51148
 18  5 30  0 29  4.9990000  0 10G03G14G16G22G23G26G27G29G31G32      -0.000216686
  23432846.808 3  -1335266.629 3  -1012086.09046  23432846.80446
  20347044.144 6   -955544.000 6   -734777.83248  20347039.61648
  20264971.565 6  -1770871.133 6  -1356485.73448  20264966.85148
  23365799.370 5  -1061537.355 5   -811403.99647  23365793.21047
  23947739.651 5  -2573110.523 5  -1957784.49646  23947732.92146
  20350023.886 7  -1125907.824 7   -864853.13749  20350022.58949
  22266414.042 6  -2905402.602 6  -2199518.13747  22266411.26547
  23426210.003 6   -513159.578 6   -390805.59847  23426207.23747
  21290695.534 7  -1297389.469 7   -992318.94548  21290690.64048
  22408396.362 6   -266722.980 6   -206541.77748  22408394.69448
 18  5 30  0 29  9.9990000  0 10G03G14G16G22G23G26G27G29G31G32      -0.000229145
  23429608.612 3  -1352285.070 3  -1025347.20746  23429607.78846
  20344750.987 6   -967594.703 6   -744167.99248  20344746.55848
  20260687.433 6  -1793384.359 6  -1374028.51248  20260682.74148
  23363205.831 5  -1075164.965 5   -822022.91047  23363199.52247
  23940788.019 5  -2609643.527 5  -1986251.75846  23940780.68346
  20347264.933 7  -1140406.035 7   -876150.45349  20347263.86249
  22259306.628 6  -2942751.727 6  -2228621.35247  22259303.96447
  23424960.245 6   -519728.852 6   -395924.52347  23424957.59347
  21287496.331 7  -1314201.133 7  -1005418.95348  21287490.90948
  22407668.401 6   -270547.195 6   -209521.69548  22407667.17148
 18  5 30  0 29 14.9990000  0 10G03G14G16G22G23G26G27G29G31G32      -0.000241608
  23426371.151 3  -1369299.355 3  -1038605.10546  23426370.16746
  20342458.925 6   -979638.645 6   -753552.88748  20342454.51148
  20256404.167 6  -1815893.043 6  -1391567.74648  20256399.30048
  23360612.675 5  -1088792.844 5   -832642.05547  23360606.26947
  23933834.901 5  -2646180.430 5  -2014722.04346  23933827.87046
  20344506.120 7  -1154904.176 7   -887447.69948  20344505.14748
  22252199.097 6  -2980103.160 6  -2257726.35547  22252196.64047
  23423710.542 6   -526294.758 6   -401040.82047  23423708.30447
  21284295.839 7  -1331017.051 7  -1018522.27048  21284291.05448
  22406940.722 6   -274370.895 6   -212501.23048  22406939.94448
 18  5 30  0 29 19.9990000  0 10G03G14G16G22G23G26G27G29G31G32      -0.000254076
  23423135.019 3  -1386309.086 3  -1051859.45746  23423133.51546
  20340168.417 6   -991675.453 6   -762932.21948  20340164.15548
  20252121.847 6  -1838396.777 6  -1409103.11748  20252116.76548
  23358018.980 5  -1102420.609 5   -843261.09047  23358013.09347
  23926881.839 5  -2682720.957 5  -2043195.19946  23926874.47646
  20341747.214 7  -1169401.836 7   -898744.58249  20341746.14449
  22245090.894 6  -3017456.590 6  -2286832.91847  22245088.39747
  23422462.370 6   -532857.004 6   -406154.27347  23422460.08947
  21281095.269 7  -1347836.883 7  -1031628.62548  21281090.58548
  22406213.464 6   -278193.770 6   -215480.10548  22406211.93748
 18  5 30  0 29 24.9990000  0 10G03G14G16G22G23G26G27G29G31G32      -0.000266548
  23419898.440 4  -1403314.398 4  -1065110.34046  23419898.02246
  20337879.511 6  -1003705.148 6   -772306.01248  20337874.94848
  20247840.605 6  -1860895.602 6  -1426634.67648  20247835.36248
  23355426.019 5  -1116048.391 5   -853880.15647  23355419.93747
  23919927.347 5  -2719265.063 5  -2071671.10946  23919920.21446
  20338988.472 7  -1183899.094 7   -910041.15248  20338987.45248
  22237982.394 6  -3054812.000 6  -2315941.02347  22237980.42147
  23421214.034 6   -539415.602 6   -411264.87947  23421212.15547
  21277893.925 7  -1364660.605 7  -1044738.03548  21277888.83548
  22405485.651 6   -282015.844 6   -218458.35948  22405484.88248
 18  5 30  0 29 29.9990000  0 10G03G14G16G22G23G26G27G29G31G32      -0.000279024
  23416663.323 4  -1420315.250 4  -1078357.76646  23416662.39446
  20335591.605 6  -1015727.770 6   -781674.29748  20335586.96048
  20243560.190 6  -1883389.582 6  -1444162.44948  20243554.84348
  23352832.675 5  -1129676.184 5   -864499.23047  23352826.55047
  23912972.495 5  -2755812.754 5  -2100149.82846  23912965.46046
  20336229.917 7  -1198395.965 7   -921337.41848  20336228.98348
  22230873.487 6  -3092169.402 6  -2345050.69547  22230871.09347
  23419966.480 6   -545970.598 6   -416372.66446  23419964.51146
  21274691.956 7  -1381488.316 7  -1057850.53948  21274687.14048
  22404758.808 6   -285837.160 6   -221436.02748  22404758.05448
 18  5 30  0 29 34.9990000  0 10G03G14G16G22G23G26G27G29G31G32      -0.000291506
  23413429.323 4  -1437311.707 4  -1091601.77046  23413427.48046
  20333305.276 6  -1027743.375 6   -791037.11348  20333300.67948
  20239280.245 6  -1905878.730 6  -1461686.46148  20239275.42948
  23350239.394 5  -1143303.984 5   -875118.30947  23350233.36647
  23906017.347 5  -2792364.059 5  -2128631.35246  23906010.14446
  20333471.276 7  -1212892.488 7   -932633.42248  20333469.90548
  22223763.964 6  -3129528.836 6  -2374161.93047  22223761.98347
  23418719.323 6   -552521.961 6   -421477.61747  23418717.98347
  21271488.730 7  -1398319.973 7  -1070966.12148  21271484.23748
  22404031.831 6   -289657.730 6   -224413.10948  22404030.67948
 18  5 30  0 29 39.9990000  0 10G03G14G16G22G23G26G27G29G31G32      -0.000303991
  23410195.003 4  -1454303.512 4  -1104842.12946  23410194.21846
  20331019.972 6  -1039751.656 6   -800394.21548  20331015.55048
  20235002.011 6  -1928362.734 6  -1479206.46548  20234997.08948
  23347645.948 5  -1156931.594 5   -885737.22347  23347640.50347
  23899060.909 5  -2828918.637 5  -2157115.42646  23899053.90546
  20330712.800 7  -1227388.398 7   -943928.93448  20330711.71848
  22216654.690 6  -3166889.980 6  -2403274.50447  22216652.11247
  23417473.339 6   -559069.496 6   -426579.59446  23417472.37846
  21268285.339 7  -1415155.316 7  -1084084.57048  21268280.41348
  22403305.026 6   -293477.305 6   -227389.41048  22403303.42148
 18  5 30  0 29 44.9990000  0 10G03G14G16G22G23G26G27G29G31G32      -0.000316481
  23406963.292 4  -1471291.000 4  -1118079.13746  23406961.59346
  20328736.105 6  -1051753.000 6   -809745.91448  20328731.79248
  20230724.417 6  -1950842.023 6  -1496722.79348  20230719.18348
  23345052.120 5  -1170559.332 5   -896356.24247  23345047.03047
  23892104.480 5  -2865476.949 5  -2185602.41846  23892097.18746
  20327954.495 7  -1241884.063 7   -955224.26248  20327953.10848
  22209544.315 6  -3204253.180 6  -2432388.69147  22209542.23047
  23416227.534 6   -565613.520 6   -431678.86346  23416226.90946
  21265080.550 7  -1431994.688 7  -1097206.16848  21265076.39748
  22402578.487 6   -297296.266 6   -230365.23448  22402576.90948
 18  5 30  0 29 49.9990000  0 10G03G14G16G22G23G26G27G29G31G32      -0.000328974
  23403730.925 5  -1488273.582 5  -1131312.30546  23403729.66346
  20326454.222 6  -1063746.738 6   -819091.69148  20326449.10848
  20226447.323 6  -1973315.902 6  -1514234.90648  20226442.47248
  23342459.526 6  -1184186.516 6   -906974.83247  23342453.96847
  23885146.776 5  -2902038.180 5  -2214091.67646  23885139.49546
  20325196.230 7  -1256378.836 7   -966518.89548  20325194.78048
