     2.10           OBSERVATION DATA    Mixed(MIXED)        RINEX VERSION / TYPE
cnvtToRINEX 3.07.0  convertToRINEX OPR  19-May-20 12:34 UTC PGM / RUN BY / DATE 
----------------------------------------------------------- COMMENT             
G058                                                        MARKER NAME         
G058                                                        MARKER NUMBER       
GNSS Observer       Trimble                                 OBSERVER / AGENCY   
5319436542          R5                  4.85                REC # / TYPE / VERS 
                    UNKNOWN EXT                             ANT # / TYPE        
 -3053230.4903  4926936.0052  2652655.0862                  APPROX POSITION XYZ 
        0.0000        0.0000        0.0000                  ANTENNA: DELTA H/E/N
     1     1     0                                          WAVELENGTH FACT L1/2
     4    C1    L1    L2    P2                              # / TYPES OF OBSERV 
     1.000                                                  INTERVAL            
  2020     5    16     3    31   21.0000000     GPS         TIME OF FIRST OBS   
  2020     5    16     5     0   56.0000000     GPS         TIME OF LAST OBS    
     0                                                      RCV CLOCK OFFS APPL 
    18                                                      LEAP SECONDS        
    13                                                      # OF SATELLITES     
   G01  5375  5375  5374  5375                              PRN / # OF OBS      
   G03  1178  1178  1178  1178                              PRN / # OF OBS      
   G04   925   918   881   881                              PRN / # OF OBS      
   G07  5376  5376  5375  5376                              PRN / # OF OBS      
   G08  5375  5375  5374  5375                              PRN / # OF OBS      
   G09  2312  2312  2306  2306                              PRN / # OF OBS      
   G11  5376  5376  5375  5376                              PRN / # OF OBS      
   G16  4022  4020  4007  4007                              PRN / # OF OBS      
   G17   218   218   218   218                              PRN / # OF OBS      
   G22  3818  3818  3818  3818                              PRN / # OF OBS      
   G27  3632  3632  3626  3626                              PRN / # OF OBS      
   G28  1058  1058  1058  1058                              PRN / # OF OBS      
   G30  5348  5348  5348  5348                              PRN / # OF OBS      
CARRIER PHASE MEASUREMENTS: PHASE SHIFTS REMOVED            COMMENT             
                                                            END OF HEADER       
 20  5 16  3 31 21.0000000  0  2G07G11                               0.000347004
  22017018.555 6 115700209.89216                  22017024.12148
  20425524.938 6 107336857.75816                  20425529.97748
 20  5 16  3 31 22.0000000  0  7G01G07G08G09G11G16G27                0.000341852
  21928686.063 6 115236021.03116                  21928693.45748
  22016557.445 6 115697787.082 6  90154142.81649  22016564.03549
  21023114.281 6 110477210.81016                  21023121.23848
  23686013.328 3 124470838.28513                
  20425379.875 6 107336095.883 6  83638535.29659  20425386.19149
  23361304.906 5 122764486.93115                
  22759833.438 5 119603728.52215                
 20  5 16  3 31 23.0000000  0  7G01G07G08G09G11G16G27                0.000341946
  21928113.508 6 115233013.115 6  89791988.69859  21928122.69149
  22016096.805 6 115695364.114 6  90152254.77149  22016103.91849
  21023426.227 6 110478849.138 6  86087442.32559  21023432.07049
  23686392.422 3 124472829.548 3                
  20425234.773 6 107335334.059 6  83637941.66349  20425241.48049
  23361640.672 5 122766249.542 5                
  22760382.219 5 119606610.260 5                
 20  5 16  3 31 24.0000000  0  7G01G07G08G09G11G16G27                0.000342041
  21927541.195 6 115230005.418 6  89789645.04149  21927551.83649
  22015635.461 6 115692941.444 6  90150366.98549  22015642.48849
  21023738.086 6 110480487.505 6  86088718.96649  21023742.68049
  23686771.609 3 124474820.870 3                
  20425090.250 6 107334572.660 6  83637348.37548  20425096.80148
  23361975.578 5 122768012.117 5                
  22760930.125 5 119609491.924 5                
 20  5 16  3 31 25.0000000  0  7G01G07G08G09G11G16G27                0.000342136
  21926968.641 6 115226997.656 6  89787301.32349  21926979.95349
  22015174.328 6 115690518.728 6  90148479.15449  22015181.67649
  21024049.906 6 110482125.691 6  86089995.47549  21024053.97749
  23687150.352 4 124476811.965 4                
  20424945.063 6 107333811.389 6  83636755.15448  20424952.10948
  23362311.578 5 122769774.338 5                
  22761478.648 5 119612373.188 5                
 20  5 16  3 31 26.0000000  0  8G01G04G07G08G09G11G16G27             0.000342232
  21926396.563 6 115223990.053 6  89784957.76049  21926407.75049
  24011434.266 5 126180936.64615                
  22014713.328 6 115688096.177 6  90146591.45149  22014720.66049
  21024361.609 6 110483763.893 6  86091272.01649  21024365.68849
  23687527.938 3 124478803.079 3                
  20424800.086 6 107333050.488 6  83636162.26648  20424807.14148
  23362646.602 5 122771536.480 5                
  22762026.938 5 119615254.256 5                
 20  5 16  3 31 27.0000000  0  8G01G04G07G08G09G11G16G27             0.000342325
  21925823.969 6 115220982.819 6  89782614.43449  21925835.72349
  24011963.539 5 126183719.302 5                
  22014252.758 6 115685674.056 6  90144704.09049  22014260.14149
  21024673.492 6 110485402.333 6  86092548.70149  21024681.71949
  23687907.477 3 124480794.423 3                
  20424655.688 6 107332290.156 6  83635569.80248  20424662.86748
  23362982.250 5 122773298.742 5                
  22762575.406 6 119618135.367 6                
 20  5 16  3 31 28.0000000  0  8G01G04G07G08G09G11G16G27             0.000342421
  21925251.602 6 115217975.758 6  89780271.26249  21925263.31649
  24012492.844 5 126186501.802 5                
  22013791.891 6 115683252.125 6  90142816.87149  22013798.99649
  21024985.242 6 110487040.826 6  86093825.43949  21024995.53949
  23688286.484 3 124482785.802 3  96999618.89058  23688298.38348
  20424511.141 6 107331530.181 6  83634977.61348  20424518.29348
  23363317.305 5 122775060.891 5  95668907.47956  23363324.93046
  22763123.367 5 119621016.286 5  93211225.59359  22763133.31349
 20  5 16  3 31 29.0000000  0  8G01G04G07G08G09G11G16G27             0.000342516
  21924679.727 6 115214968.957 6  89777928.30349  21924691.61749
  24013021.992 5 126189284.097 5                
  22013330.820 6 115680830.489 6  90140929.88349  22013337.89549
  21025296.781 6 110488679.460 6  86095102.30349  21025307.31349
  23688666.234 3 124484777.258 3  97001170.67048  23688677.03948
  20424366.625 6 107330770.658 6  83634385.77548  20424373.31348
  23363652.516 5 122776823.045 5  95670280.58946  23363660.25446
  22763671.570 5 119623897.136 5  93213470.41449  22763681.44949
 20  5 16  3 31 30.0000000  0  8G01G04G07G08G09G11G16G27             0.000342609
  21924107.492 6 115211962.421 6  89775585.55449  21924119.40249
  24013551.836 5 126192066.284 5                
  22012870.344 6 115678409.149 6  90139043.12549  22012877.53549
  21025608.898 6 110490318.190 6  86096379.23449  21025619.53149
  23689044.289 4 124486768.890 4  97002722.59148  23689056.31348
  20424221.898 6 107330011.608 6  83633794.30448  20424229.03148
  23363988.047 5 122778585.233 5  95671653.71246  23363995.92246
  22764220.031 5 119626777.931 5  93215715.18649  22764229.54349
 20  5 16  3 31 31.0000000  0  8G01G04G07G08G09G11G16G27             0.000342705
  21923535.508 6 115208956.266 6  89773243.10449  21923546.99249
  24014080.781 5 126194848.426 5                
  22012409.063 6 115675988.224 6  90137156.69449  22012416.38749
  21025920.578 6 110491957.190 6  86097656.38149  21025930.80949
  23689424.203 4 124488760.729 4  97004274.68348  23689435.15248
  20424077.906 6 107329253.129 6  83633203.27648  20424084.48048
  23364323.656 5 122780347.517 5  95673026.91146  23364331.14546
  22764768.102 5 119629658.753 5  93217959.98249  22764778.22349
 20  5 16  3 31 32.0000000  0  8G01G04G07G08G09G11G16G27             0.000342798
  21922963.438 6 115205950.677 6  89770901.09649  21922974.94549
  24014610.750 5 126197630.734 5  98335859.44956  24014621.03546
  22011948.664 6 115673567.910 6  90135270.73149  22011956.36349
  21026232.719 6 110493596.629 6  86098933.87149  21026242.68449
  23689803.070 3 124490753.006 3  97005827.11048  23689814.23448
  20423933.453 6 107328495.427 6  83632612.85448  20423940.78948
  23364658.211 5 122782110.114 5  95674400.35446  23364666.46146
  22765316.070 5 119632539.844 5  93220204.98949  22765326.24649
 20  5 16  3 31 33.0000000  0  8G01G04G07G08G09G11G16G27             0.000342894
  21922391.672 6 115202945.456 6  89768559.37249  21922403.02749
  24015139.703 5 126200413.051 5  98338027.49546  24015150.73846
  22011488.125 6 115671147.994 6  90133385.08349  22011495.63749
  21026544.734 6 110495236.313 6  86100211.54749  21026554.99249
  23690181.906 3 124492745.531 3  97007379.72848  23690193.58248
  20423789.727 6 107327738.306 6  83632022.89548  20423796.79748
  23364994.086 5 122783872.860 5  95675773.92346  23365002.11746
  22765864.344 5 119635420.971 5  93222450.02449  22765874.64849
 20  5 16  3 31 34.0000000  0  8G01G04G07G08G09G11G16G27             0.000342989
  21921819.813 6 115199940.756 6  89766218.04249  21921831.30949
  24015669.625 5 126203195.439 5  98340195.59947  24015680.27747
  22011028.109 6 115668728.632 6  90131499.86749  22011035.38749
  21026856.750 6 110496876.370 6  86101489.51349  21026866.93049
  23690561.766 3 124494738.403 3  97008932.60948  23690572.68848
  20423645.656 6 107326981.891 6  83631433.48548  20423652.53548
  23365329.656 5 122785635.823 5  95677147.66446  23365337.60946
  22766412.977 6 119638302.266 6  93224695.18649  22766422.80549
 20  5 16  3 31 35.0000000  0  8G01G04G07G08G09G11G16G27             0.000343082
  21921248.250 6 115196936.512 6  89763877.07849  21921259.86349
  24016198.742 5 126205977.891 5  98342363.73046  24016210.04746
  22010567.641 6 115666309.794 6  90129615.05249  22010574.98049
  21027168.680 6 110498516.747 6  86102767.72649  21027179.32049
  23690940.828 4 124496731.592 4  97010485.73448  23690951.97748
  20423501.914 6 107326226.147 6  83630844.59048  20423508.91448
  23365665.406 5 122787399.020 5  95678521.58346  23365673.10946
  22766960.703 5 119641183.688 5  93226940.44449  22766971.11749
 20  5 16  3 31 36.0000000  0  8G01G04G07G08G09G11G16G27             0.000343178
  21920676.797 6 115193932.813 6  89761536.52749  21920688.26249
  24016728.500 5 126208760.453 5  98344531.96046  24016739.32446
  22010107.594 6 115663891.500 6  90127730.65749  22010114.60949
  21027481.352 6 110500157.541 6  86104046.26649  21027491.46949
  23691319.992 3 124498725.205 3  97012039.19748  23691331.32848
  20423358.156 6 107325471.134 6  83630256.26948  20423364.98848
  23366001.156 5 122789162.473 5  95679895.69946  23366009.01246
  22767509.719 5 119644065.293 5  93229185.84949  22767519.57449
 20  5 16  3 31 37.0000000  0  8G01G04G07G08G09G11G16G27             0.000343273
  21920105.109 6 115190929.680 6  89759196.42449  21920116.56649
  24017258.242 5 126211543.190 5  98346700.32346  24017269.27346
  22009647.336 6 115661473.787 6  90125846.72149  22009654.72349
  21027793.594 6 110501798.730 6  86105325.11849  21027803.98449
  23691699.828 3 124500719.184 3  97013592.94348  23691710.42648
  20423214.703 6 107324716.874 6  83629668.53648  20423221.52348
  23366336.344 5 122790926.240 5  95681270.06346  23366344.02746
  22768057.984 5 119646947.134 5  93231431.43549  22768068.00049
 20  5 16  3 31 38.0000000  0  8G01G04G07G08G09G11G16G27             0.000343369
  21919533.945 6 115187927.257 6  89756856.87749  21919545.47349
  24017787.648 5 126214326.244 5  98348868.93646  24017798.23846
  22009187.227 6 115659056.838 6  90123963.38249  22009194.98049
  21028105.781 6 110503440.538 6  86106604.44849  21028116.08249
  23692079.078 4 124502713.770 4  97015147.17448  23692090.15648
  20423071.016 6 107323963.560 6  83629081.53448  20423078.22348
  23366672.227 5 122792690.471 5  95682644.78746  23366679.89546
  22768606.180 5 119649829.379 5  93233677.34149  22768616.35549
 20  5 16  3 31 39.0000000  0  8G01G04G07G08G09G11G16G27             0.000343464
  21918962.828 6 115184925.512 6  89754517.85549  21918974.07849
  24018317.266 5 126217109.559 5  98351037.73846  24018328.28946
  22008728.117 6 115656640.593 6  90122080.59349  22008734.96149
  21028418.664 6 110505082.868 6  86107884.18149  21028428.76249
  23692458.836 4 124504708.881 4  97016701.80448  23692469.87948
  20422927.977 6 107323211.103 6  83628495.20248  20422934.54748
  23367007.641 5 122794455.098 5  95684019.81946  23367015.81646
  22769154.805 6 119652711.930 6  93235923.48649  22769165.13749
 20  5 16  3 31 40.0000000  0  8G01G04G07G08G09G11G16G27             0.000343559
  21918391.156 6 115181924.411 6  89752179.33749  21918402.83649
  24018846.961 4 126219893.065 4  98353206.68746  24018857.15646
  22008268.453 6 115654225.027 6  90120198.33549  22008275.47749
  21028731.289 6 110506725.732 6  86109164.33749  21028741.50449
  23692838.984 4 124506704.528 4  97018256.84248  23692849.52748
  20422784.563 6 107322459.486 6  83627909.52648  20422792.00048
  23367343.734 5 122796220.116 5  95685395.15446  23367351.42646
  22769703.586 6 119655594.781 6  93238169.86449  22769713.48049
 20  5 16  3 31 41.0000000  0  8G01G04G07G08G09G11G16G27             0.000343655
  21917820.508 6 115178923.977 6  89749841.34049  21917832.02749
  24019377.000 4 126222676.931 4  98355375.92946  24019387.08646
  22007808.555 6 115651810.168 6  90118316.63249  22007815.75449
  21029043.734 6 110508369.104 6  86110444.88949  21029054.05549
  23693217.820 4 124508700.671 4  97019812.27248  23693229.73048
  20422642.094 6 107321708.743 6  83627324.53548  20422648.71548
  23367679.461 5 122797985.563 5  95686770.82546  23367687.74246
  22770252.086 5 119658477.990 5  93240416.51949  22770262.41049
 20  5 16  3 31 42.0000000  0  8G01G04G07G08G09G11G16G27             0.000343750
  21917249.953 6 115175924.234 6  89747503.88249  21917261.27049
  24019906.055 4 126225460.983 4  98357545.31546  24019916.69546
  22007349.406 6 115649396.005 6  90116435.46449  22007356.59849
  21029357.000 6 110510012.991 6  86111725.84349  21029366.90249
  23693598.320 4 124510697.339 4  97021368.11248  23693609.48448
  20422499.773 6 107320958.855 6  83626740.20848  20422506.37148
  23368015.727 5 122799751.364 5  95688146.77846  23368023.53946
  22770800.242 5 119661361.524 5  93242663.42649  22770810.95349
 20  5 16  3 31 43.0000000  0  8G01G04G07G08G09G11G16G27             0.000343847
  21916678.813 6 115172925.287 6  89745167.03849  21916690.65649
  24020436.281 4 126228245.453 4  98359715.03546  24020446.99246
  22006889.523 6 115646982.690 6  90114554.96249  22006897.35549
  21029669.703 6 110511657.600 6  86113007.35549  21029679.78149
  23693978.594 4 124512694.666 4  97022924.47448  23693989.18448
  20422356.914 6 107320209.997 6  83626156.68648  20422363.76648
  23368352.063 5 122801517.758 5  95689523.19446  23368359.67246
  22771349.625 5 119664245.548 5  93244910.71549  22771359.73849
 20  5 16  3 31 44.0000000  0  8G01G04G07G08G09G11G16G27             0.000343943
  21916108.117 6 115169927.220 6  89742830.87649  21916119.68449
  24020966.055 4 126231030.377 4  98361885.11846  24020976.82446
  22006430.734 6 115644570.270 6  90112675.14749  22006438.16449
  21029982.867 6 110513302.954 6  86114289.44949  21029993.14549
  23694358.789 4 124514692.728 4  97024481.39748  23694369.63348
  20422214.469 6 107319462.211 6  83625573.99048  20422221.59848
  23368688.313 5 122803284.781 5  95690900.09846  23368695.96146
  22771898.422 5 119667130.112 5  93247158.43049  22771909.01649
 20  5 16  3 31 45.0000000  0  8G01G04G07G08G09G11G16G27             0.000344040
  21915537.977 6 115166929.950 6  89740495.34549  21915549.64849
  24021496.344 5 126233815.748 5  98364055.53846  24021507.19146
  22005971.844 6 115642158.731 6  90110796.02849  22005979.35249
  21030296.008 7 110514948.985 7  86115572.06449  21030305.93449
  23694739.242 4 124516691.481 4  97026038.86548  23694749.90648
  20422072.680 6 107318715.432 6  83624992.08448  20422079.69548
  23369024.609 5 122805052.337 5  95692277.41546  23369032.28946
  22772447.688 5 119670015.142 5  93249406.50249  22772457.85249
 20  5 16  3 31 46.0000000  0  8G01G04G07G08G09G11G16G27             0.000344137
  21914968.000 6 115163933.519 6  89738160.46649  21914979.67249
  24022026.352 5 126236601.495 5  98366226.23246  24022037.00846
  22005513.203 6 115639748.020 6  90108917.55049  22005520.28549
  21030609.344 6 110516595.681 6  86116855.20949  21030619.59449
  23695120.039 4 124518690.881 4  97027596.83648  23695130.67248
  20421930.383 6 107317969.672 6  83624410.96748  20421937.39548
  23369361.125 5 122806820.467 5  95693655.18246  23369368.87146
  22772996.242 5 119672900.643 5  93251654.94149  22773006.73849
 20  5 16  3 31 47.0000000  0  8G01G04G07G08G09G11G16G27             0.000344234
  21914397.594 6 115160937.781 6  89735826.13249  21914409.68449
  24022556.703 5 126239387.558 5  98368397.17546  24022567.07846
  22005054.406 6 115637338.048 6  90107039.64849  22005062.07049
  21030923.000 6 110518242.941 6  86118138.78549  21030933.08649
  23695499.875 4 124520690.846 4  97029155.23948  23695511.23448
  20421788.953 6 107317224.836 6  83623830.58148  20421795.69148
  23369697.523 5 122808589.043 5  95695033.28946  23369705.28946
  22773545.609 5 119675786.507 5  93253903.66949  22773556.11349
 20  5 16  3 31 48.0000000  0  8G01G04G07G08G09G11G16G27             0.000344332
  21913827.555 6 115157942.866 6  89733492.43049  21913839.24649
  24023086.836 5 126242174.045 5  98370568.45446  24023097.64846
  22004596.070 6 115634928.948 6  90105162.42549  22004603.37549
  21031236.102 6 110519890.866 6  86119422.88449  21031246.42249
  23695880.836 4 124522691.463 4  97030714.16048  23695891.52348
  20421647.352 6 107316480.992 6  83623250.96248  20421654.19548
  23370033.945 5 122810358.179 5  95696411.82446  23370041.86746
  22774095.063 5 119678672.909 5  93256152.81249  22774105.22349
 20  5 16  3 31 49.0000000  0  9G01G04G07G08G09G11G16G27G30          0.000344429
  21913258.172 6 115154948.773 6  89731159.37449  21913269.70749
  24023617.234 5 126244960.925 5  98372740.03946  24023628.04746
  22004137.680 6 115632520.679 6  90103285.85949  22004145.27049
  21031550.164 6 110521539.483 6  86120707.51849  21031560.38749
  23696261.602 3 124524692.765 3  97032273.61748  23696272.23848
  20421506.164 6 107315738.160 6  83622672.13348  20421512.88348
  23370371.375 5 122812127.851 5  95697790.79546  23370378.77746
  22774644.539 5 119681559.739 5  93258402.28949  22774655.04749
  24569286.891 3 129112470.82213 100607167.11758  24569298.25848
 20  5 16  3 31 50.0000000  0  9G01G04G07G08G09G11G16G27G30          0.000344528
  21912688.469 6 115151955.593 6  89728827.03149  21912700.05549
  24024148.313 5 126247748.319 5  98374912.03146  24024158.07046
  22003680.031 6 115630113.367 6  90101410.02949  22003686.75849
  21031863.898 6 110523188.904 6  86121992.78549  21031874.17649
  23696642.609 4 124526694.857 4  97033833.68948  23696653.38348
  20421364.578 6 107314996.462 6  83622094.18448  20421371.78148
  23370708.039 5 122813898.211 5  95699170.29946  23370715.52346
  22775193.547 5 119684447.165 5  93260652.23149  22775203.86349
  24568668.133 3 129109221.580 3 100604635.24448  24568679.53548
 20  5 16  3 31 51.0000000  0  9G01G04G07G08G09G11G16G27G30          0.000344625
  21912118.984 6 115148963.344 6  89726495.41049  21912130.68849
  24024678.070 5 126250536.220 5  98377084.40946  24024688.55546
  22003221.789 6 115627707.015 6  90099534.95049  22003229.21549
  21032178.031 6 110524839.123 6  86123278.67149  21032188.22749
  23697024.133 4 124528697.750 4  97035394.38748  23697034.65248
  20421223.531 6 107314255.889 6  83621517.11348  20421230.75048
  23371044.813 5 122815669.233 5  95700550.31447  23371052.84047
  22775743.188 5 119687335.167 5  93262902.62049  22775753.54749
  24568050.195 3 129105973.021 3 100602103.90048  24568061.45748
 20  5 16  3 31 52.0000000  0  9G01G04G07G08G09G11G16G27G30          0.000344725
  21911549.945 6 115145972.078 6  89724164.55349  21911561.52349
  24025208.766 5 126253324.672 5  98379257.22546  24025218.98446
  22002764.055 6 115625301.681 6  90097660.66449  22002771.39149
  21032492.305 6 110526490.177 6  86124565.20649  21032502.71149
  23697405.094 4 124530701.444 4  97036955.70348  23697416.00848
  20421083.289 6 107313516.507 6  83620940.97548  20421090.16048
  23371381.969 5 122817440.965 5  95701930.87946  23371390.04346
  22776293.023 5 119690223.840 5  93265153.53349  22776303.22749
  24567432.539 3 129102725.245 3 100599573.17347  24567443.42647
 20  5 16  3 31 53.0000000  0  9G01G04G07G08G09G11G16G27G30          0.000344824
  21910980.773 6 115142981.685 6  89721834.37849  21910992.53549
  24025739.180 4 126256113.616 4  98381430.43846  24025750.06346
  22002306.406 6 115622897.232 6  90095787.06949  22002314.21949
  21032806.625 6 110528141.983 6  86125852.32949  21032816.64549
  23697786.172 4 124532705.872 4  97038517.58948  23697797.91848
  20420942.703 6 107312778.176 6  83620365.64648  20420949.23848
  23371719.453 5 122819213.297 5  95703311.91846  23371727.09046
  22776843.109 5 119693113.023 5  93267404.84249  22776853.37149
  24566814.180 4 129099478.116 4 100597042.93548  24566825.64848
 20  5 16  3 31 54.0000000  0  9G01G04G07G08G09G11G16G27G30          0.000344925
  21910412.109 6 115139992.238 6  89719504.94149  21910423.83249
  24026269.883 3 126258903.077 3  98383604.06446  24026280.57046
  22001849.227 6 115620493.787 6  90093914.25549  22001856.34449
  21033120.891 6 110529794.601 6  86127140.07749  21033130.93449
  23698167.875 4 124534711.101 4  97040080.10148  23698178.94148
  20420802.297 6 107312040.992 6  83619791.22248  20420809.30548
  23372056.313 5 122820986.351 5  95704693.51946  23372064.38346
  22777392.219 5 119696002.802 5  93269656.62149  22777402.91849
  24566197.102 3 129096231.651 3 100594513.21848  24566207.69148
 20  5 16  3 31 55.0000000  0  9G01G04G07G08G09G11G16G27G30          0.000345024
  21909843.547 6 115137003.726 6  89717176.23149  21909854.92249
  24026801.039 4 126261693.071 4  98385778.08646  24026811.19946
  22001392.203 6 115618091.310 6  90092042.19449  22001398.98049
  21033435.797 6 110531448.054 6  86128428.48149  21033446.03149
  23698550.398 4 124536717.090 4  97041643.20548  23698560.88748
  20420662.477 6 107311304.948 6  83619217.68348  20420668.66448
  23372394.258 5 122822760.062 5  95706075.62346  23372402.20746
  22777943.266 5 119698893.213 5  93271908.88649  22777953.17649
  24565578.656 3 129092985.926 3 100591984.08248  24565590.12548
 20  5 16  3 31 56.0000000  0  9G01G04G07G08G09G11G16G27G30          0.000345125
  21909274.742 6 115134016.020 6  89714848.14949  21909286.41449
  24027332.625 5 126264483.468 5  98387952.41046  24027342.68046
  22000934.688 6 115615689.647 6  90090170.76949  22000942.16049
  21033750.742 6 110533102.140 6  86129717.38549  21033761.22749
  23698932.625 4 124538723.753 4  97043206.85048  23698942.80148
  20420522.313 6 107310569.881 6  83618644.90348  20420529.34448
  23372731.750 5 122824534.263 5  95707458.11446  23372739.69546
  22778492.789 5 119701784.048 5  93274161.48249  22778503.15249
  24564961.102 3 129089740.694 3 100589455.32948  24564972.22748
 20  5 16  3 31 57.0000000  0  9G01G04G07G08G09G11G16G27G30          0.000345224
  21908706.250 6 115131029.159 6  89712520.72749  21908717.65249
  24027863.641 5 126267274.330 5  98390127.08646  24027874.10546
  22000478.242 6 115613288.916 6  90088300.07149  22000485.38749
  21034065.336 6 110534757.000 6  86131006.88549  21034075.45749
  23699313.453 4 124540731.131 4  97044771.03448  23699324.86348
  20420382.672 6 107309835.900 6  83618072.97448  20420389.63748
  23373069.570 5 122826309.146 5  95708841.14346  23373077.68446
  22779043.516 5 119704675.433 5  93276414.50949  22779053.40649
  24564343.688 3 129086496.176 3 100586927.13047  24564355.15247
 20  5 16  3 31 58.0000000  0  9G01G04G07G08G09G11G16G27G30          0.000345325
  21908138.227 6 115128043.387 6  89710194.15249  21908150.20749
  24028394.523 5 126270065.803 5  98392302.22946  24028404.69946
  22000021.438 6 115610889.241 6  90086430.19449  22000028.84849
  21034380.555 6 110536412.755 6  86132297.08549  21034390.82449
  23699696.102 4 124542739.381 4  97046335.90248  23699707.00048
  20420243.109 6 107309103.173 6  83617502.02048  20420250.33248
  23373407.586 5 122828084.794 5  95710224.76746  23373415.57046
  22779593.734 5 119707567.527 5  93278668.09049  22779603.73049
  24563726.484 3 129083252.453 3 100584399.54948  24563737.79348
 20  5 16  3 31 59.0000000  0  9G01G04G07G08G09G11G16G27G30          0.000345428
  21907570.039 6 115125058.633 6  89707868.37449  21907581.73849
  24028926.156 5 126272857.900 5  98394477.88146  24028935.85246
  21999564.844 6 115608490.663 6  90084561.17549  21999572.42249
  21034695.688 6 110538069.410 6  86133587.98449  21034706.06649
  23700078.320 4 124544748.610 4  97047901.53448  23700089.49648
  20420103.969 6 107308371.667 6  83616932.01348  20420110.88748
  23373745.445 5 122829861.235 5  95711609.00947  23373753.76647
  22780143.688 5 119710460.328 5  93280922.22749  22780154.14849
  24563109.172 4 129080009.529 4 100581872.59748  24563120.45748
 20  5 16  3 32  0.0000000  0  9G01G04G07G08G09G11G16G27G30          0.000345530
  21907002.453 6 115122074.677 6  89705543.21349  21907014.02349
  24029457.141 5 126275650.430 5  98396653.88246  24029467.33646
  21999108.703 6 115606092.918 6  90082692.80349  21999115.87549
  21035010.898 6 110539726.730 6  86134879.40649  21035021.39849
  23700461.008 4 124546758.481 4  97049467.65548  23700471.77748
  20419964.984 6 107307641.188 6  83616362.80348  20419971.49648
  23374083.484 5 122831638.205 5  95712993.66146  23374091.73846
  22780694.195 5 119713353.595 5  93283176.71449  22780704.64849
  24562492.844 3 129076767.174 3 100579346.08647  24562503.40647
 20  5 16  3 32  1.0000000  0  9G01G04G07G08G09G11G16G27G30          0.000345633
  21906435.039 6 115119091.892 6  89703218.97149  21906446.35549
  24029988.766 5 126278443.679 5  98398830.45246  24029998.56646
  21998652.336 6 115603696.335 6  90080825.33249  21998660.18449
  21035326.695 6 110541385.047 6  86136171.59649  21035337.16049
  23700843.070 4 124548769.294 4  97051034.52248  23700854.80548
  20419826.484 6 107306912.015 6  83615794.62148  20419833.26648
  23374422.227 5 122833416.076 5  95714379.01846  23374430.24246
  22781245.063 5 119716247.649 5  93285431.81649  22781255.27349
  24561875.430 3 129073525.737 3 100576820.29048  24561887.08648
 20  5 16  3 32  2.0000000  0  9G01G04G07G08G09G11G16G27G30          0.000345734
  21905866.813 6 115116110.062 6  89700895.46849  21905879.02349
  24030521.383 5 126281237.462 5  98401007.43246  24030530.55546
  21998196.852 6 115601300.759 6  90078958.64949  21998204.16049
  21035642.445 6 110543044.163 6  86137464.41949  21035652.86749
  23701226.289 4 124550780.938 4  97052602.04148  23701237.57048
  20419688.070 6 107306184.011 6  83615227.34148  20419694.38748
  23374760.438 5 122835194.615 5  95715764.89346  23374768.27346
  22781796.102 5 119719142.314 5  93287687.39849  22781806.32849
  24561258.648 3 129070285.017 3 100574295.05448  24561269.95748
 20  5 16  3 32  3.0000000  0  9G01G04G07G08G09G11G16G27G30          0.000345837
  21905299.813 6 115113129.244 6  89698572.75549  21905312.09049
  24031052.273 5 126284031.848 5  98403184.87646  24031062.08646
  21997741.484 6 115598906.254 6  90077092.80449  21997748.63349
  21035958.078 6 110544704.224 6  86138757.97149  21035968.56349
  23701609.055 4 124552793.442 4  97054170.23048  23701620.45348
  20419549.859 6 107305457.280 6  83614661.05948  20419556.27348
  23375099.516 5 122836973.939 5  95717151.37346  23375107.48846
  22782347.563 5 119722037.723 5  93289943.55749  22782357.48849
  24560641.984 3 129067045.108 3 100571770.45148  24560653.76648
 20  5 16  3 32  4.0000000  0  9G01G04G07G08G09G11G16G27G30          0.000345942
  21904732.750 6 115110149.477 6  89696250.85949  21904744.74649
  24031584.367 5 126286826.888 5  98405362.82146  24031594.17246
  21997285.797 6 115596512.793 6  90075227.76249  21997293.06349
  21036274.305 6 110546365.098 6  86140052.15749  21036284.60949
  23701992.891 4 124554806.852 4  97055739.11948  23702003.39548
  20419411.719 6 107304731.719 6  83614095.68548  20419418.25448
  23375437.742 5 122838754.042 5  95718538.46646  23375445.97746
  22782898.047 6 119724933.778 6  93292200.22749  22782908.41449
  24560025.578 3 129063806.017 3 100569246.48347  24560037.29747
 20  5 16  3 32  5.0000000  0  9G01G04G07G08G09G11G16G27G30          0.000346045
  21904165.758 6 115107170.657 6  89693929.70249  21904177.81649
  24032116.203 5 126289622.412 5  98407541.13346  24032125.85246
  21996830.633 6 115594120.332 6  90073363.51049  21996838.07449
  21036590.469 6 110548026.827 6  86141347.01449  21036600.72349
  23702375.406 4 124556821.081 4  97057308.64648  23702386.67248
  20419273.711 6 107304007.328 6  83613531.22948  20419280.62948
  23375776.508 5 122840534.838 5  95719926.09846  23375784.42246
  22783449.250 5 119727830.450 5  93294457.37349  22783459.64549
  24559409.672 3 129060567.593 3 100566723.03848  24559421.15648
 20  5 16  3 32  6.0000000  0  9G01G04G07G08G09G11G16G27G30          0.000346149
  21903599.563 6 115104192.854 6  89691609.33449  21903611.42649
  24032648.844 5 126292418.587 5  98409719.97646  24032658.26646
  21996375.797 6 115591728.913 6  90071500.06949  21996382.58249
  21036906.688 6 110549689.429 6  86142642.54849  21036916.98849
  23702759.516 4 124558836.141 4  97058878.81748  23702770.11748
  20419135.945 6 107303284.167 6  83612967.72648  20419142.62948
  23376115.594 5 122842316.394 5  95721314.32346  23376123.91046
  22784000.930 5 119730727.813 5  93296715.05949  22784010.92649
  24558793.391 3 129057329.962 3 100564200.21348  24558804.75448
 20  5 16  3 32  7.0000000  0  9G01G04G07G08G09G11G16G27G30          0.000346254
  21903033.203 6 115101216.152 6  89689289.83449  21903044.98049
  24033180.148 5 126295215.446 5  98411899.34746  24033190.14546
  21995920.875 6 115589338.649 6  90069637.52549  21995928.26249
  21037223.453 6 110551352.991 6  86143938.82749  21037234.11749
  23703142.680 4 124560852.206 4  97060449.77448  23703154.00848
  20418998.539 6 107302562.279 6  83612405.21448  20419005.58248
  23376455.078 5 122844098.776 5  95722703.19947  23376462.95747
  22784552.477 6 119733625.925 6  93298973.32549  22784562.60949
  24558177.742 4 129054093.194 4 100561678.05447  24558188.43847
 20  5 16  3 32  8.0000000  0  9G01G04G07G08G09G11G16G27G30          0.000346359
  21902467.070 6 115098240.468 6  89686971.11349  21902478.83249
  24033712.711 5 126298012.902 5  98414079.19446  24033722.40646
  21995465.828 6 115586949.441 6  90067775.80549  21995473.37549
  21037540.016 6 110553017.411 6  86145235.77749  21037550.65649
  23703526.375 4 124562869.080 4  97062021.36148  23703537.78948
  20418861.813 6 107301841.622 6  83611843.66348  20418868.39848
  23376794.547 5 122845881.944 5  95724092.68046  23376802.27746
  22785104.203 5 119736524.716 5  93301232.12649  22785114.17649
  24557562.266 3 129050857.267 3 100559156.55548  24557573.46948
 20  5 16  3 32  9.0000000  0  9G01G04G07G08G09G11G16G27G30          0.000346464
  21901900.789 6 115095265.648 6  89684653.07849  21901912.69949
  24034245.344 5 126300810.827 5  98416259.39346  24034254.80146
  21995011.570 6 115584561.108 6  90065914.75949  21995018.68049
  21037856.898 6 110554682.568 6  86146533.30149  21037867.54749
  23703910.438 4 124564886.711 4  97063593.53648  23703921.60948
  20418724.625 6 107301122.014 6  83611282.93148  20418731.34048
  23377133.516 5 122847665.688 5  95725482.61046  23377141.59446
  22785655.820 5 119739424.053 5  93303491.34749  22785665.61749
  24556945.875 3 129047621.927 3 100556635.52248  24556957.23448
 20  5 16  3 32 10.0000000  0  9G01G04G07G08G09G11G16G27G30          0.000346571
  21901334.477 6 115092291.916 6  89682335.87849  21901346.63349
  24034777.750 5 126303609.375 5  98418440.06746  24034787.32046
  21994557.234 6 115582173.874 6  90064054.57949  21994564.11749
  21038173.969 6 110556348.664 6  86147831.55549  21038184.44949
  23704294.258 4 124566905.242 4  97065166.41648  23704305.67248
  20418588.188 6 107300403.681 6  83610723.19048  20418594.73448
  23377473.227 5 122849450.249 5  95726873.17546  23377481.02046
  22786207.180 5 119742324.087 5  93305751.11149  22786217.34449
  24556329.500 3 129044387.391 3 100554115.10948  24556342.16448
 20  5 16  3 32 11.0000000  0  9G01G04G07G08G09G11G16G27G30          0.000346676
  21900769.234 6 115089319.214 6  89680019.49049  21900780.83649
  24035310.391 5 126306408.566 5  98420621.24546  24035320.03146
  21994103.344 6 115579787.724 6  90062195.23849  21994110.13349
  21038491.406 6 110558015.640 6  86149130.49449  21038501.58649
  23704678.602 4 124568924.643 4  97066739.96648  23704690.21548
  20418451.531 6 107299686.568 6  83610164.39648  20418458.18448
  23377813.055 5 122851235.545 5  95728264.31046  23377821.00846
  22786759.516 5 119745224.814 5  93308011.41749  22786769.35249
  24555715.273 4 129041153.710 4 100551595.36447  24555726.33247
 20  5 16  3 32 12.0000000  0  9G01G04G07G08G09G11G16G27G30          0.000346783
  21900203.500 6 115086347.439 6  89677703.82349  21900215.23449
  24035843.227 5 126309208.306 5  98422802.85246  24035853.03146
  21993649.688 6 115577402.577 6  90060336.68549  21993656.70749
  21038808.930 6 110559683.472 6  86150430.10449  21038819.04749
  23705063.328 4 124570944.921 4  97068314.20148  23705074.71548
  20418315.258 6 107298970.612 6  83609606.51248  20418321.83248
  23378152.953 5 122853021.602 5  95729656.04046  23378161.01646
  22787311.492 5 119748126.160 5  93310272.20249  22787321.56349
  24555100.242 4 129037920.745 4 100549076.17248  24555111.57048
 20  5 16  3 32 13.0000000  0  9G01G04G07G08G09G11G16G27G30          0.000346891
  21899638.148 6 115083376.680 6  89675388.95549  21899649.81649
  24036375.813 4 126312008.604 4  98424984.90046  24036385.59446
  21993195.563 6 115575018.417 6  90058478.89549  21993202.67249
  21039126.148 6 110561352.123 6  86151730.35449  21039136.73449
  23705448.469 4 124572965.964 4  97069889.03248  23705459.55548
  20418179.398 6 107298255.832 6  83609049.54348  20418185.82048
  23378493.109 5 122854808.346 5  95731048.30647  23378501.01647
  22787863.852 5 119751028.157 5  93312533.49449  22787873.89149
  24554484.883 3 129034688.491 3 100546557.53248  24554496.30948
 20  5 16  3 32 14.0000000  0  9G01G04G07G08G09G11G16G27G30          0.000346998
  21899073.023 6 115080406.949 6  89673074.88349  21899084.60949
  24036909.328 5 126314809.524 5  98427167.43146  24036918.75446
  21992742.430 6 115572635.334 6  90056621.94449  21992749.24649
  21039443.961 6 110563021.676 6  86153031.30749  21039454.54349
  23705833.266 4 124574987.935 4  97071464.59048  23705843.97748
  20418043.328 6 107297542.326 6  83608493.56448  20418050.15648
  23378833.375 5 122856595.877 5  95732441.18446  23378841.09846
  22788415.961 5 119753930.861 5  93314795.34549  22788425.99649
  24553869.977 3 129031457.066 3 100544039.53847  24553881.10947
 20  5 16  3 32 15.0000000  0  9G01G04G07G08G09G11G16G27G30          0.000347105
  21898508.703 6 115077438.262 6  89670761.61849  21898520.36749
  24037442.094 4 126317611.078 4  98429350.45746  24037451.93846
  21992289.234 6 115570253.323 6  90054765.83349  21992295.93849
  21039761.977 6 110564692.094 6  86154332.92849  21039772.38349
  23706218.297 4 124577010.739 4  97073040.79648  23706229.12948
  20417908.000 6 107296829.976 6  83607938.48848  20417914.64148
  23379173.266 5 122858384.153 5  95733834.64646  23379181.96546
  22788968.406 5 119756834.244 5  93317057.71949  22788978.81649
  24553255.781 3 129028226.400 3 100541522.14048  24553266.35248
 20  5 16  3 32 16.0000000  0  9G01G04G07G08G09G11G16G27G30          0.000347214
  21897943.375 6 115074470.367 6  89668448.97349  21897955.05549
  24037975.891 5 126320413.017 5  98431533.78046  24037985.35546
  21991835.789 6 115567872.166 6  90052910.38449  21991842.78949
  21040079.844 6 110566363.196 6  86155635.08649  21040089.99649
  23706602.703 4 124579034.222 4  97074617.53148  23706614.27748
  20417771.945 6 107296118.690 6  83607384.23848  20417779.32848
  23379513.625 5 122860173.002 5  95735228.54846  23379521.78946
  22789521.031 6 119759738.074 6  93319320.44149  22789531.37149
  24552640.906 3 129024996.379 3 100539005.24548  24552651.41848
 20  5 16  3 32 17.0000000  0  9G01G04G07G08G09G11G16G27G30          0.000347322
  21897379.094 6 115071503.472 6  89666137.10949  21897390.53549
  24038508.531 4 126323215.539 4  98433717.56346  24038518.17246
  21991382.711 6 115565492.040 6  90051055.74149  21991389.96149
  21040397.703 6 110568035.171 6  86156937.92149  21040408.33249
  23706988.219 4 124581058.546 4  97076194.92648  23706999.09048
  20417637.563 6 107295408.582 6  83606830.90648  20417644.25048
  23379854.734 5 122861962.579 5  95736623.02446  23379862.44146
  22790074.047 5 119762642.564 5  93321583.68349  22790083.90249
  24552026.742 4 129021767.082 4 100536488.90448  24552037.39848
 20  5 16  3 32 18.0000000  0  9G01G04G07G08G09G11G16G27G30          0.000347431
  21896814.578 6 115068537.605 6  89663826.04149  21896826.40649
  24039041.906 5 126326018.639 5  98435901.79546  24039052.18846
  21990929.641 6 115563112.931 6  90049201.89149  21990936.91049
  21040716.203 6 110569707.973 6  86158241.40649  21040727.16449
  23707373.727 4 124583083.728 4  97077772.98748  23707384.48048
  20417502.609 6 107294699.651 6  83606278.48948  20417509.10248
  23380194.906 5 122863752.885 5  95738018.06946  23380202.90646
  22790626.523 5 119765547.717 5  93323847.43849  22790636.63349
  24551411.695 3 129018538.553 3 100533973.17347  24551423.08247
 20  5 16  3 32 19.0000000  0  9G01G04G07G08G09G11G16G27G30          0.000347542
  21896250.414 6 115065572.676 6  89661515.70749  21896261.93449
  24039575.773 4 126328822.296 4  98438086.46646  24039585.55546
  21990477.570 6 115560734.824 6  90047348.82049  21990484.69949
  21041034.789 6 110571381.631 6  86159545.55449  21041045.22349
  23707759.148 4 124585109.725 4  97079351.68648  23707770.48848
  20417367.625 6 107293991.920 6  83605727.01948  20417374.46148
  23380535.711 5 122865543.896 5  95739413.66046  23380544.23846
  22791179.891 5 119768453.511 5  93326111.68849  22791189.93849
  24550797.672 3 129015310.751 3 100531457.99948  24550808.55548
 20  5 16  3 32 20.0000000  0  9G01G04G07G08G09G11G16G27G30          0.000347651
  21895686.492 6 115062608.847 6  89659206.23249  21895698.08249
  24040109.750 5 126331626.618 5  98440271.63446  24040119.55546
  21990025.570 6 115558357.838 6  90045496.62549  21990032.34049
  21041353.508 6 110573056.258 6  86160850.45449  21041364.03549
  23708144.898 4 124587136.624 4  97080931.08848  23708156.14548
  20417233.320 6 107293285.433 6  83605176.50348  20417240.07848
  23380876.883 5 122867335.723 5  95740809.89146  23380885.12546
  22791732.547 6 119771360.025 6  93328376.50649  22791742.53549
  24550183.852 3 129012083.819 3 100528943.50748  24550194.86748
 20  5 16  3 32 21.0000000  0  9G01G04G07G08G09G11G16G27G30          0.000347761
  21895122.227 6 115059645.886 6  89656897.43349  21895134.03949
  24040642.969 5 126334431.416 5  98442457.18946  24040653.09446
  21989573.148 6 115555981.775 6  90043645.15149  21989580.00849
  21041672.383 6 110574731.615 6  86162155.92749  21041682.39849
  23708531.125 5 124589164.316 5  97082511.10148  23708541.55148
  20417099.242 6 107292580.049 6  83604626.85748  20417105.96548
  23381217.422 5 122869128.204 5  95742206.63546  23381225.62946
  22792285.906 6 119774267.083 6  93330641.74449  22792295.73449
  24549569.617 4 129008857.521 4 100526429.50648  24549580.75048
 20  5 16  3 32 22.0000000  0  9G01G04G07G08G09G11G16G27G30          0.000347872
  21894558.820 6 115056683.964 6  89654589.44249  21894570.59849
  24041177.422 5 126337236.822 5  98444643.21446  24041186.90246
  21989121.078 6 115553606.770 6  90041794.49749  21989127.99249
  21041991.156 6 110576407.852 6  86163462.08649  21042001.47349
  23708916.570 4 124591192.828 4  97084091.75948  23708927.34048
  20416965.344 6 107291875.871 6  83604078.14548  20416971.80548
  23381559.094 5 122870921.425 5  95743603.95046  23381566.92646
  22792839.031 6 119777174.821 6  93332907.51449  22792849.37949
  24548955.711 3 129005632.008 3 100523916.12848  24548966.86748
 20  5 16  3 32 23.0000000  0  9G01G04G07G08G09G11G16G27G30          0.000347982
  21893995.391 6 115053723.088 6  89652282.27349  21894007.35549
  24041710.977 5 126340042.853 5  98446829.72246  24041720.87946
  21988669.266 6 115551232.857 6  90039944.69649  21988676.42249
  21042310.359 6 110578084.989 6  86164768.94549  21042320.73049
  23709302.570 4 124593222.227 4  97085673.10548  23709313.54348
  20416831.609 6 107291172.945 6  83603530.41448  20416838.01648
  23381900.297 5 122872715.438 5  95745001.87947  23381908.53147
  22793392.680 6 119780083.290 6  93335173.85449  22793402.62149
  24548342.648 4 129002407.321 4 100521403.38748  24548353.23448
 20  5 16  3 32 24.0000000  0  9G01G04G07G08G09G11G16G27G30          0.000348093
  21893432.172 6 115050763.169 6  89649975.84549  21893444.15249
  24042245.695 5 126342849.405 5  98449016.65146  24042254.85246
  21988217.875 6 115548859.903 6  90038095.63849  21988224.68049
  21042629.602 6 110579762.954 6  86166076.45349  21042640.38749
  23709689.203 4 124595252.444 4  97087255.09748  23709700.10248
  20416697.992 6 107290471.152 6  83602983.55748  20416704.52748
  23382242.078 5 122874510.137 5  95746400.34146  23382250.15646
  22793946.336 5 119782992.330 5  93337440.63549  22793956.39549
  24547728.555 4 128999183.297 4 100518891.15948  24547739.68048
 20  5 16  3 32 25.0000000  0  9G01G04G07G08G09G11G16G27G30          0.000348206
  21892869.320 6 115047804.114 6  89647670.08949  21892880.93049
  24042779.469 5 126345656.417 5  98451203.93846  24042788.93046
  21987766.578 6 115546487.889 6  90036247.31149  21987773.73049
  21042949.117 6 110581441.657 6  86167384.53449  21042959.47749
  23710075.727 4 124597283.399 4  97088837.65848  23710086.42248
  20416564.781 6 107289770.446 6  83602437.55448  20416571.24248
  23382583.484 5 122876305.423 5  95747799.26146  23382591.84846
  22794499.945 6 119785901.944 6  93339707.86549  22794509.84049
  24547115.992 4 128995959.985 4 100516379.48948  24547126.10548
 20  5 16  3 32 26.0000000  0  9G01G04G07G08G09G11G16G27G30          0.000348318
  21892305.727 6 115044845.996 6  89645365.06149  21892317.75449
  24043313.359 5 126348463.977 5  98453391.63246  24043323.42246
  21987315.227 6 115544116.791 6  90034399.70049  21987321.91049
  21043268.375 6 110583121.134 6  86168693.21949  21043278.89149
  23710462.305 4 124599315.119 4  97090420.81548  23710473.08248
  20416431.461 6 107289070.858 6  83601892.41748  20416437.99248
  23382925.391 5 122878101.422 5  95749198.73946  23382932.89146
  22795053.727 6 119788812.099 6  93341975.52149  22795063.75049
  24546502.141 4 128992737.340 4 100513868.33048  24546513.39848
 20  5 16  3 32 27.0000000  0  9G01G04G07G08G09G11G16G27G30          0.000348431
  21891743.484 6 115041888.883 6  89643060.82149  21891755.08649
  24043848.664 5 126351272.061 5  98455579.74346  24043857.53546
  21986864.031 6 115541746.770 6  90032552.93649  21986871.33249
  21043588.289 6 110584801.498 6  86170002.58949  21043598.62949
  23710848.891 4 124601347.662 4  97092004.61048  23710859.59448
  20416298.414 6 107288372.485 6  83601348.23348  20416305.43848
  23383267.508 5 122879898.128 5  95750598.76346  23383275.13746
  22795607.625 6 119791722.927 6  93344243.69349  22795617.60949
  24545889.867 4 128989515.474 4 100511357.78648  24545899.80548
 20  5 16  3 32 28.0000000  0  9G01G04G07G08G09G11G16G27G30          0.000348543
  21891180.828 6 115038932.771 6  89640757.35749  21891192.28949
  24044382.641 5 126354080.804 5  98457768.36746  24044392.40246
  21986413.594 6 115539377.771 6  90030706.96849  21986420.39549
  21043908.750 6 110586482.696 6  86171312.61549  21043918.88349
  23711235.266 4 124603381.076 4  97093589.08648  23711246.62548
  20416165.703 6 107287675.304 6  83600804.97448  20416172.40248
  23383609.195 5 122881695.575 5  95751999.37346  23383617.09446
  22796161.781 5 119794634.426 5  93346512.39649  22796171.98849
  24545276.719 4 128986294.375 4 100508847.84348  24545287.03148
 20  5 16  3 32 29.0000000  0  9G01G04G07G08G09G11G16G27G30          0.000348656
  21890618.492 6 115035977.624 6  89638454.64649  21890630.10549
  24044917.641 5 126356890.055 5  98459957.38846  24044926.94146
  21985963.117 6 115537009.770 6  90028861.76949  21985970.16449
  21044228.188 6 110588164.706 6  86172623.27449  21044239.10949
  23711623.477 4 124605415.299 4  97095174.19248  23711633.56648
  20416033.750 6 107286979.262 6  83600262.60748  20416040.26248
  23383951.523 5 122883493.757 5  95753400.55946  23383959.04746
  22796716.031 5 119797546.545 5  93348781.58249  22796726.08649
  24544663.031 4 128983074.000 4 100506338.45947  24544673.85947
 20  5 16  3 32 30.0000000  0  9G01G04G07G08G09G11G16G27G30          0.000348770
  21890056.789 6 115033023.561 6  89636152.77649  21890068.11749
  24045452.063 5 126359699.942 5  98462146.91046  24045461.46946
  21985512.648 6 115534642.861 6  90027017.42949  21985519.71149
  21044548.938 6 110589847.618 6  86173934.63449  21044559.29349
  23712009.922 4 124607450.438 4  97096760.01048  23712021.04748
  20415901.289 6 107286284.465 6  83599721.20348  20415907.82848
  23384294.016 5 122885292.714 5  95754802.34846  23384301.81646
  22797270.281 5 119800459.345 5  93351051.29349  22797279.98849
  24544050.758 3 128979854.431 3 100503829.70647  24544061.51647
 20  5 16  3 32 31.0000000  0  9G01G04G07G08G09G11G16G27G30          0.000348885
  21889494.344 6 115030070.429 6  89633851.63249  21889506.22349
  24045986.563 5 126362510.361 5  98464336.85046  24045996.29746
  21985062.344 6 115532276.945 6  90025173.85949  21985069.35949
  21044869.234 6 110591531.365 6  86175246.64249  21044879.35949
  23712397.406 4 124609486.341 4  97098346.42748  23712408.53148
  20415769.234 6 107285590.838 6  83599180.71548  20415775.87948
  23384636.258 5 122887092.353 5  95756204.65746  23384644.10546
  22797824.383 5 119803372.778 5  93353321.50449  22797834.14149
  24543438.648 4 128976635.587 4 100501321.51947  24543448.96547
 20  5 16  3 32 32.0000000  0  9G01G04G07G08G09G11G16G27G30          0.000348999
  21888932.453 6 115027118.203 6  89631551.20049  21888944.25449
  24046522.016 5 126365321.276 5  98466527.16946  24046531.34446
  21984612.250 6 115529911.947 6  90023331.00049  21984619.27049
  21045189.438 6 110593215.849 6  86176559.22949  21045200.30949
  23712785.289 4 124611523.022 4  97099933.45148  23712795.85248
  20415637.508 6 107284898.298 6  83598641.07648  20415644.30148
  23384978.984 5 122888892.661 5  95757607.50046  23384987.08646
  22798379.070 5 119806286.798 5  93355592.16349  22798389.19149
  24542825.969 3 128973417.417 3 100498813.85847  24542836.52347
 20  5 16  3 32 33.0000000  0  9G01G04G07G08G09G11G16G27G30          0.000349113
  21888370.875 6 115024166.929 6  89629251.50849  21888382.63349
  24047056.797 5 126368132.725 5  98468717.90946  24047066.46946
  21984162.703 6 115527547.955 6  90021488.92349  21984169.51249
  21045510.375 6 110594901.146 6  86177872.44549  21045521.03949
  23713172.789 4 124613560.475 4  97101521.06748  23713183.86748
  20415506.109 6 107284206.928 6  83598102.34648  20415512.85248
  23385321.633 5 122890693.633 5  95759010.84246  23385329.37146
  22798934.477 5 119809201.384 5  93357863.27049  22798943.94949
  24542212.766 3 128970199.956 3 100496306.74448  24542224.62948
 20  5 16  3 32 34.0000000  0  9G01G04G07G08G09G11G16G27G30          0.000349228
  21887809.430 6 115021216.589 6  89626952.54549  21887821.44949
  24047591.945 5 126370944.701 5  98470909.06346  24047601.76246
  21983712.617 6 115525184.930 6  90019647.60349  21983719.77349
  21045831.133 6 110596587.269 6  86179186.30849  21045841.57049
  23713560.758 4 124615598.743 4  97103109.32448  23713571.73448
  20415374.672 6 107283516.676 6  83597564.48848  20415381.31348
  23385664.289 5 122892495.294 5  95760414.72846  23385672.46546
  22799488.891 5 119812116.561 5  93360134.83149  22799498.32049
  24541601.359 3 128966983.222 3 100493800.19848  24541612.05548
 20  5 16  3 32 35.0000000  0  9G01G04G07G08G09G11G16G27G30          0.000349344
  21887248.414 6 115018267.130 6  89624654.26949  21887260.32849
  24048126.641 5 126373757.110 5  98473100.54246  24048136.69146
  21983263.219 6 115522822.792 6  90017806.97949  21983270.21549
  21046152.195 6 110598274.093 6  86180500.71549  21046162.49649
  23713948.266 4 124617637.708 4  97104698.12648  23713959.30948
  20415243.859 6 107282827.488 6  83597027.45748  20415250.18848
  23386007.961 5 122894297.569 5  95761819.09846  23386015.36746
  22800043.727 5 119815032.273 5  93362406.82249  22800053.52349
  24540989.070 4 128963767.104 4 100491294.13548  24541000.39148
 20  5 16  3 32 36.0000000  0  9G01G04G07G08G09G11G16G27G30          0.000349459
  21886687.336 6 115015318.618 6  89622356.72949  21886698.77349
  24048661.969 5 126376570.109 5  98475292.48246  24048672.29346
  21982813.828 6 115520461.681 6  90015967.15349  21982820.82849
  21046473.438 6 110599961.743 6  86181815.77049  21046483.77349
  23714336.906 4 124619677.496 4  97106287.57548  23714347.84048
  20415112.719 6 107282139.472 6  83596491.34348  20415119.35548
  23386350.516 5 122896100.542 5  95763224.01346  23386358.76646
  22800598.742 5 119817948.610 5  93364679.28749  22800608.55549
  24540378.117 4 128960551.727 4 100488788.64648  24540388.40248
 20  5 16  3 32 37.0000000  0  9G01G04G07G08G09G11G16G27G30          0.000349575
  21886126.336 6 115012371.052 6  89620059.92749  21886138.18449
  24049197.016 5 126379383.562 5  98477484.77346  24049207.35246
  21982364.844 6 115518101.497 6  90014128.05049  21982371.79349
  21046794.570 6 110601650.161 6  86183131.41449  21046804.97749
  23714725.000 4 124621718.022 4  97107877.59948  23714735.90248
  20414981.742 6 107281452.550 6  83595956.07748  20414988.37148
  23386693.508 5 122897904.170 5  95764629.44446  23386701.27346
  22801153.313 5 119820865.527 5  93366952.20949  22801163.50049
  24539765.750 3 128957337.005 3 100486283.67247  24539776.66047
 20  5 16  3 32 38.0000000  0  9G01G04G07G08G09G11G16G27G30          0.000349691
  21885565.492 6 115009424.354 6  89617763.79349  21885577.63349
  24049732.813 5 126382197.465 5  98479677.42146  24049743.03946
  21981915.539 6 115515742.232 6  90012289.66449  21981922.49249
  21047116.141 6 110603339.303 6  86184447.63249  21047126.56349
  23715113.523 4 124623759.278 4  97109468.18548  23715124.51248
  20414851.164 6 107280766.686 6  83595421.63948  20414857.80548
  23387037.016 5 122899708.404 5  95766035.34146  23387044.89146
  22801708.922 5 119823782.932 5  93369225.51249  22801718.57449
  24539154.461 3 128954122.955 3 100483779.22347  24539165.01647
 20  5 16  3 32 39.0000000  0  9G01G04G07G08G09G11G16G27G30          0.000349808
  21885005.445 6 115006478.500 6  89615468.32449  21885016.96549
  24050267.672 5 126385011.807 5  98481870.41546  24050278.67246
  21981467.227 6 115513383.843 6  90010451.95949  21981473.80549
  21047437.258 6 110605029.180 6  86185764.41549  21047447.99649
  23715502.039 4 124625801.216 4  97111059.30748  23715512.90248
  20414720.914 6 107280081.895 6  83594888.03548  20414727.86748
  23387380.422 5 122901513.210 5  95767441.67946  23387388.47746
  22802263.945 5 119826700.873 5  93371499.22649  22802273.85949
  24538542.516 4 128950909.522 4 100481275.24547  24538553.25447
 20  5 16  3 32 40.0000000  0  9G01G04G07G08G09G11G16G27G30          0.000349926
  21884444.891 6 115003533.633 6  89613173.62349  21884456.58649
  24050804.547 5 126387826.712 5  98484063.85446  24050814.12146
  21981018.320 6 115511026.493 6  90008615.06449  21981025.86349
  21047759.383 6 110606719.900 6  86187081.86149  21047769.95349
  23715890.547 4 124627844.029 4  97112651.10348  23715901.78548
  20414590.758 6 107279398.273 6  83594355.34048  20414597.71948
  23387724.656 5 122903318.749 5  95768848.58946  23387732.00446
  22802819.359 5 119829619.452 5  93373773.44149  22802829.31349
  24537931.375 4 128947696.833 4 100478771.85147  24537941.96947
 20  5 16  3 32 41.0000000  0  9G01G04G07G08G09G11G16G27G30          0.000350042
  21883884.469 6 115000589.663 6  89610879.62249  21883896.60549
  24051339.500 5 126390642.116 5  98486257.67446  24051350.01646
  21980569.883 6 115508670.056 6  90006778.88149  21980577.10949
  21048081.180 6 110608411.357 6  86188399.88249  21048091.86349
  23716279.211 4 124629887.535 4  97114243.43648  23716291.03148
  20414460.945 6 107278715.725 6  83593823.48748  20414467.68448
  23388067.570 5 122905124.925 5  95770255.99146  23388075.73046
  22803375.156 5 119832538.587 5  93376048.09049  22803384.81349
  24537320.234 4 128944484.760 4 100476268.93747  24537330.77747
 20  5 16  3 32 42.0000000  0  9G01G04G07G08G09G11G16G27G30          0.000350161
  21883324.711 6 114997646.575 6  89608586.30849  21883336.07049
  24051875.422 5 126393457.928 5  98488451.81346  24051885.79746
  21980121.797 6 115506314.529 6  90004943.39749  21980128.90649
  21048403.305 6 110610103.524 6  86189718.45349  21048413.84449
  23716668.320 4 124631931.757 4  97115836.33148  23716679.77348
  20414331.070 6 107278034.249 6  83593292.46948  20414338.00448
  23388411.148 5 122906931.690 5  95771663.86046  23388419.64546
  22803930.086 5 119835458.234 5  93378323.14349  22803940.34849
  24536709.180 4 128941273.380 4 100473766.56647  24536719.43047
 20  5 16  3 32 43.0000000  0  9G01G04G07G08G09G11G16G27G30          0.000350279
  21882764.563 6 114994704.415 6  89606293.72149  21882776.26649
  24052411.258 5 126396274.288 5  98490646.37946  24052422.01646
  21979673.305 6 115503959.959 6  90003108.67149  21979680.84049
  21048725.359 6 110611796.502 6  86191037.65149  21048735.66849
  23717058.086 4 124633976.771 4  97117429.84848  23717069.12148
  20414202.078 6 107277353.898 6  83592762.32248  20414208.49248
  23388755.414 5 122908739.151 5  95773072.26946  23388763.35246
  22804486.500 5 119838378.473 5  93380598.65249  22804496.39549
  24536098.367 4 128938062.667 4 100471264.70747  24536108.57447
 20  5 16  3 32 44.0000000  0  9G01G04G07G08G09G11G16G27G30          0.000350397
  21882204.891 6 114991763.094 6  89604001.78549  21882216.67249
  24052947.148 5 126399091.042 5  98492841.24146  24052958.36746
  21979225.813 6 115501606.265 6  90001274.61949  21979232.88749
  21049047.578 6 110613490.166 6  86192357.39349  21049057.83249
  23717447.141 4 124636022.431 4  97119023.86148  23717458.34848
  20414072.703 6 107276674.576 6  83592232.97948  20414079.21548
  23389099.813 5 122910547.156 5  95774481.10447  23389107.37147
  22805041.992 5 119841299.183 5  93382874.53049  22805051.88749
  24535487.461 4 128934852.588 4 100468763.34547  24535497.69547
 20  5 16  3 32 45.0000000  0  9G01G04G07G08G09G11G16G27G30          0.000350515
  21881645.039 6 114988822.645 6  89601710.52749  21881657.31649
  24053484.031 5 126401908.278 5  98495036.48146  24053493.96546
  21978777.938 6 115499253.506 6  89999441.30149  21978785.09049
  21049370.000 6 110615184.574 6  86193677.70849  21049380.43049
  23717836.750 4 124638068.888 4  97120618.50048  23717847.85548
  20413943.703 6 107275996.342 6  83591704.48748  20413950.19148
  23389444.000 5 122912355.791 5  95775890.43446  23389451.63746
  22805598.117 5 119844220.462 5  93385150.84349  22805607.64849
  24534876.461 4 128931643.100 4 100466262.45647  24534886.88747
 20  5 16  3 32 46.0000000  0  9G01G04G07G08G09G11G16G27G30          0.000350636
  21881085.695 6 114985883.145 6  89599420.00649  21881097.96549
  24054019.742 5 126404726.057 5  98497232.14446  24054030.31346
  21978330.508 6 115496901.695 6  89997608.72349  21978337.78949
  21049692.633 6 110616879.772 6  86194998.64249  21049702.89849
  23718226.555 4 124640116.060 4  97122213.68948  23718237.35248
  20413814.641 6 107275319.231 6  83591176.86648  20413821.17248
  23389788.445 5 122914165.111 5  95777300.29146  23389795.68846
  22806153.797 5 119847142.297 5  93387427.59949  22806163.55149
  24534265.500 4 128928434.395 4 100463762.16547  24534276.14847
 20  5 16  3 32 47.0000000  0  9G01G04G07G08G09G11G16G27G30          0.000350754
  21880527.094 6 114982944.593 6  89597130.22949  21880538.43849
  24054556.117 4 126407544.299 4  98499428.17346  24054566.73846
  21977883.219 6 115494550.869 6  89995776.91149  21977890.00049
  21050015.555 6 110618575.753 6  86196320.18749  21050025.38749
  23718616.211 4 124642164.010 4  97123809.49448  23718626.95348
  20413685.922 6 107274643.262 6  83590650.13948  20413692.93448
  23390132.719 5 122915975.091 5  95778710.66646  23390140.41846
  22806710.000 5 119850064.723 5  93389704.81549  22806719.80149
  24533654.789 4 128925226.319 4 100461262.37248  24533665.73048
 20  5 16  3 32 48.0000000  0  9G01G04G07G08G09G11G16G27G30          0.000350874
  21879967.789 6 114980006.899 6  89594841.11649  21879979.24649
  24055092.422 5 126410363.010 5  98501624.56646  24055103.19946
  21977436.320 6 115492200.973 6  89993945.82349  21977443.07849
  21050338.211 6 110620272.478 6  86197642.31249  21050348.64549
  23719006.133 4 124644212.690 4  97125405.86948  23719016.90648
  20413557.406 6 107273968.380 6  83590124.25448  20413564.33648
  23390477.602 5 122917785.707 5  95780121.54046  23390485.32446
  22807266.414 5 119852987.708 5  93391982.46149  22807276.15249
  24533044.984 4 128922018.941 4 100458763.11547  24533055.87147
 20  5 16  3 32 49.0000000  0  9G01G04G07G08G09G11G16G27G30          0.000350994
  21879408.852 6 114977070.164 6  89592552.75649  21879420.72749
  24055628.750 5 126413182.242 5  98503821.37546  24055639.98446
  21976989.219 6 115489851.990 6  89992115.44649  21976995.95349
  21050661.445 6 110621969.971 6  86198965.03349  21050671.90649
  23719396.766 4 124646262.153 4  97127002.85248  23719407.60548
  20413429.383 6 107273294.571 6  83589599.21148  20413436.14848
  23390821.984 5 122919596.953 5  95781532.89946  23390829.44546
  22807822.648 5 119855911.241 5  93394260.54449  22807832.72749
  24532434.586 4 128918812.230 4 100456264.37948  24532445.48848
 20  5 16  3 32 50.0000000  0  9G01G04G07G08G09G11G16G27G30          0.000351114
  21878850.258 6 114974134.302 6  89590265.07149  21878862.23449
  24056165.531 5 126416001.972 5  98506018.54946  24056176.94146
  21976542.672 6 115487503.963 6  89990285.81749  21976549.27049
  21050984.609 7 110623668.253 7  86200288.36649  21050994.84049
  23719786.438 4 124648312.387 4  97128600.43348  23719796.69148
  20413301.508 6 107272621.895 6  83589075.05448  20413308.37948
  23391166.570 5 122921408.863 5  95782944.77046  23391174.60546
  22808378.453 5 119858835.356 5  93396539.07649  22808388.84049
  24531824.172 3 128915606.212 3 100453766.18647  24531835.32847
 20  5 16  3 32 51.0000000  0  9G01G04G07G08G09G11G16G27G30          0.000351236
  21878291.953 6 114971199.350 6  89587978.09649  21878303.50849
  24056701.883 5 126418822.130 5  98508216.08146  24056713.31646
