     2.10           OBSERVATION DATA    Mixed(MIXED)        RINEX VERSION / TYPE
cnvtToRINEX 3.07.0  convertToRINEX OPR  19-May-20 12:34 UTC PGM / RUN BY / DATE 
----------------------------------------------------------- COMMENT             
G058                                                        MARKER NAME         
G058                                                        MARKER NUMBER       
GNSS Observer       Trimble                                 OBSERVER / AGENCY   
5319436542          R5                  4.85                REC # / TYPE / VERS 
                    UNKNOWN EXT                             ANT # / TYPE        
 -3053228.4455  4926933.9652  2652653.1463                  APPROX POSITION XYZ 
        0.0000        0.0000        0.0000                  ANTENNA: DELTA H/E/N
     1     1     0                                          WAVELENGTH FACT L1/2
     4    C1    L1    L2    P2                              # / TYPES OF OBSERV 
     1.000                                                  INTERVAL            
  2020     5    16     5    11   38.0000000     GPS         TIME OF FIRST OBS   
  2020     5    16     6    20   55.0000000     GPS         TIME OF LAST OBS    
     0                                                      RCV CLOCK OFFS APPL 
    18                                                      LEAP SECONDS        
     9                                                      # OF SATELLITES     
   G01  4158  4158  4158  4158                              PRN / # OF OBS      
   G03  4158  4158  4154  4154                              PRN / # OF OBS      
   G07  4158  4158  4158  4158                              PRN / # OF OBS      
   G08  4158  4158  4154  4154                              PRN / # OF OBS      
   G11  4158  4158  4158  4158                              PRN / # OF OBS      
   G17  4158  4158  4154  4154                              PRN / # OF OBS      
   G22  4158  4158  4158  4158                              PRN / # OF OBS      
   G28  4158  4158  4154  4154                              PRN / # OF OBS      
   G30  4158  4158  4158  4158                              PRN / # OF OBS      
CARRIER PHASE MEASUREMENTS: PHASE SHIFTS REMOVED            COMMENT             
                                                            END OF HEADER       
 20  5 16  5 11 38.0000000  0  9G01G03G07G08G11G17G22G28G30          0.000311621
  20198420.844 7 106143415.75617  82709157.66759  20198422.60549
  23540336.305 5 123705548.77615                
  20969987.430 6 110198026.30816  85868614.30759  20969995.50449
  23093843.344 5 121358956.68315                
  21174469.797 6 111272589.27716  86705935.13458  21174477.01248
  24209894.391 4 127223831.72814                
  22774890.016 5 119682854.40515  93259386.75758  22774896.85948
  23877411.875 5 125476852.14715                
  21775782.828 6 114432508.38816  89168214.72959  21775793.01249
 20  5 16  5 11 39.0000000  0  9G01G03G07G08G11G17G22G28G30          0.000311750
  20198549.273 7 106144090.956 7  82709683.79649  20198561.34449
  23539854.477 4 123703015.680 4                
  20970217.578 6 110199235.275 6  85869556.36449  20970225.82449
  23094237.938 5 121361031.365 5                
  21174877.586 6 111274732.711 6  86707605.35148  21174884.98048
  24209655.445 4 127222573.903 4                
  22774630.047 5 119681487.104 5  93258321.33848  22774637.10948
  23876972.680 5 125474546.483 5                
  21775635.891 6 114431735.890 6  89167612.78149  21775645.66049
 20  5 16  5 11 40.0000000  0  9G01G03G07G08G11G17G22G28G30          0.000311878
  20198677.758 7 106144766.140 7  82710209.90949  20198688.59449
  23539372.344 4 123700481.944 4                
  20970447.875 6 110200444.249 6  85870498.42249  20970455.55949
  23094632.594 5 121363105.330 5                
  21175285.391 6 111276875.773 6  86709275.26448  21175292.80948
  24209416.055 4 127221315.551 4                
  22774369.664 6 119680119.483 6  93257255.66448  22774376.30548
  23876533.406 5 125472240.143 5                
  21775488.906 6 114430963.366 6  89167010.81149  21775499.05549
 20  5 16  5 11 41.0000000  0  9G01G03G07G08G11G17G22G28G30          0.000312008
  20198806.227 7 106145441.534 7  82710736.18849  20198816.66049
  23538890.336 4 123697947.817 4                
  20970677.484 6 110201653.343 6  85871440.56849  20970685.84049
  23095027.258 5 121365178.780 5                
  21175693.328 6 111279018.633 6  86710945.02048  21175700.94948
  24209176.477 4 127220056.813 4                
  22774109.531 6 119678751.748 6  93256189.89048  22774115.98848
  23876094.898 5 125469933.192 5                
  21775341.797 6 114430190.978 6  89166408.95149  21775352.13349
 20  5 16  5 11 42.0000000  0  9G01G03G07G08G11G17G22G28G30          0.000312136
  20198934.883 7 106146116.980 7  82711262.51049  20198945.62549
  23538408.289 4 123695413.124 4  96385897.24258  23538421.05548
  20970908.055 6 110202862.473 6  85872382.73749  20970915.71549
  23095421.430 5 121367251.635 5  94571935.55859  23095432.94549
  21176101.016 6 111281161.210 6  86712614.56048  21176108.86748
  24208936.953 4 127218797.661 4  99131582.61158  24208945.83248
  22773849.094 6 119677383.808 6  93255123.95848  22773856.10948
  23875656.047 5 125467625.567 5  97766848.81957  23875663.22747
  21775195.031 6 114429418.600 6  89165807.09749  21775205.00449
 20  5 16  5 11 43.0000000  0  9G01G03G07G08G11G17G22G28G30          0.000312263
  20199063.234 7 106146792.790 7  82711789.11549  20199074.10549
  23537924.984 4 123692878.223 4  96383921.99448  23537938.65648
  20971137.648 6 110204071.901 6  85873325.14549  20971145.73849
  23095816.125 5 121369324.140 5  94573550.49049  23095827.55149
  21176508.633 6 111283303.742 6  86714284.06348  21176516.09848
  24208696.719 4 127217538.296 4  99130601.28748  24208706.17648
  22773588.711 6 119676015.850 6  93254058.01548  22773595.61748
  23875216.305 5 125465317.555 5  97765050.35947  23875224.03547
  21775047.680 6 114428646.540 6  89165205.49049  21775058.23449
 20  5 16  5 11 44.0000000  0  9G01G03G07G08G11G17G22G28G30          0.000312389
  20199192.148 7 106147468.698 7  82712315.79649  20199202.75049
  23537443.328 4 123690342.787 4  96381946.33748  23537456.27348
  20971368.328 6 110205281.396 6  85874267.60449  20971375.72749
  23096211.086 5 121371396.015 5  94575164.93849  23096221.37549
  21176916.344 6 111285446.028 6  86715953.37848  21176923.94948
  24208457.063 4 127216278.524 4  99129619.65348  24208466.44948
  22773327.867 6 119674647.752 6  93252991.95748  22773335.13748
  23874777.109 5 125463008.871 5  97763251.39447  23874784.87147
  21774901.227 6 114427874.517 6  89164603.91449  21774911.35249
 20  5 16  5 11 45.0000000  0  9G01G03G07G08G11G17G22G28G30          0.000312517
  20199320.961 7 106148144.822 7  82712842.64749  20199331.28149
  23536960.461 4 123687806.958 4  96379970.36748  23536973.65248
  20971598.398 6 110206491.071 6  85875210.21349  20971606.37949
  23096605.203 5 121373467.410 5  94576779.00948  23096615.93448
  21177323.859 6 111287588.137 6  86717622.55348  21177331.56648
  24208217.289 4 127215018.422 4  99128637.75948  24208226.34848
  22773067.641 6 119673279.546 6  93251925.82748  22773074.91048
  23874337.844 5 125460699.715 5  97761452.05547  23874344.91447
  21774753.797 6 114427102.671 6  89164002.47249  21774764.04749
 20  5 16  5 11 46.0000000  0  9G01G03G07G08G11G17G22G28G30          0.000312645
  20199449.391 7 106148821.268 7  82713369.74649  20199460.17649
  23536478.398 4 123685270.887 4  96377994.20748  23536491.02748
  20971828.891 6 110207701.014 6  85876153.02249  20971836.91449
  23096998.852 5 121375538.449 5  94578392.81149  23097009.50449
  21177731.422 6 111289730.213 6  86719291.69748  21177739.18048
  24207977.414 4 127213758.130 4  99127655.71748  24207986.54348
  22772807.695 6 119671911.369 6  93250859.72048  22772814.68048
  23873898.570 5 125458390.104 5  97759652.36147  23873905.61747
  21774607.102 6 114426331.099 6  89163401.24349  21774617.71549
 20  5 16  5 11 47.0000000  0  9G01G03G07G08G11G17G22G28G30          0.000312771
  20199578.094 7 106149498.068 7  82713897.12549  20199588.71949
  23535995.641 4 123682734.502 4  96376017.80948  23536008.32848
  20972058.758 6 110208911.261 6  85877096.07049  20972066.51249
  23097393.398 5 121377609.136 5  94580006.32949  23097404.14849
  21178139.102 6 111291872.245 6  86720960.81248  21178146.68448
  24207737.539 4 127212497.646 4  99126673.52348  24207746.57448
  22772547.000 6 119670543.207 6  93249793.62248  22772554.18048
  23873458.461 5 125456080.083 5  97757852.34947  23873466.18047
  21774460.258 6 114425559.800 6  89162800.23449  21774470.25849
 20  5 16  5 11 48.0000000  0  9G01G03G07G08G11G17G22G28G30          0.000312897
  20199707.281 7 106150175.229 7  82714424.78249  20199717.75849
  23535512.898 4 123680197.901 4  96374041.23548  23535525.47348
  20972289.227 6 110210121.859 6  85878039.39549  20972297.16849
  23097786.711 5 121379679.474 5  94581619.57549  23097797.71549
  21178546.625 6 111294014.257 6  86722629.91248  21178554.14148
  24207497.453 4 127211236.983 4  99125691.18848  24207506.83648
  22772287.008 6 119669175.159 6  93248727.61148  22772294.32048
  23873019.250 5 125453769.691 5  97756052.04247  23873026.34447
  21774313.938 6 114424788.831 6  89162199.47749  21774323.79749
 20  5 16  5 11 49.0000000  0  9G01G03G07G08G11G17G22G28G30          0.000313025
  20199835.883 7 106150852.857 7  82714952.80449  20199846.32449
  23535029.914 4 123677661.175 4  96372064.56848  23535043.04348
  20972519.477 6 110211332.859 6  85878983.03149  20972527.67249
  23098180.969 5 121381749.563 5  94583232.63049  23098191.75449
  21178954.523 6 111296156.371 6  86724299.08748  21178962.15648
  24207258.359 4 127209976.269 4  99124708.81048  24207267.23448
  22772026.000 6 119667807.209 6  93247661.67848  22772033.50448
  23872579.133 5 125451459.015 5  97754251.51447  23872586.88747
  21774167.047 6 114424018.281 6  89161599.05249  21774177.36749
 20  5 16  5 11 50.0000000  0  9G01G03G07G08G11G17G22G28G30          0.000313150
  20199965.117 7 106151531.010 7  82715481.23649  20199975.54749
  23534547.289 4 123675124.348 4  96370087.82748  23534560.12148
  20972750.227 6 110212544.351 6  85879927.05449  20972758.09849
  23098574.898 5 121383819.451 5  94584845.52749  23098585.53949
  21179362.172 6 111298298.642 6  86725968.38848  21179369.50448
  24207018.297 4 127208715.524 4  99123726.41248  24207027.29348
  22771766.250 6 119666439.521 6  93246595.95048  22771773.47348
  23872139.680 5 125449148.122 5  97752450.82347  23872146.63747
  21774020.422 6 114423248.179 6  89160998.97249  21774030.44949
 20  5 16  5 11 51.0000000  0  9G01G03G07G08G11G17G22G28G30          0.000313276
  20200094.211 7 106152209.778 7  82716010.14549  20200105.03949
  23534064.969 4 123672587.561 4  96368111.11248  23534077.46948
  20972980.984 6 110213756.417 6  85880871.51949  20972988.81649
  23098968.453 5 121385889.291 5  94586458.38649  23098979.17649
  21179769.828 6 111300441.165 6  86727637.88948  21179777.57048
  24206778.008 4 127207454.899 4  99122744.10648  24206787.33248
  22771505.883 6 119665072.171 6  93245530.48248  22771513.27348
  23871699.820 5 125446837.122 5  97750650.04646  23871707.16446
  21773873.969 6 114422478.690 6  89160399.36549  21773884.37949
 20  5 16  5 11 52.0000000  0  9G01G03G07G08G11G17G22G28G30          0.000313402
  20200223.531 7 106152889.010 7  82716539.41149  20200234.05549
  23533581.242 4 123670050.599 4  96366134.26748  23533594.80148
  20973211.641 6 110214968.885 6  85881816.29549  20973219.51649
  23099362.313 5 121387958.886 5  94588071.06349  23099373.41849
  21180177.719 6 111302583.734 6  86729307.42148  21180185.07048
  24206538.570 4 127206194.174 4  99121761.72948  24206547.67248
  22771245.797 5 119663704.934 5  93244465.10448  22771252.87948
  23871259.922 5 125444525.805 5  97748849.02046  23871267.14146
  21773727.719 6 114421709.575 6  89159800.05849  21773738.01249
 20  5 16  5 11 53.0000000  0  9G01G03G07G08G11G17G22G28G30          0.000313528
  20200353.031 7 106153568.964 7  82717069.25149  20200363.64149
  23533099.188 4 123667513.749 4  96364157.50348  23533112.04748
  20973442.531 6 110216182.053 6  85882761.62249  20973450.39149
  23099756.414 5 121390028.539 5  94589683.77949  23099767.53149
  21180585.273 6 111304726.669 6  86730977.24448  21180592.69948
  24206298.594 4 127204933.674 4  99120779.52748  24206307.45748
  22770985.578 5 119662338.137 5  93243400.06848  22770993.12948
  23870819.750 5 125442214.473 5  97747047.98146  23870827.54346
  21773582.094 6 114420941.124 6  89159201.25849  21773591.40649
 20  5 16  5 11 54.0000000  0  9G01G03G07G08G11G17G22G28G30          0.000313656
  20200482.492 7 106154249.708 7  82717599.70149  20200493.29349
  23532616.297 5 123664977.145 5  96362180.93048  23532629.48448
  20973673.375 6 110217395.996 6  85883707.55449  20973681.43449
  23100150.242 5 121392098.288 5  94591296.56949  23100161.48449
  21180993.539 6 111306870.034 6  86732647.40048  21181001.13748
  24206058.016 4 127203673.436 4  99119797.52348  24206067.78948
  22770725.820 5 119660971.848 5  93242335.43148  22770733.03548
  23870380.391 5 125439903.140 5  97745246.94246  23870387.34046
  21773435.320 6 114420173.449 6  89158603.06849  21773445.28949
 20  5 16  5 11 55.0000000  0  9G01G03G07G08G11G17G22G28G30          0.000313782
  20200612.055 7 106154931.183 7  82718130.71949  20200623.23449
  23532133.703 4 123662440.574 4  96360204.37848  23532146.86748
  20973904.141 6 110218610.587 6  85884653.98349  20973912.22749
  23100543.492 5 121394168.035 5  94592909.35849  23100555.00449
  21181401.203 6 111309013.719 6  86734317.79648  21181408.71148
  24205818.609 4 127202413.396 4  99118815.67448  24205828.50048
  22770465.828 5 119659605.956 5  93241271.09947  22770472.93047
  23869940.586 5 125437591.860 5  97743445.94746  23869947.85246
  21773289.320 6 114419406.433 6  89158005.38949  21773299.46949
 20  5 16  5 11 56.0000000  0  9G01G03G07G08G11G17G22G28G30          0.000313908
  20200741.609 7 106155613.364 7  82718662.28849  20200752.58249
  23531650.625 4 123659904.190 4  96358227.97448  23531663.85548
  20974136.063 6 110219825.842 6  85885600.93649  20974144.07849
  23100937.641 5 121396237.808 5  94594522.16449  23100949.01649
  21181809.211 6 111311157.778 6  86735988.49048  21181816.71948
  24205579.016 3 127201153.498 3  99117833.93448  24205588.52348
  22770205.961 6 119658240.496 6  93240207.10747  22770213.32047
  23869500.781 5 125435280.547 5  97741644.92446  23869508.32046
  21773143.430 6 114418640.076 6  89157408.22949  21773153.68449
 20  5 16  5 11 57.0000000  0  9G01G03G07G08G11G17G22G28G30          0.000314034
  20200871.813 7 106156296.411 7  82719194.52749  20200882.56649
  23531168.180 4 123657368.007 4  96356251.73148  23531181.33248
  20974367.453 6 110221041.915 6  85886548.52849  20974375.34449
  23101331.508 5 121398307.726 5  94596135.09149  23101342.95749
  21182217.711 6 111313302.269 6  86737659.51948  21182225.18048
  24205339.375 3 127199893.946 3  99116852.46748  24205348.77748
  22769946.102 6 119656875.575 6  93239143.53247  22769953.36747
  23869060.695 5 125432969.301 5  97739843.94246  23869067.84846
  21772998.016 6 114417874.523 6  89156811.69349  21773007.92249
 20  5 16  5 11 58.0000000  0  9G01G03G07G08G11G17G22G28G30          0.000314161
  20201001.953 7 106156980.329 7  82719727.45249  20201012.60949
  23530685.758 5 123654832.133 5  96354275.73148  23530698.78548
  20974598.727 6 110222258.846 6  85887496.78449  20974606.58649
  23101725.625 5 121400377.840 5  94597748.16749  23101736.85549
  21182625.328 6 111315447.288 6  86739330.95848  21182633.06648
  24205099.883 4 127198634.748 4  99115871.28048  24205109.23048
  22769686.672 6 119655511.257 6  93238080.42848  22769694.04748
  23868621.023 5 125430658.203 5  97738043.08746  23868628.00046
  21772852.445 6 114417109.835 6  89156215.83749  21772862.34849
 20  5 16  5 11 59.0000000  0  9G01G03G07G08G11G17G22G28G30          0.000314287
  20201132.305 7 106157665.230 7  82720261.14449  20201142.71549
  23530203.031 4 123652296.603 4  96352299.99648  23530216.09448
  20974830.422 6 110223476.699 6  85888445.76249  20974838.52049
  23102119.008 5 121402448.183 5  94599361.41849  23102130.58249
  21183033.430 6 111317592.912 6  86741002.87548  21183041.27348
  24204860.469 4 127197376.026 4  99114890.46148  24204869.41848
  22769427.102 5 119654147.593 5  93237017.83748  22769434.49648
  23868181.727 5 125428347.355 5  97736242.42946  23868188.91446
  21772707.109 6 114416346.026 6  89155620.65949  21772717.24249
 20  5 16  5 12  0.0000000  0  9G01G03G07G08G11G17G22G28G30          0.000314413
  20201262.945 7 106158350.938 7  82720795.45549  20201273.88749
  23529720.859 5 123649761.287 5  96350324.42948  23529733.20748
  20975062.516 6 110224695.322 6  85889395.33649  20975070.27049
  23102513.117 5 121404518.672 5  94600974.77949  23102524.82449
  21183442.258 6 111319738.960 6  86742675.11848  21183449.33648
  24204621.227 4 127196117.513 4  99113909.79948  24204630.01648
  22769167.672 6 119652784.431 6  93235955.62848  22769175.10248
  23867740.992 5 125426036.567 5  97734441.81547  23867748.60947
  21772561.641 6 114415583.022 6  89155026.10549  21772572.11749
 20  5 16  5 12  1.0000000  0  9G01G03G07G08G11G17G22G28G30          0.000314541
  20201393.359 7 106159037.582 7  82721330.50349  20201404.13749
  23529239.063 5 123647226.330 5  96348349.13748  23529251.20348
  20975294.414 6 110225914.853 6  85890345.61149  20975302.45349
  23102907.273 5 121406589.376 5  94602588.31349  23102918.89149
  21183850.742 6 111321885.573 6  86744347.80148  21183858.01248
  24204381.250 4 127194859.479 4  99112929.51648  24204390.72748
  22768908.750 6 119651421.926 6  93234893.94148  22768915.27348
  23867301.766 5 125423725.958 5  97732641.34846  23867308.87546
  21772416.656 6 114414820.885 6  89154432.23349  21772427.13349
 20  5 16  5 12  2.0000000  0  9G01G03G07G08G11G17G22G28G30          0.000314669
  20201524.359 7 106159725.084 7  82721866.22249  20201534.89549
  23528755.742 4 123644691.596 4  96346374.02348  23528768.92648
  20975526.531 6 110227135.181 6  85891296.51949  20975534.77349
  23103301.305 5 121408660.260 5  94604201.98549  23103312.85549
  21184259.008 6 111324032.664 6  86746020.86348  21184266.67248
  24204141.477 4 127193601.697 4  99111949.42948  24204151.41048
  22768649.547 6 119650059.973 6  93233832.67948  22768656.39148
  23866861.836 5 125421415.444 5  97730840.95046  23866869.30946
  21772272.320 6 114414059.550 6  89153838.99049  21772282.17249
 20  5 16  5 12  3.0000000  0  9G01G03G07G08G11G17G22G28G30          0.000314795
  20201655.742 7 106160413.652 7  82722402.76849  20201666.05549
  23528273.688 5 123642157.377 5  96344399.31148  23528286.96148
  20975759.023 6 110228356.544 6  85892248.23149  20975767.34449
  23103695.602 5 121410731.525 5  94605815.96049  23103707.01649
  21184668.297 6 111326180.439 6  86747694.44748  21184675.37148
  24203903.039 3 127192344.510 3  99110969.80648  24203912.34048
  22768390.086 6 119648698.774 6  93232772.00248  22768397.37148
  23866422.172 5 125419105.278 5  97729040.81447  23866429.55147
  21772127.203 6 114413299.239 6  89153246.53749  21772137.08249
 20  5 16  5 12  4.0000000  0  9G01G03G07G08G11G17G22G28G30          0.000314922
  20201786.781 7 106161103.292 7  82722940.14849  20201797.50849
  23527791.227 4 123639623.570 4  96342424.92048  23527804.72348
  20975991.727 6 110229578.906 6  85893200.72049  20975999.30149
  23104089.953 5 121412803.153 5  94607430.21249  23104101.21949
  21185076.344 6 111328328.895 6  86749368.56848  21185084.31648
  24203663.805 4 127191087.802 4  99109990.55148  24203672.80948
  22768131.398 6 119647338.358 6  93231711.93548  22768138.43048
  23865982.539 5 125416795.422 5  97727240.90547  23865990.09447
  21771982.867 6 114412539.962 6  89152654.89149  21771992.69549
 20  5 16  5 12  5.0000000  0  9G01G03G07G08G11G17G22G28G30          0.000315050
  20201918.477 7 106161793.932 7  82723478.31249  20201928.93449
  23527309.625 4 123637090.144 4  96340450.82048  23527322.44948
  20976224.453 6 110230802.244 6  85894153.96749  20976232.45349
  23104484.711 5 121414875.077 5  94609044.69249  23104495.50849
  21185485.695 6 111330478.003 6  86751043.19448  21185492.96148
  24203424.555 4 127189831.682 4  99109011.75248  24203433.84048
  22767872.523 5 119645978.610 5  93230652.39448  22767879.92648
  23865543.398 5 125414485.837 5  97725441.22347  23865550.60947
  21771838.344 6 114411781.599 6  89152063.95849  21771848.55549
 20  5 16  5 12  6.0000000  0  9G01G03G07G08G11G17G22G28G30          0.000315178
  20202049.188 7 106162485.502 7  82724017.19649  20202060.60249
  23526827.156 4 123634557.112 4  96338477.03748  23526840.53548
  20976457.523 6 110232026.506 6  85895107.93749  20976465.45749
  23104878.742 5 121416947.231 5  94610659.35849  23104889.58249
  21185894.898 6 111332627.649 6  86752718.24848  21185902.25048
  24203184.977 4 127188575.859 4  99108033.18648  24203194.50048
  22767613.961 5 119644619.565 5  93229593.39448  22767621.22348
  23865104.344 5 125412176.360 5  97723641.63746  23865111.04746
  21771694.297 6 114411024.182 6  89151473.76349  21771704.25049
 20  5 16  5 12  7.0000000  0  9G01G03G07G08G11G17G22G28G30          0.000315308
  20202181.188 7 106163178.264 7  82724557.01349  20202191.96549
  23526345.273 4 123632024.606 4  96336503.65648  23526358.35548
  20976690.672 6 110233251.870 6  85896062.77149  20976698.25849
  23105272.875 5 121419019.855 5  94612274.38749  23105284.17249
  21186303.922 6 111334778.100 6  86754393.91848  21186311.51648
  24202946.813 3 127187320.709 3  99107055.14948  24202956.06348
  22767355.688 5 119643261.353 5  93228535.05248  22767362.94548
  23864664.625 5 125409867.422 5  97721842.47847  23864671.50047
  21771550.703 6 114410267.831 6  89150884.39649  21771560.45349
 20  5 16  5 12  8.0000000  0  9G01G03G07G08G11G17G22G28G30          0.000315435
  20202313.328 7 106163872.003 7  82725097.59049  20202323.81349
  23525863.539 4 123629492.521 4  96334530.61048  23525876.73448
  20976923.961 6 110234478.188 6  85897018.33649  20976932.03549
  23105667.969 5 121421092.776 5  94613889.64849  23105678.66449
  21186713.516 6 111336929.177 6  86756070.08748  21186720.92248
  24202707.922 4 127186065.988 4  99106077.44848  24202717.39848
  22767097.703 5 119641903.830 5  93227477.24448  22767104.19548
  23864225.641 5 125407558.731 5  97720043.50346  23864232.30546
  21771406.773 6 114409512.463 6  89150295.79649  21771416.94549
 20  5 16  5 12  9.0000000  0  9G01G03G07G08G11G17G22G28G30          0.000315565
  20202446.078 7 106164566.934 7  82725639.09049  20202456.13749
  23525381.148 4 123626961.006 4  96332558.00148  23525394.99248
  20977157.695 6 110235705.668 6  85897974.81649  20977165.13349
  23106062.039 5 121423166.216 5  94615505.31749  23106073.50449
  21187122.586 6 111339081.072 6  86757746.88348  21187130.61748
  24202469.109 4 127184811.937 4  99105100.27248  24202478.49248
  22766839.148 5 119640547.206 5  93226420.12948  22766846.39148
  23863786.508 5 125405250.428 5  97718244.82746  23863793.12146
  21771263.125 6 114408758.235 6  89149708.08849  21771273.21549
 20  5 16  5 12 10.0000000  0  9G01G03G07G08G11G17G22G28G30          0.000315693
  20202578.273 7 106165262.967 7  82726181.45549  20202589.08649
  23524900.406 4 123624429.976 4  96330585.77948  23524913.19948
  20977391.594 6 110236934.191 6  85898932.10949  20977399.18449
  23106457.031 5 121425240.018 5  94617121.26749  23106467.84849
  21187532.750 6 111341233.662 6  86759424.22448  21187540.34048
  24202230.875 4 127183558.499 4  99104123.56948  24202240.14148
  22766581.102 5 119639191.365 5  93225363.63848  22766588.00048
  23863347.188 5 125402942.478 5  97716446.41946  23863354.18046
  21771119.656 6 114408005.043 6  89149121.18649  21771129.81349
 20  5 16  5 12 11.0000000  0  9G01G03G07G08G11G17G22G28G30          0.000315823
  20202711.094 7 106165960.260 7  82726724.79749  20202721.80949
  23524418.820 4 123621899.619 4  96328614.07148  23524431.50048
  20977625.586 6 110238163.929 6  85899890.34049  20977633.24249
  23106852.000 5 121427314.423 5  94618737.68149  23106862.69549
  21187942.516 6 111343387.151 6  86761102.26948  21187949.62548
  24201992.516 4 127182305.737 4  99103147.39648  24202001.80148
  22766323.914 6 119637836.512 6  93224307.90648  22766330.30148
  23862907.258 5 125400635.072 5  97714648.44347  23862914.50047
  21770976.563 6 114407253.064 6  89148535.22549  21770986.80549
 20  5 16  5 12 12.0000000  0  9G01G03G07G08G11G17G22G28G30          0.000315952
  20202843.781 7 106166658.796 7  82727269.11349  20202854.60949
  23523937.734 4 123619369.904 4  96326642.86248  23523950.63348
  20977859.477 6 110239394.866 6  85900849.51249  20977867.53549
  23107246.492 5 121429389.341 5  94620354.49749  23107258.09849
  21188352.266 6 111345541.498 6  86762780.97948  21188359.50848
  24201753.773 4 127181053.739 4  99102171.81448  24201763.23448
  22766065.570 6 119636482.588 6  93223252.90247  22766072.90647
  23862468.594 5 125398328.136 5  97712850.83346  23862475.55146
  21770833.586 6 114406502.315 6  89147950.22949  21770844.07049
 20  5 16  5 12 13.0000000  0  9G01G03G07G08G11G17G22G28G30          0.000316082
  20202976.953 7 106167358.413 7  82727814.27249  20202987.66849
  23523455.453 4 123616840.643 4  96324672.01148  23523469.00048
  20978093.727 6 110240626.840 6  85901809.49449  20978101.89849
  23107640.938 5 121431464.641 5  94621971.61149  23107652.09849
  21188762.617 6 111347696.524 6  86764460.21848  21188770.07048
  24201516.352 4 127179802.229 4  99101196.60948  24201524.99648
  22765808.195 6 119635129.427 6  93222198.48747  22765814.76647
  23862029.336 5 125396021.561 5  97711053.49846  23862036.65246
  21770691.227 6 114405752.528 6  89147365.97349  21770701.03149
 20  5 16  5 12 14.0000000  0  9G01G03G07G08G11G17G22G28G30          0.000316214
  20203110.281 7 106168059.289 7  82728360.40749  20203121.13349
  23522974.289 4 123614312.066 4  96322701.69648  23522987.86748
  20978328.773 6 110241860.035 6  85902770.42349  20978337.00849
  23108036.734 5 121433540.494 5  94623589.16048  23108047.85948
  21189172.680 6 111349852.488 6  86766140.18848  21189179.90248
  24201277.664 4 127178551.515 4  99100222.02648  24201287.12148
  22765550.617 5 119633777.246 5  93221144.83947  22765557.61747
  23861591.305 5 125393715.492 5  97709256.56246  23861598.01646
  21770548.859 6 114405003.986 6  89146782.69349  21770559.06349
 20  5 16  5 12 15.0000000  0  9G01G03G07G08G11G17G22G28G30          0.000316343
  20203244.102 7 106168761.192 7  82728907.34749  20203254.49249
  23522493.508 4 123611783.911 4  96320731.70948  23522506.70748
  20978563.820 6 110243094.198 6  85903732.10449  20978571.32849
  23108431.508 5 121435616.705 5  94625206.98248  23108442.90248
  21189583.094 6 111352009.041 6  86767820.61948  21189590.80148
  24201040.125 4 127177301.231 4  99099247.77948  24201049.39548
  22765293.711 5 119632425.796 5  93220091.76347  22765300.44547
  23861152.266 5 125391409.681 5  97707459.83046  23861159.13346
  21770406.789 6 114404256.433 6  89146200.18649  21770416.44549
 20  5 16  5 12 16.0000000  0  9G01G03G07G08G11G17G22G28G30          0.000316475
  20203377.711 7 106169464.223 7  82729455.15849  20203388.28549
  23522012.945 4 123609256.319 4  96318762.16648  23522026.07448
  20978798.594 6 110244329.486 6  85904694.67249  20978806.22349
  23108826.758 5 121437693.323 5  94626825.12248  23108837.84848
  21189993.133 6 111354166.391 6  86769501.67648  21190001.06348
  24200802.266 4 127176051.564 4  99098274.01648  24200811.54748
  22765036.539 5 119631075.159 5  93219039.31647  22765043.24247
  23860713.523 5 125389104.265 5  97705663.40047  23860720.25047
  21770264.430 6 114403509.947 6  89145618.50749  21770274.51649
 20  5 16  5 12 17.0000000  0  9G01G03G07G08G11G17G22G28G30          0.000316607
  20203511.602 7 106170168.399 7  82730003.87049  20203522.00449
  23521531.688 5 123606729.229 5  96316793.00648  23521544.64148
  20979033.648 6 110245565.862 6  85905658.08249  20979041.80149
  23109221.828 5 121439770.361 5  94628443.59248  23109233.25048
  21190404.563 6 111356324.493 6  86771183.30748  21190411.76648
  24200564.797 4 127174802.509 4  99097300.72948  24200573.76648
  22764780.000 6 119629725.405 6  93217987.55947  22764786.50447
  23860275.094 5 125386799.298 5  97703867.31646  23860281.83246
  21770122.695 6 114402764.584 6  89145037.70049  21770132.64849
 20  5 16  5 12 18.0000000  0  9G01G03G07G08G11G17G22G28G30          0.000316738
  20203645.867 7 106170873.843 7  82730553.56649  20203656.53949
  23521051.203 5 123604202.781 5  96314824.34948  23521064.37948
  20979269.414 6 110246803.476 6  85906622.45349  20979277.55549
  23109617.406 5 121441847.962 5  94630062.49748  23109628.34048
  21190815.148 6 111358483.474 6  86772865.63048  21190822.51648
  24200326.922 4 127173554.217 4  99096328.03448  24200336.21948
  22764522.773 5 119628376.598 5  93216936.54147  22764529.65647
  23859836.406 5 125384494.791 5  97702071.60646  23859843.24246
  21769980.922 6 114402020.398 6  89144457.81649  21769990.77749
 20  5 16  5 12 19.0000000  0  9G01G03G07G08G11G17G22G28G30          0.000316870
  20203780.492 7 106171580.411 7  82731104.13649  20203790.96949
  23520570.469 4 123601676.895 4  96312856.12448  23520583.57048
  20979505.188 6 110248042.162 6  85907587.66649  20979513.05149
  23110012.250 5 121443926.037 5  94631681.77648  23110023.92648
  21191226.188 6 111360643.223 6  86774548.55048  21191233.57048
  24200089.469 4 127172306.535 4  99095355.82048  24200098.80548
  22764266.492 5 119627028.632 5  93215886.17647  22764273.22347
  23859398.125 5 125382190.696 5  97700276.21246  23859404.55146
  21769839.828 6 114401277.333 6  89143878.80549  21769849.32049
 20  5 16  5 12 20.0000000  0  9G01G03G07G08G11G17G22G28G30          0.000317001
  20203914.859 7 106172288.135 7  82731655.61249  20203925.85549
  23520090.000 4 123599151.564 4  96310888.33948  23520103.07848
  20979740.813 6 110249281.943 6  85908553.72949  20979748.96549
  23110408.086 5 121446004.519 5  94633301.37548  23110419.10248
  21191637.414 6 111362803.754 6  86776232.08148  21191644.50048
  24199852.016 4 127171059.421 4  99094384.04648  24199861.64548
  22764010.336 5 119625681.505 5  93214836.47247  22764016.64147
  23858959.930 5 125379886.998 5  97698481.11946  23858966.63346
  21769698.648 6 114400535.360 6  89143300.64449  21769708.35949
 20  5 16  5 12 21.0000000  0  9G01G03G07G08G11G17G22G28G30          0.000317135
  20204049.938 7 106172997.095 7  82732208.05149  20204060.56349
  23519609.375 4 123596626.862 4  96308921.03848  23519622.59848
  20979977.375 6 110250522.924 6  85909520.72249  20979985.09449
  23110803.695 5 121448083.569 5  94634921.41348  23110814.89148
  21192048.742 6 111364965.126 6  86777916.26748  21192055.86348
  24199614.773 4 127169812.999 4  99093412.81248  24199624.12948
  22763754.453 5 119624335.313 5  93213787.48647  22763760.72347
  23858521.125 5 125377583.809 5  97696686.42646  23858528.20346
  21769557.094 6 114399794.558 6  89142723.39649  21769567.43849
 20  5 16  5 12 22.0000000  0  9G01G03G07G08G11G17G22G28G30          0.000317266
  20204185.531 7 106173707.352 7  82732761.49549  20204195.82849
  23519128.891 4 123594102.828 4  96306954.26348  23519142.02048
  20980213.617 6 110251765.148 6  85910488.68449  20980221.51649
  23111199.852 5 121450163.201 5  94636541.90348  23111210.71548
  21192459.633 6 111367127.431 6  86779601.18348  21192467.16048
  24199378.375 4 127168567.408 4  99092442.21948  24199387.69948
  22763498.102 5 119622990.107 5  93212739.27047  22763504.45747
  23858082.992 5 125375281.138 5  97694892.13046  23858089.90246
  21769416.844 6 114399055.016 6  89142147.12949  21769426.91849
 20  5 16  5 12 23.0000000  0  9G01G03G07G08G11G17G22G28G30          0.000317400
  20204320.453 7 106174418.883 7  82733315.93049  20204330.96149
  23518648.867 4 123591579.482 4  96304988.02248  23518662.29348
  20980450.164 6 110253008.609 6  85911457.61449  20980457.73849
  23111595.406 5 121452243.436 5  94638162.86248  23111606.62548
  21192871.430 6 111369290.613 6  86781286.77748  21192878.83248
  24199141.211 5 127167322.515 5  99091472.17448  24199150.23848
  22763242.500 5 119621645.895 5  93211691.83047  22763248.64547
  23857644.953 5 125372978.992 5  97693098.25347  23857651.72347
  21769276.477 6 114398316.700 6  89141571.81649  21769286.19949
 20  5 16  5 12 24.0000000  0  9G01G03G07G08G11G17G22G28G30          0.000317535
  20204456.156 7 106175131.672 7  82733871.35549  20204466.89149
  23518168.984 4 123589056.818 4  96303022.31348  23518182.14548
  20980687.242 6 110254253.309 6  85912427.50649  20980694.94149
  23111991.016 5 121454324.216 5  94639784.24548  23112002.47348
  21193283.516 6 111371454.700 6  86782973.07348  21193290.64148
  24198904.211 4 127166078.401 4  99090502.73448  24198913.65648
  22762986.672 6 119620302.652 6  93210645.15847  22762993.05947
  23857206.883 5 125370677.379 5  97691304.78447  23857213.93047
  21769136.141 6 114397579.587 6  89140997.44049  21769145.80549
 20  5 16  5 12 25.0000000  0  9G01G03G07G08G11G17G22G28G30          0.000317669
  20204592.164 7 106175845.646 7  82734427.69849  20204602.91849
  23517689.453 4 123586534.717 4  96301057.04248  23517702.09048
  20980924.469 6 110255499.095 6  85913398.25549  20980932.16049
  23112387.164 5 121456405.468 5  94641405.99848  23112399.09448
  21193695.414 6 111373619.566 6  86784659.97948  21193702.94548
  24198667.898 4 127164834.879 4  99089533.75948  24198676.85248
  22762731.273 6 119618960.264 6  93209599.13548  22762737.48048
  23856768.938 5 125368376.201 5  97689511.64746  23856775.97346
  21768995.922 6 114396843.634 6  89140423.96549  21769005.71949
 20  5 16  5 12 26.0000000  0  9G01G03G07G08G11G17G22G28G30          0.000317802
  20204727.938 7 106176560.820 7  82734984.97249  20204738.89849
  23517209.383 4 123584013.264 4  96299092.27348  23517222.53148
  20981161.734 6 110256746.089 6  85914369.93649  20981169.37149
  23112783.992 5 121458487.248 5  94643028.16748  23112794.96948
  21194107.266 6 111375785.269 6  86786347.54048  21194114.50048
  24198431.039 4 127163592.071 4  99088565.34148  24198440.47748
  22762476.117 6 119617618.822 6  93208553.85447  22762482.11747
  23856330.891 5 125366075.509 5  97687718.90946  23856337.79746
  21768856.031 6 114396108.822 6  89139851.38949  21768866.09849
 20  5 16  5 12 27.0000000  0  9G01G03G07G08G11G17G22G28G30          0.000317938
  20204864.391 7 106177277.209 7  82735543.19949  20204875.16449
  23516729.828 4 123581492.370 4  96297127.94648  23516742.52348
  20981398.969 6 110257994.214 6  85915342.50949  20981406.54349
  23113179.867 5 121460569.524 5  94644650.72148  23113191.50448
  21194519.625 6 111377951.827 6  86788035.77148  21194527.04348
  24198195.438 4 127162349.930 4  99087597.43848  24198204.30948
  22762220.781 5 119616278.292 5  93207509.28348  22762227.21948
  23855893.234 5 125363775.293 5  97685926.54046  23855900.47346
  21768716.750 6 114395375.180 6  89139279.71849  21768726.42649
 20  5 16  5 12 28.0000000  0  9G01G03G07G08G11G17G22G28G30          0.000318073
  20205000.953 7 106177994.789 7  82736102.35149  20205011.40249
  23516249.930 4 123578972.105 4  96295164.10348  23516262.99648
  20981636.891 6 110259243.509 6  85916315.99249  20981644.62149
  23113576.766 5 121462652.280 5  94646273.64948  23113587.27048
  21194932.344 6 111380119.183 6  86789724.61448  21194939.36348
  24197958.211 4 127161108.455 4  99086630.04948  24197967.73448
  22761966.086 5 119614938.628 5  93206465.38947  22761972.38747
  23855455.750 5 125361475.497 5  97684134.49546  23855462.91046
  21768576.766 6 114394642.661 6  89138708.92249  21768587.17249
 20  5 16  5 12 29.0000000  0  9G01G03G07G08G11G17G22G28G30          0.000318209
  20205137.922 7 106178713.517 7  82736662.40249  20205148.53949
  23515770.852 4 123576452.385 4  96293200.68748  23515783.62148
  20981875.047 6 110260493.907 6  85917290.33249  20981882.71949
  23113972.242 5 121464735.504 5  94647896.93748  23113983.90248
  21195345.148 6 111382287.300 6  86791414.05448  21195351.94948
  24197722.445 5 127159867.609 5  99085663.14948  24197731.72348
  22761711.305 5 119613599.839 5  93205422.17448  22761717.53148
  23855018.539 5 125359176.119 5  97682342.77346  23855025.27346
  21768437.734 6 114393911.285 6  89138139.01749  21768447.81649
 20  5 16  5 12 30.0000000  0  9G01G03G07G08G11G17G22G28G30          0.000318344
  20205274.422 7 106179433.467 7  82737223.40149  20205285.33249
  23515291.891 4 123573933.286 4  96291237.75548  23515304.14848
  20982112.664 6 110261745.505 6  85918265.60449  20982120.59849
  23114369.297 5 121466819.247 5  94649520.63048  23114380.50848
  21195757.539 6 111384456.271 6  86793104.16348  21195764.71548
  24197486.164 4 127158627.429 4  99084696.77848  24197495.49248
  22761456.594 5 119612261.958 5  93204379.68048  22761463.23448
  23854580.930 5 125356877.215 5  97680551.41046  23854588.08246
  21768298.945 6 114393181.047 6  89137569.99549  21768308.91449
 20  5 16  5 12 31.0000000  0  9G01G03G07G08G11G17G22G28G30          0.000318481
  20205412.016 7 106180154.646 7  82737785.36149  20205422.68849
  23514811.859 4 123571414.806 4  96289275.30548  23514824.89548
  20982351.414 6 110262998.280 6  85919241.79149  20982358.81649
  23114765.641 5 121468903.510 5  94651144.72648  23114777.07048
  21196171.070 6 111386626.093 6  86794794.92948  21196177.50848
  24197251.219 4 127157387.987 4  99083730.98648  24197260.03948
  22761202.328 5 119610925.026 5  93203337.91847  22761208.62147
  23854143.750 5 125354578.798 5  97678760.43546  23854151.02346
  21768160.422 6 114392452.009 6  89137001.91349  21768170.18849
 20  5 16  5 12 32.0000000  0  9G01G03G07G08G11G17G22G28G30          0.000318617
  20205549.375 7 106180877.024 7  82738348.25449  20205560.18449
  23514332.430 4 123568896.933 4  96287313.32748  23514345.78948
  20982590.305 6 110264252.203 6  85920218.87249  20982597.46549
  23115162.297 5 121470988.292 5  94652769.23048  23115173.84448
  21196583.602 6 111388796.742 6  86796486.34248  21196590.58248
  24197015.523 5 127156149.173 5  99082765.67648  24197024.03548
  22760948.156 5 119609588.959 5  93202296.82947  22760954.34047
  23853706.109 5 125352280.817 5  97676969.79846  23853713.34446
  21768021.383 6 114391724.134 6  89136434.74149  21768031.25849
 20  5 16  5 12 33.0000000  0  9G01G03G07G08G11G17G22G28G30          0.000318754
  20205687.359 7 106181600.715 7  82738912.16649  20205697.94549
  23513853.664 4 123566379.742 4  96285351.88348  23513866.71148
  20982828.680 6 110265507.421 6  85921196.96049  20982836.50449
  23115559.547 5 121473073.664 5  94654394.19048  23115570.75448
  21196996.805 6 111390968.307 6  86798178.46948  21197003.55948
  24196779.367 5 127154911.093 5  99081800.94748  24196788.58648
  22760693.891 5 119608253.939 5  93201256.55047  22760700.01647
  23853269.188 5 125349983.406 5  97675179.60846  23853276.06346
  21767883.438 6 114390997.495 6  89135868.52849  21767893.35949
 20  5 16  5 12 34.0000000  0  9G01G03G07G08G11G17G22G28G30          0.000318892
  20205825.023 7 106182325.716 7  82739477.09949  20205835.80549
  23513374.703 4 123563863.303 4  96283391.02248  23513387.76248
  20983067.906 6 110266763.884 6  85922176.01649  20983075.41049
  23115955.891 5 121475159.627 5  94656019.61348  23115967.65248
  21197409.945 6 111393140.796 6  86799871.32148  21197417.08248
  24196543.898 5 127153673.855 5  99080836.86448  24196552.75848
  22760440.328 5 119606919.919 5  93200217.05447  22760446.49247
  23852832.023 5 125347686.572 5  97673389.85746  23852838.85246
  21767745.641 6 114390272.122 6  89135303.30049  21767755.66449
 20  5 16  5 12 35.0000000  0  9G01G03G07G08G11G17G22G28G30          0.000319029
  20205963.602 7 106183051.990 7  82740043.02949  20205974.14149
  23512895.859 5 123561347.527 5  96281430.68148  23512909.38348
  20983307.227 6 110268021.569 6  85923156.03349  20983314.62549
  23116353.602 5 121477246.208 5  94657645.52148  23116364.75448
  21197823.953 6 111395314.203 6  86801564.88148  21197830.62548
  24196308.320 5 127152437.362 5  99079873.35648  24196317.57048
  22760186.445 5 119605586.891 5  93199178.32947  22760193.02747
  23852394.773 5 125345390.261 5  97671600.52746  23852402.14846
  21767607.773 6 114389548.003 6  89134739.04949  21767617.46149
 20  5 16  5 12 36.0000000  0  9G01G03G07G08G11G17G22G28G30          0.000319168
  20206101.656 7 106183779.287 7  82740609.75149  20206112.61749
  23512417.578 4 123558832.214 4  96279470.70048  23512430.87948
  20983546.656 6 110269280.289 6  85924136.85449  20983554.29749
  23116750.906 5 121479333.135 5  94659271.69648  23116761.36348
  21198238.031 6 111397488.278 6  86803258.96848  21198244.75048
  24196073.086 5 127151201.378 5  99078910.25048  24196082.01248
  22759933.336 6 119604254.596 6  93198140.17447  22759939.60247
  23851957.922 5 125343094.276 5  97669811.45547  23851965.13747
  21767470.008 6 114388824.852 6  89134175.55849  21767479.65249
 20  5 16  5 12 37.0000000  0  9G01G03G07G08G11G17G22G28G30          0.000319305
  20206240.547 7 106184508.022 7  82741177.59849  20206251.33649
  23511939.258 4 123556317.709 4  96277511.34548  23511952.18448
  20983786.539 6 110270540.351 6  85925118.71249  20983794.31349
  23117147.898 5 121481420.760 5  94660898.41448  23117158.71548
  21198651.383 6 111399663.375 6  86804953.84648  21198658.65648
  24195837.914 4 127149966.232 4  99077947.80448  24195847.12148
  22759679.672 6 119602923.431 6  93197102.90747  22759686.27047
  23851521.531 5 125340798.937 5  97668022.88346  23851528.20346
  21767333.234 6 114388103.083 6  89133613.13749  21767342.83249
 20  5 16  5 12 38.0000000  0  9G01G03G07G08G11G17G22G28G30          0.000319445
  20206379.453 7 106185237.999 7  82741746.41149  20206390.22749
  23511460.789 4 123553803.821 4  96275552.47848  23511473.56648
  20984026.586 6 110271801.649 6  85926101.54649  20984034.35249
  23117545.508 5 121483508.944 5  94662525.56848  23117556.17248
  21199065.930 6 111401839.352 6  86806649.41748  21199072.69948
  24195603.391 4 127148731.860 4  99076985.95948  24195612.25848
  22759426.820 6 119601593.228 6  93196066.38347  22759432.88347
  23851084.883 5 125338504.097 5  97666234.69646  23851091.68446
  21767195.742 6 114387382.525 6  89133051.66449  21767205.27049
 20  5 16  5 12 39.0000000  0  9G01G03G07G08G11G17G22G28G30          0.000319584
  20206518.648 7 106185969.125 7  82742316.12049  20206528.99249
  23510982.797 4 123551290.486 4  96273594.04048  23510995.24648
  20984266.883 6 110273064.021 6  85927085.20649  20984274.28549
  23117942.906 5 121485597.575 5  94664153.07248  23117953.58648
  21199479.938 6 111404016.080 6  86808345.56848  21199486.96948
  24195368.742 5 127147498.063 5  99076024.55648  24195377.53148
  22759173.289 5 119600263.855 5  93195030.50747  22759179.92247
  23850648.320 5 125336209.646 5  97664446.81346  23850654.93446
  21767058.656 6 114386663.035 6  89132491.02349  21767068.67649
 20  5 16  5 12 40.0000000  0  9G01G03G07G08G11G17G22G28G30          0.000319723
  20206657.500 7 106186701.450 7  82742886.76749  20206668.56649
  23510503.383 4 123548777.790 4  96271636.09748  23510517.58248
  20984507.609 6 110274327.569 6  85928069.79149  20984514.69149
  23118339.852 5 121487686.717 5  94665780.97048  23118351.39548
  21199894.484 6 111406193.644 6  86810042.36848  21199901.29748
  24195133.867 5 127146264.943 5  99075063.68548  24195143.12548
  22758920.641 5 119598935.399 5  93193995.35247  22758927.30947
  23850211.688 5 125333915.697 5  97662659.32346  23850218.43446
  21766921.828 6 114385944.715 6  89131931.29549  21766932.01249
 20  5 16  5 12 41.0000000  0  9G01G03G07G08G11G17G22G28G30          0.000319864
  20206797.695 7 106187434.849 7  82743458.24249  20206808.06649
  23510025.727 4 123546265.569 4  96269678.52248  23510038.95748
  20984747.945 6 110275592.161 6  85929055.18049  20984755.43449
  23118737.852 5 121489776.254 5  94667409.18348  23118748.74248
  21200308.859 6 111408371.922 6  86811739.72848  21200315.66848
  24194899.813 5 127145032.392 5  99074103.25148  24194908.23848
  22758667.711 6 119597607.727 6  93192960.81047  22758674.56347
  23849775.391 5 125331622.093 5  97660872.09946  23849782.18446
  21766785.820 6 114385227.434 6  89131372.37149  21766795.16849
 20  5 16  5 12 42.0000000  0  9G01G03G07G08G11G17G22G28G30          0.000320004
  20206937.320 7 106188169.557 7  82744030.74349  20206947.76649
  23509548.281 4 123543754.014 4  96267721.47048  23509561.00848
  20984988.477 6 110276857.997 6  85930041.54649  20984996.28149
  23119135.438 5 121491866.335 5  94669037.82348  23119146.40248
  21200723.383 6 111410551.109 6  86813437.79548  21200730.48448
  24194665.156 5 127143800.576 5  99073143.39548  24194673.81648
  22758415.461 6 119596281.037 6  93191927.02547  22758422.16447
  23849338.266 5 125329329.011 5  97659085.27246  23849345.57046
  21766649.445 6 114384511.385 6  89130814.40949  21766659.04349
 20  5 16  5 12 43.0000000  0  9G01G03G07G08G11G17G22G28G30          0.000320145
  20207077.094 7 106188905.339 7  82744604.08149  20207087.67649
  23509070.234 4 123541243.000 4  96265764.84248  23509083.32448
  20985229.633 6 110278124.897 6  85931028.74449  20985236.98849
  23119533.344 5 121493956.849 5  94670666.79648  23119544.13748
  21201138.633 6 111412731.004 6  86815136.41248  21201145.09048
  24194430.703 4 127142569.328 4  99072183.97848  24194439.94948
  22758163.203 5 119594955.180 5  93190893.89447  22758169.55947
  23848902.156 5 125327036.294 5  97657298.73747  23848909.18847
  21766512.938 6 114383796.414 6  89130257.28849  21766523.02049
 20  5 16  5 12 44.0000000  0  9G01G03G07G08G11G17G22G28G30          0.000320284
  20207217.172 7 106189642.329 7  82745178.35749  20207228.05149
  23508592.945 4 123538732.540 4  96263808.64248  23508605.41848
  20985471.125 6 110279392.895 6  85932016.79349  20985479.08649
  23119931.781 5 121496047.837 5  94672296.13248  23119942.30548
  21201553.109 6 111414911.696 6  86816835.65648  21201560.40248
  24194196.984 5 127141338.764 5  99071225.09548  24194205.53548
  22757911.000 5 119593630.181 5  93189861.43048  22757917.75048
  23848466.000 5 125324744.005 5  97655512.53346  23848472.95746
  21766377.031 6 114383082.565 6  89129701.04249  21766387.48049
 20  5 16  5 12 45.0000000  0  9G01G03G07G08G11G17G22G28G30          0.000320425
  20207357.859 7 106190380.458 7  82745753.52149  20207368.71149
  23508115.234 4 123536222.632 4  96261852.87548  23508127.74248
  20985712.930 6 110280662.045 6  85933005.73649  20985720.15649
  23120329.180 5 121498139.282 5  94673925.82748  23120340.21548
  21201968.148 6 111417093.193 6  86818535.52548  21201975.55148
  24193962.766 5 127140108.771 5  99070266.65848  24193971.65248
  22757659.648 5 119592306.018 5  93188829.61247  22757665.62547
  23848030.227 5 125322452.127 5  97653726.65747  23848037.27747
  21766241.922 6 114382369.815 6  89129145.65049  21766252.19549
 20  5 16  5 12 46.0000000  0  9G01G03G07G08G11G17G22G28G30          0.000320568
  20207498.539 7 106191119.668 7  82746329.53249  20207509.19149
  23507637.594 4 123533713.226 4  96259897.49848  23507650.45348
  20985954.289 6 110281932.248 6  85933995.50749  20985962.11349
  23120727.461 5 121500231.114 5  94675555.82348  23120738.45748
  21202383.664 6 111419275.375 6  86820235.92448  21202390.59048
  24193728.633 5 127138879.386 5  99069308.69448  24193737.64848
  22757407.797 5 119590982.703 5  93187798.45347  22757414.25047
  23847593.719 5 125320160.627 5  97651941.08346  23847601.89846
  21766106.375 6 114381658.128 6  89128591.08949  21766116.56649
 20  5 16  5 12 47.0000000  0  9G01G03G07G08G11G17G22G28G30          0.000320709
  20207639.359 7 106191860.054 7  82746906.45249  20207650.27349
  23507160.211 4 123531204.416 4  96257942.58748  23507173.04348
  20986196.328 6 110283203.545 6  85934986.12649  20986203.96549
  23121125.594 5 121502323.405 5  94677186.18348  23121136.56648
  21202798.727 6 111421458.342 6  86821936.93648  21202806.14548
  24193494.266 5 127137650.612 5  99068351.21148  24193503.64148
  22757155.898 5 119589660.216 5  93186767.93948  22757162.06348
  23847158.070 5 125317869.517 5  97650155.80046  23847164.99246
  21765971.336 6 114380947.542 6  89128037.38349  21765981.07049
 20  5 16  5 12 48.0000000  0  9G01G03G07G08G11G17G22G28G30          0.000320850
  20207780.633 7 106192601.559 7  82747484.25349  20207791.48849
  23506682.633 4 123528696.077 4  96255988.03848  23506695.47748
  20986438.141 6 110284475.937 6  85935977.59549  20986446.06349
  23121523.867 5 121504416.099 5  94678816.84748  23121534.32448
  21203214.578 6 111423642.058 6  86823638.53248  21203221.67248
  24193260.563 5 127136422.401 5  99067394.17048  24193269.82848
  22756904.250 6 119588338.579 6  93185738.09448  22756910.80148
  23846721.727 5 125315578.825 5  97648370.84746  23846729.32846
  21765836.109 6 114380238.021 6  89127484.51349  21765846.04349
 20  5 16  5 12 49.0000000  0  9G01G03G07G08G11G17G22G28G30          0.000320993
  20207921.992 7 106193344.345 7  82748063.04449  20207932.25049
  23506205.469 4 123526188.463 4  96254034.06048  23506218.30948
  20986681.008 6 110285749.544 6  85936970.01749  20986688.46949
  23121921.789 5 121506509.421 5  94680448.00548  23121932.89548
  21203630.438 6 111425826.677 6  86825340.83248  21203637.44148
  24193027.789 4 127135194.987 4  99066437.74348  24193036.30548
  22756653.000 5 119587017.928 5  93184709.01548  22756659.25048
  23846286.180 5 125313288.616 5  97646586.26846  23846293.16846
  21765701.203 6 114379529.752 6  89126932.60949  21765711.21149
 20  5 16  5 12 50.0000000  0  9G01G03G07G08G11G17G22G28G30          0.000321136
  20208063.352 7 106194088.337 7  82748642.78049  20208074.68449
  23505728.273 4 123523681.441 4  96252080.53848  23505741.28148
  20986923.258 6 110287024.336 6  85937963.36349  20986930.97349
  23122320.188 5 121508603.228 5  94682079.54848  23122331.24248
  21204046.063 6 111428012.123 6  86827043.77148  21204053.64148
  24192794.047 4 127133968.275 4  99065481.87348  24192803.21548
  22756401.422 5 119585698.182 5  93183680.64647  22756408.60247
  23845850.656 5 125310998.897 5  97644802.07946  23845857.55946
  21765566.695 6 114378822.648 6  89126381.61949  21765576.91049
 20  5 16  5 12 51.0000000  0  9G01G03G07G08G11G17G22G28G30          0.000321280
  20208205.320 7 106194833.447 7  82749223.38949  20208216.13749
  23505251.195 4 123521174.972 4  96250127.44948  23505264.31348
  20987166.055 6 110288300.222 6  85938957.55249  20987173.70349
  23122719.344 5 121510697.449 5  94683711.41048  23122729.66848
  21204462.398 6 111430198.327 6  86828747.31348  21204469.11748
  24192560.531 4 127132742.131 4  99064526.43848  24192570.01248
  22756150.391 5 119584379.275 5  93182652.93347  22756157.07047
  23845415.156 5 125308709.601 5  97643018.20046  23845422.24246
  21765432.422 6 114378116.609 6  89125831.46349  21765442.61749
 20  5 16  5 12 52.0000000  0  9G01G03G07G08G11G17G22G28G30          0.000321423
  20208347.320 7 106195579.697 7  82749804.87749  20208357.89549
  23504774.648 4 123518669.020 4  96248174.76248  23504787.43048
  20987409.172 6 110289577.174 6  85939952.58249  20987416.65649
  23123117.656 5 121512792.135 5  94685343.63448  23123128.28548
  21204878.172 6 111432385.271 6  86830451.43048  21204885.18048
  24192327.367 4 127131516.558 4  99063571.45248  24192336.62148
  22755900.016 6 119583061.177 6  93181625.84147  22755906.48447
  23844979.195 5 125306420.627 5  97641234.58146  23844986.92646
  21765298.563 6 114377411.659 6  89125282.14949  21765308.62549
 20  5 16  5 12 53.0000000  0  9G01G03G07G08G11G17G22G28G30          0.000321566
  20208489.438 7 106196327.222 7  82750387.37049  20208499.96949
  23504297.375 4 123516163.765 4  96246222.61948  23504310.73448
  20987652.234 6 110290855.371 6  85940948.58049  20987659.99649
  23123516.492 5 121514887.412 5  94686976.31348  23123526.92648
  21205294.805 6 111434573.131 6  86832156.25448  21205301.37948
  24192094.219 4 127130291.763 4  99062617.06548  24192103.49648
  22755649.484 6 119581744.101 6  93180599.54947  22755655.74647
  23844543.797 5 125304132.224 5  97639451.41746  23844551.07046
  21765163.938 6 114376707.961 6  89124733.81849  21765174.21149
 20  5 16  5 12 54.0000000  0  9G01G03G07G08G11G17G22G28G30          0.000321711
  20208631.898 7 106197075.924 7  82750970.77449  20208642.54749
  23503820.703 4 123513659.061 4  96244270.90148  23503834.09848
  20987895.883 6 110292134.721 6  85941945.47349  20987903.61349
  23123915.398 5 121516983.134 5  94688609.33148  23123925.89848
  21205711.109 6 111436761.759 6  86833861.67548  21205718.36748
  24191861.852 4 127129067.589 4  99061663.16148  24191870.58248
  22755398.742 6 119580427.882 6  93179573.91847  22755404.90647
  23844108.211 5 125301844.230 5  97637668.56646  23844115.40646
  21765030.734 6 114376005.387 6  89124186.35249  21765041.05149
 20  5 16  5 12 55.0000000  0  9G01G03G07G08G11G17G22G28G30          0.000321854
  20208774.648 7 106197825.615 7  82751554.94449  20208785.46949
  23503344.281 4 123511154.791 4  96242319.52548  23503357.50048
  20988139.273 6 110293414.989 6  85942943.08949  20988147.52749
  23124314.141 5 121519079.106 5  94690242.55748  23124324.91848
  21206127.961 6 111438951.005 6  86835567.58048  21206135.07848
  24191629.008 4 127127843.908 4  99060709.64448  24191638.03548
  22755148.617 6 119579112.362 6  93178548.84647  22755154.70747
  23843673.258 5 125299556.505 5  97635885.92046  23843680.64846
  21764897.227 6 114375303.745 6  89123639.61649  21764907.32049
 20  5 16  5 12 56.0000000  0  9G01G03G07G08G11G17G22G28G30          0.000321999
  20208917.469 7 106198576.402 7  82752139.97149  20208928.04349
  23502868.508 4 123508650.970 4  96240368.49748  23502881.19148
  20988383.234 6 110294696.352 6  85943941.55349  20988391.37549
  23124712.750 5 121521175.554 5  94691876.15148  23124723.48048
  21206544.477 6 111441140.996 6  86837274.06648  21206551.91448
  24191396.180 4 127126620.771 4  99059756.55048  24191404.93048
  22754898.609 6 119577797.698 6  93177524.42947  22754904.79347
  23843237.820 5 125297269.146 5  97634103.55746  23843244.75446
  21764763.531 6 114374603.177 6  89123093.71749  21764773.80149
 20  5 16  5 12 57.0000000  0  9G01G03G07G08G11G17G22G28G30          0.000322144
  20209060.695 7 106199328.360 7  82752725.91449  20209071.61749
  23502391.859 4 123506147.813 4  96238417.98648  23502404.79348
  20988627.102 6 110295978.811 6  85944940.86849  20988635.17649
  23125111.734 5 121523272.470 5  94693510.11448  23125122.52748
  21206961.695 6 111443331.769 6  86838981.16248  21206968.35248
  24191163.914 4 127125398.300 4  99058803.97248  24191173.04748
  22754648.188 6 119576483.852 6  93176500.65547  22754654.83247
  23842802.656 5 125294982.218 5  97632321.53746  23842809.77046
  21764630.719 6 114373903.702 6  89122548.67049  21764640.65649
 20  5 16  5 12 58.0000000  0  9G01G03G07G08G11G17G22G28G30          0.000322289
  20209204.000 7 106200081.450 7  82753312.73649  20209214.58649
  23501915.555 4 123503645.109 4  96236467.82948  23501928.30548
  20988871.352 6 110297262.364 6  85945941.03949  20988879.28949
  23125510.922 5 121525369.812 5  94695144.40148  23125522.05548
  21207378.992 6 111445523.280 6  86840688.83348  21207385.71548
  24190930.867 4 127124176.404 4  99057851.84848  24190939.84848
  22754398.789 5 119575170.891 5  93175477.57247  22754405.18447
  23842367.414 5 125292695.662 5  97630539.81147  23842374.57047
  21764497.711 6 114373205.331 6  89122004.48349  21764507.98049
 20  5 16  5 12 59.0000000  0  9G01G03G07G08G11G17G22G28G30          0.000322435
  20209347.391 7 106200835.702 7  82753900.46849  20209358.05549
  23501439.664 4 123501143.023 4  96234518.15948  23501452.43848
  20989115.664 6 110298547.005 6  85946942.05249  20989123.69149
  23125910.219 5 121527467.597 5  94696779.03748  23125920.99248
  21207795.742 6 111447715.595 6  86842397.12948  21207802.87948
  24190698.344 4 127122955.148 4  99056900.22148  24190707.66048
  22754148.883 5 119573858.762 5  93174455.13547  22754155.07847
  23841932.922 4 125290409.531 4  97628758.41646  23841939.73446
  21764365.016 6 114372508.088 6  89121461.17749  21764375.00849
 20  5 16  5 13  0.0000000  0  9G01G03G07G08G11G17G22G28G30          0.000322580
  20209491.070 7 106201591.020 7  82754489.02649  20209502.17649
  23500963.281 4 123498641.382 4  96232568.82948  23500976.33648
  20989360.414 6 110299832.719 6  85947943.90649  20989368.42249
  23126309.430 5 121529565.762 5  94698413.96548  23126320.06648
  21208213.258 6 111449908.589 6  86844105.95548  21208219.96548
  24190465.539 4 127121734.429 4  99055949.00848  24190474.81348
  22753899.352 5 119572547.408 5  93173433.29847  22753905.56647
  23841497.109 5 125288123.732 5  97626977.27846  23841504.60946
  21764232.742 6 114371811.831 6  89120918.64149  21764242.82849
 20  5 16  5 13  1.0000000  0  9G01G03G07G08G11G17G22G28G30          0.000322727
  20209635.141 7 106202347.528 7  82755078.50949  20209645.94149
  23500487.500 4 123496140.344 4  96230619.97348  23500499.99248
  20989605.180 6 110301119.543 6  85948946.62649  20989613.23049
  23126708.828 5 121531664.429 5  94700049.28948  23126719.28948
  21208630.711 6 111452102.364 6  86845815.38548  21208637.88348
  24190234.352 4 127120514.336 4  99054998.28448  24190243.44148
  22753650.234 5 119571236.950 5  93172412.16547  22753656.12947
  23841062.234 5 125285838.377 5  97625196.48846  23841069.55546
  21764100.203 6 114371116.746 6  89120377.01749  21764110.38749
 20  5 16  5 13  2.0000000  0  9G01G03G07G08G11G17G22G28G30          0.000322872
  20209779.328 7 106203105.282 7  82755668.96849  20209790.23049
  23500012.031 5 123493639.931 5  96228671.60048  23500024.48848
  20989850.617 6 110302407.581 6  85949950.29149  20989858.43049
  23127108.656 5 121533763.657 5  94701685.05548  23127119.09448
  21209048.273 6 111454297.048 6  86847525.52848  21209055.55148
  24190001.750 4 127119294.967 4  99054048.13248  24190010.99248
  22753400.539 6 119569927.435 6  93171391.76947  22753406.78147
  23840627.766 5 125283553.513 5  97623416.07647  23840635.07447
  21763968.367 6 114370422.838 6  89119836.30949  21763978.42249
 20  5 16  5 13  3.0000000  0  9G01G03G07G08G11G17G22G28G30          0.000323019
  20209923.414 7 106203864.064 7  82756260.23049  20209934.45349
  23499536.125 5 123491140.018 5  96226723.62248  23499548.75848
  20990095.734 6 110303696.611 6  85950954.73149  20990103.82449
  23127508.469 5 121535863.182 5  94703321.04148  23127518.58248
  21209466.195 6 111456492.382 6  86849236.18048  21209472.75448
  24189770.273 4 127118076.126 4  99053098.38748  24189779.23448
  22753151.570 6 119568618.644 6  93170371.93547  22753157.73447
  23840193.102 5 125281268.954 5  97621635.90447  23840200.30947
  21763836.016 6 114369729.937 6  89119296.38449  21763846.64549
 20  5 16  5 13  4.0000000  0  9G01G03G07G08G11G17G22G28G30          0.000323166
  20210068.555 7 106204624.024 7  82756852.40249  20210079.07049
  23499060.664 5 123488640.614 5  96224776.03148  23499073.39148
  20990341.344 6 110304986.735 6  85951960.02149  20990349.14849
  23127907.867 5 121537963.190 5  94704957.41548  23127918.14848
  21209883.938 6 111458688.496 6  86850947.43448  21209891.18048
  24189538.047 4 127116857.911 4  99052149.12848  24189547.64148
  22752903.070 6 119567310.754 6  93169352.79747  22752908.94947
  23839758.484 5 125278984.820 5  97619856.06047  23839765.62947
